~Version Information
VERS.                      2.0: CWLS Log ASCII Standard - VERSION 2.0
WRAP.                       NO: One line per depth step
~Well Information Block
STRT.FT               563.6000: 
STOP.FT              2133.0000: 
STEP.FT                 0.1000: 
NULL.                -999.2500: 
COMP.          Petrogulf Corporation: COMPANY
WELL.             State 16-43V: WELL
FLD.           Purgatorie River: FIELD
LOC.           2437' FSL & 734' FEL: LOCATION
CNTY.               Las Animas: COUNTY
SRVC.                         : SERVICE COMPANY
DATE.          Mon Dec 06 06:01:26 2004: LOG DATE
UWI.           05 071 08015 00: UNIQUE WELL ID
STAT.                 Colorado: STATE
~Curve Information Block
DEPT.FT            0 000 00 00: Depth
DCAL.in                       : CDL Caliper
RHOB.g/cc                     : CDL Bulk Density
RHOC.g/cc                     : CDL Density Correction
DPOR.pu                       : CDL Density Porosity
GR.GAPI                       : Gamma Ray
NPOR.pu                       : Neutron Porosity
~Parameter Information Block
~A  Depth       DCAL        RHOB        RHOC        DPOR         GR         NPOR    
# ...
   995.6000      7.8647      2.7214      0.0873     -4.3254    101.6143     24.0177
   995.7000      7.8647      2.6809      0.0269     -1.8711    102.4126     24.4482
   995.8000      7.8551      2.6590      0.0701     -0.5454    102.5794     24.3283
   995.9000      7.8551      2.6351      0.0582      0.9045    102.8168     23.8347
   996.0000      7.8782      2.6018      0.0375      2.9230    102.8280     23.7654
   996.1000      7.8782      2.5747     -0.0010      4.5648    102.7481     24.0290
   996.2000      7.8782      2.5607      0.0277      5.4116    106.2093     24.1590
   996.3000      7.8691      2.5611      0.0160      5.3884    111.1349     24.0886
   996.4000      7.8691      2.5824      0.0352      4.0968    110.2424     23.7417
   996.5000      7.8870      2.6198      0.0922      1.8325    104.7191     23.2534
   996.6000      7.8870      2.6522      0.1649     -0.1306    102.3238     23.0599
   996.7000      7.8870      2.6644      0.1785     -0.8705    107.3012     23.2320
   996.8000      7.8888      2.6611      0.1974     -0.6742    115.5653     23.4558
   996.9000      7.8888      2.6572      0.1778     -0.4335    119.6520     23.6038
   997.0000      7.8538      2.6658      0.1268     -0.9559    118.3135     23.8781
   997.1000      7.8538      2.6817      0.1660     -1.9241    117.7794     24.1836
   997.2000      7.8538      2.6833      0.1409     -2.0192    123.0031     24.3341
   997.3000      7.9249      2.6697      0.1261     -1.1933    130.9405     24.4722
   997.4000      7.9249      2.6606      0.0830     -0.6451    135.1080     24.5728
   997.5000      7.9530      2.6505      0.1156     -0.0311    135.5452     24.5108
   997.6000      7.9530      2.6111      0.0886      2.3575    135.2483     24.4419
   997.7000      7.9530      2.5524      0.0066      5.9152    130.5500     24.5626
   997.8000      7.9479      2.5185     -0.0066      7.9707    121.8971     24.6800
   997.9000      7.9479      2.5278      0.0084      7.4058    117.5044     24.5900
   998.0000      7.9347      2.5582      0.0359      5.5661    117.8785     24.5163
   998.1000      7.9347      2.5751      0.0422      4.5390    117.3844     24.4823
   998.2000      7.9347      2.5697      0.0533      4.8657    116.8249     24.4378
   998.3000      7.9465      2.5650      0.0057      5.1502    120.0108     24.6053
   998.4000      7.9465      2.5784      0.0692      4.3404    122.8657     25.0380
   998.5000      7.9334      2.5973      0.0776      3.1910    119.4359     25.3418
   998.6000      7.9334      2.6062      0.1126      2.6517    112.5751     25.2118
   998.7000      7.9334      2.6111      0.1051      2.3579    109.4611     24.7799
   998.8000      7.9138      2.6310      0.1330      1.1524    109.9707     24.1451
   998.9000      7.9138      2.6675      0.1172     -1.0586    108.3584     23.2552
   999.0000      7.9198      2.6961      0.2210     -2.7914    104.0999     22.2981
   999.1000      7.9198      2.7047      0.1510     -3.3134    100.9760     21.5969
   999.2000      7.9198      2.7016      0.1457     -3.1287    101.1592     21.2730
   999.3000      7.9027      2.6799      0.1295     -1.8149    102.6852     21.2304
   999.4000      7.9027      2.6374      0.0486      0.7653    100.9602     21.2081
   999.5000      7.8794      2.5971      0.0672      3.2038     97.4832     21.0053
   999.6000      7.8794      2.5782      0.0583      4.3516     96.0068     20.6227
   999.7000      7.8794      2.5789      0.0384      4.3117     97.4887     20.1602
   999.8000      7.9128      2.5868      0.0387      3.8300    100.5072     19.9441
   999.9000      7.9128      2.6023      0.0314      2.8889    101.9924     20.2533
  1000.0000      7.9145      2.6328      0.0885      1.0411    102.6817     20.8373
  1000.1000      7.9145      2.6623      0.1324     -0.7452    103.6860     21.3918
  1000.2000      7.9145      2.6689      0.1430     -1.1468    102.7192     21.7907
  1000.3000      7.9626      2.6569      0.1652     -0.4177     99.1208     21.7561
  1000.4000      7.9626      2.6450      0.1534      0.3022     95.3003     21.4271
  1000.5000      7.8952      2.6533      0.0999     -0.1988     92.9382     21.2112
  1000.6000      7.8952      2.6818      0.2021     -1.9296     90.6104     21.0983
  1000.7000      7.8952      2.7005      0.1545     -3.0622     87.3041     21.1951
  1000.8000      7.8854      2.6916      0.1409     -2.5215     84.3813     21.7057
  1000.9000      7.8854      2.6653      0.1429     -0.9270     83.5496     22.3095
  1001.0000      7.8705      2.6347      0.1173      0.9281     84.5097     22.6229
  1001.1000      7.8705      2.6049      0.1167      2.7342     85.8125     22.7139
  1001.2000      7.8705      2.5798      0.0566      4.2516     87.2499     22.8590
  1001.3000      7.8671      2.5724      0.0484      4.7009     89.4985     23.2491
  1001.4000      7.8671      2.5869      0.0523      3.8239     91.2110     23.6763
  1001.5000      7.8953      2.6067      0.0377      2.6272     89.3297     23.6623
  1001.6000      7.8953      2.6235      0.0605      1.6085     86.6216     23.1904
  1001.7000      7.8953      2.6500      0.0640      0.0013     88.7889     22.8188
  1001.8000      7.8720      2.6926      0.1147     -2.5825     95.2222     22.8215
  1001.9000      7.8720      2.7358      0.2046     -5.1998    100.9962     22.8601
  1002.0000      7.8364      2.7602      0.1909     -6.6772    102.4551     22.5152
  1002.1000      7.8364      2.7523      0.2003     -6.2008     98.5488     22.0150
  1002.2000      7.8364      2.7105      0.0815     -3.6670     91.5852     21.7390
  1002.3000      7.7674      2.6582      0.0791     -0.4966     84.0594     21.5970
  1002.4000      7.7674      2.6147      0.0115      2.1396     80.3467     21.5813
  1002.5000      7.7967      2.5772     -0.0273      4.4128     84.0715     21.8243
  1002.6000      7.7967      2.5390     -0.0100      6.7302     90.5716     22.1777
  1002.7000      7.7967      2.5071     -0.0414      8.6601     95.5297     22.4981
  1002.8000      7.8330      2.4968     -0.0163      9.2860    101.3032     23.0180
  1002.9000      7.8330      2.5090      0.0037      8.5450    109.4762     23.6513
  1003.0000      7.9757      2.5373     -0.0652      6.8293    117.3928     24.1375
  1003.1000      7.9757      2.5624      0.0677      5.3075    122.1569     24.8181
  1003.2000      7.9757      2.5618      0.0199      5.3440    124.1833     25.7174
  1003.3000      8.0187      2.5540      0.0644      5.8170    125.6875     26.4149
  1003.4000      8.0187      2.5629      0.1274      5.2759    128.3788     26.9326
  1003.5000      8.0683      2.5778      0.1188      4.3773    133.8497     27.4795
  1003.6000      8.0683      2.5802      0.0839      4.2325    141.8878     28.0433
  1003.7000      8.0683      2.5699      0.0429      4.8556    148.4380     28.4702
  1003.8000      8.0904      2.5661      0.0618      5.0851    149.4406     28.7745
  1003.9000      8.0904      2.5886      0.0664      3.7193    146.7339     29.2702
  1004.0000      8.0067      2.6363      0.0945      0.8274    149.4643     29.7927
  1004.1000      8.0067      2.6835      0.1141     -2.0324    161.0125     29.9242
  1004.2000      8.0067      2.7010      0.1515     -3.0923    170.5239     29.9864
  1004.3000      7.9378      2.6853      0.0846     -2.1366    168.3048     30.0062
  1004.4000      7.9378      2.6587      0.0657     -0.5260    158.5213     29.4961
  1004.5000      7.9193      2.6345      0.0843      0.9392    151.0907     28.5549
  1004.6000      7.9193      2.6086      0.0576      2.5106    149.9499     27.6627
  1004.7000      7.9193      2.5849      0.0345      3.9439    152.6141     27.0497
  1004.8000      7.9033      2.5759      0.0103      4.4932    151.2780     26.6356
  1004.9000      7.9033      2.5886      0.0220      3.7198    142.0999     26.3257
  1005.0000      7.9056      2.6135      0.0839      2.2099    129.0695     26.2168
  1005.1000      7.9056      2.6352      0.0397      0.8984    119.2717     26.1277
