~Version Information
VERS.                      2.0: CWLS Log ASCII Standard - VERSION 2.0
WRAP.                       NO: One line per depth step
~Well Information Block
STRT.FT               340.0000: 
STOP.FT              1731.0000: 
STEP.FT                 0.1000: 
NULL.                -999.2500: 
COMP.          Pioneer Natural Resources: COMPANY
WELL.          Rancher 12-35 Tr: WELL
FLD.           Purgatoire River: FIELD
LOC.           2242' FNL & 308' FWL SWNW 35 32S 67W: LOCATION
PROV.                 Colorado: PROVINCE
CNTY.               Las Animas: COUNTRY
SRVC.                Patterson: SERVICE COMPANY
DATE.          Tue Jul 05 07:18:22 2005: LOG DATE
UWI.              05 071 08430 00: UNIQUE WELL ID
~Curve Information Block
DEPT.FT            0 000 00 00: Depth
DCAL.in                       : CDL Caliper
RHOB.g/cc                     : CDL Bulk Density
RHOC.g/cc                     : CDL Density Correction
DPOR.pu                       : CDL Density Porosity
GR.GAPI                       : Gamma Ray
NPOR.pu                       : Neutron Porosity
~Parameter Information Block
~A  Depth       DCAL        RHOB        RHOC        DPOR         GR         NPOR    
# ...
  1530.4000      8.0308      2.4418      0.0134     12.6173     64.3964     18.5112
  1530.5000      8.0186      2.4619      0.0783     11.4009     65.6076     18.9317
  1530.6000      8.0186      2.4710      0.0710     10.8488     74.6660     18.9423
  1530.7000      8.0186      2.4627      0.0477     11.3544     83.2966     19.3008
  1530.8000      7.9793      2.4536      0.0550     11.9022     87.3049     20.0194
  1530.9000      7.9793      2.4550      0.0588     11.8202     87.2060     20.0153
  1531.0000      7.9726      2.4619      0.0619     11.3995     85.4140     19.3894
  1531.1000      7.9726      2.4745      0.0374     10.6339     82.9023     18.9564
  1531.2000      7.9726      2.4885      0.0879      9.7880     79.4581     18.7935
  1531.3000      7.9387      2.4854      0.0652      9.9786     76.5658     18.5176
  1531.4000      7.9387      2.4704      0.0258     10.8862     73.9177     18.1722
  1531.5000      7.9610      2.4682      0.0636     11.0175     72.1357     17.9512
  1531.6000      7.9610      2.4826      0.0816     10.1426     72.6363     17.4648
  1531.7000      7.9610      2.4965      0.0940      9.3019     72.8497     16.4305
  1531.8000      7.9696      2.4977      0.0733      9.2319     71.1194     15.4943
  1531.9000      7.9696      2.4867      0.0667      9.8996     69.9744     15.6830
  1532.0000      7.9736      2.4739      0.0145     10.6728     69.8403     16.9312
  1532.1000      7.9736      2.4736      0.0368     10.6914     69.5216     18.0048
  1532.2000      7.9736      2.4735      0.0878     10.6964     69.1837     18.0544
  1532.3000      7.9825      2.4518      0.0293     12.0121     69.2721     17.7411
  1532.4000      7.9825      2.4273      0.0248     13.4974     72.2460     17.9145
  1532.5000      7.9911      2.4286      0.0105     13.4192     80.4492     17.9533
  1532.6000      7.9911      2.4503      0.0384     12.1027     88.8185     17.1075
  1532.7000      7.9911      2.4754      0.0518     10.5823     88.7671     16.2450
  1532.8000      7.9890      2.4980      0.0583      9.2100     79.6292     16.0961
  1532.9000      7.9890      2.5082      0.1019      8.5952     70.6831     16.6009
  1533.0000      7.9881      2.4983      0.0376      9.1923     70.8440     17.8629
  1533.1000      7.9881      2.4798      0.0421     10.3175     77.0836     19.2103
  1533.2000      7.9881      2.4673     -0.0087     11.0697     79.7174     19.3295
  1533.3000      7.9781      2.4644      0.0422     11.2503     75.2824     18.5446
  1533.4000      7.9781      2.4618      0.0451     11.4059     69.2325     18.3117
  1533.5000      7.9748      2.4540      0.0544     11.8812     69.6474     18.6104
  1533.6000      7.9748      2.4523      0.0417     11.9824     75.4410     18.6871
  1533.7000      7.9748      2.4694      0.0465     10.9452     79.3991     18.4284
  1533.8000      7.9495      2.4954      0.0954      9.3715     80.0907     18.0040
  1533.9000      7.9495      2.5099      0.0599      8.4927     78.9295     17.6879
  1534.0000      7.9346      2.5105      0.0700      8.4532     78.7436     17.6405
  1534.1000      7.9346      2.5087      0.1019      8.5639     83.6166     17.7156
  1534.2000      7.9346      2.5002      0.1037      9.0759     90.8615     17.7421
  1534.3000      7.9337      2.4718      0.0693     10.8012     93.8970     17.8209
  1534.4000      7.9337      2.4367     -0.0164     12.9302     92.2400     17.7803
  1534.5000      7.9366      2.4270     -0.0183     13.5180     89.2918     17.5165
  1534.6000      7.9366      2.4491      0.0012     12.1747     86.3347     17.2047
  1534.7000      7.9366      2.4743      0.0304     10.6470     84.3972     16.6958
  1534.8000      7.9441      2.4799     -0.0137     10.3102     85.4269     16.1525
  1534.9000      7.9441      2.4713      0.0451     10.8289     88.2619     16.0151
  1535.0000      7.9509      2.4600     -0.0503     11.5141     86.9973     15.9606
  1535.1000      7.9509      2.4523      0.0312     11.9831     79.0610     15.7310
  1535.2000      7.9509      2.4486      0.0401     12.2067     70.5377     15.4517
  1535.3000      7.9540      2.4513      0.0166     12.0453     67.7150     15.0585
  1535.4000      7.9540      2.4575      0.0631     11.6648     67.5704     15.0199
  1535.5000      7.9590      2.4582      0.0665     11.6249     66.7091     15.8797
  1535.6000      7.9590      2.4541      0.0449     11.8714     70.5241     17.3057
  1535.7000      7.9590      2.4520      0.0504     11.9990     78.1446     18.5840
  1535.8000      7.9706      2.4569      0.0036     11.7021     80.9164     19.1855
  1535.9000      7.9706      2.4698      0.0635     10.9207     78.5657     19.0174
  1536.0000      7.9760      2.4803      0.0727     10.2862     78.1156     18.4371
  1536.1000      7.9760      2.4800      0.0762     10.3027     80.5494     17.8633
  1536.2000      7.9760      2.4703      0.0557     10.8893     82.4644     17.8748
  1536.3000      7.9817      2.4615      0.0220     11.4231     82.4668     18.5746
  1536.4000      7.9817      2.4652      0.0444     11.2002     79.1654     19.0427
  1536.5000      7.9595      2.4839      0.0677     10.0662     72.4871     18.5770
  1536.6000      7.9595      2.5130      0.0281      8.3059     65.3312     17.8004
  1536.7000      7.9595      2.5391      0.1032      6.7222     62.5197     17.1437
  1536.8000      7.9309      2.5449      0.1134      6.3714     66.3536     16.0576
  1536.9000      7.9309      2.5323      0.0471      7.1337     71.9862     14.8544
  1537.0000      7.9272      2.5219      0.0548      7.7665     75.5668     14.6018
  1537.1000      7.9272      2.5225      0.0635      7.7268     78.6324     15.1959
  1537.2000      7.9272      2.5299      0.0355      7.2773     81.7511     15.7251
  1537.3000      7.9329      2.5405      0.0196      6.6353     83.1867     15.8266
  1537.4000      7.9329      2.5476      0.0436      6.2066     82.4750     15.5772
  1537.5000      7.9396      2.5510      0.0231      6.0010     82.2118     15.1249
  1537.6000      7.9396      2.5627      0.0295      5.2899     81.4988     14.4655
  1537.7000      7.9396      2.5768      0.0897      4.4360     77.0194     13.3773
  1537.8000      7.9531      2.5708      0.0849      4.7982     71.5971     12.1556
  1537.9000      7.9531      2.5486      0.0197      6.1479     68.4453     11.8141
  1538.0000      7.9786      2.5256      0.0514      7.5391     69.2356     12.3765
  1538.1000      7.9786      2.5021      0.0134      8.9658     76.1128     12.5780
  1538.2000      7.9786      2.4868      0.0239      9.8888     84.4312     12.2385
  1538.3000      7.9965      2.4961     -0.0345      9.3271     87.5471     12.5019
  1538.4000      7.9965      2.5205      0.0290      7.8491     87.3279     13.5718
  1538.5000      7.9949      2.5371     -0.0200      6.8400     90.1803     14.4048
  1538.6000      7.9949      2.5454      0.0242      6.3383     95.9903     14.4152
  1538.7000      7.9949      2.5513      0.0363      5.9806     99.7660     14.1101
  1538.8000      8.0247      2.5540      0.0714      5.8187     98.2433     14.2079
  1538.9000      8.0247      2.5485      0.1143      6.1545     93.0687     15.0599
  1539.0000      8.0259      2.5328      0.0586      7.1028     91.3750     16.1801
  1539.1000      8.0259      2.5254      0.0092      7.5497     97.3745     17.0795
  1539.2000      8.0259      2.5399      0.0663      6.6735    107.5200     17.9332
  1539.3000      8.0030      2.5523      0.1043      5.9190    117.9358     18.7413
  1539.4000      8.0030      2.5415      0.0836      6.5752    125.3104     19.5137
  1539.5000      7.9688      2.5191      0.0555      7.9332    123.5568     20.2754
  1539.6000      7.9688      2.5021      0.0594      8.9611    113.3512     20.7655
  1539.7000      7.9688      2.4943      0.0422      9.4380    104.0118     20.8581
  1539.8000      7.9838      2.4940      0.0139      9.4553    101.1869     20.6433
  1539.9000      7.9838      2.4973      0.0215      9.2560    101.7548     19.8740
