~Version Information
 VERS.                                  2.0 : CWLS LAS VERSION
 WRAP.                                   NO : WRAPING MODE
 SWARE .                 MController 2.5.0N : SOFTWARE VERSION
~Well Information
 WELL.                     Commander 43-25Tr : WELL
 COMP.    Pioneer Natural Resources USA Inc : COMPANY
 FLD.                      Purgatoire River : FIELD
 LOC.                NE/SE Sec 26 T32S R67W : LOCATION
 DATE.                              4/14/05 : DATE(S) LOGGED
 SRVC.       Blanco Geological Services LLC : SERVICE COMPANY
 STAT.                                   CO : STATE
 CNTY.                           Las Animas : COUNTY
 CTRY.                                  USA : COUNTRY
 API.                       05-071-08341-00 : API NUMBER
 STRT.FT                             275.00 : START DEPTH
 STOP.FT                            1979.00 : STOP DEPTH
 STEP.FT                               1.00 : DEPTH INCREMENT
 NULL.                                -9999 : NULL VALUE
~Curve information
 DEPTH.FT                                   :
 ROP.MIN/FT                                 :
 GAS.UNITS                                  :
~ASCII Log data
# ...
      1475.0         0.18        214.6 
      1476.0         0.17        206.9 
      1477.0         0.13        200.4 
      1478.0         0.17        197.5 
      1479.0         0.17        194.8 
      1480.0         0.13        192.2 
      1481.0         0.33        190.5 
      1482.0         0.30        186.7 
      1483.0         0.33        182.9 
      1484.0         0.30        177.5 
      1485.0         0.20        170.9 
      1486.0         0.20        165.4 
      1487.0         0.27        158.2 
      1488.0         0.17        147.1 
      1489.0         0.13        140.9 
      1490.0         0.25        144.0 
      1491.0         0.17        147.8 
      1492.0         0.20        145.1 
      1493.0         0.17        131.2 
      1494.0         0.13        120.3 
      1495.0         0.27        111.8 
      1496.0         2.42        111.1 
      1497.0         0.17        142.9 
      1498.0         0.37        222.5 
      1499.0         0.30        282.2 
      1500.0         0.27        321.8 
      1501.0         0.17        342.6 
      1502.0         0.17        354.7 
      1503.0         0.13        358.6 
      1504.0         0.17        358.6 
      1505.0         0.30        354.3 
      1506.0         0.33        325.7 
      1507.0         0.30        270.3 
      1508.0         0.27        223.3 
      1509.0         0.30        197.9 
      1510.0         0.35        180.0 
      1511.0         0.23        172.0 
      1512.0         0.30        175.2 
      1513.0         0.27        176.6 
      1514.0         0.30        176.2 
      1515.0         0.27        173.0 
      1516.0         0.23        166.7 
      1517.0         0.27        161.5 
      1518.0         0.27        156.6 
      1519.0         0.53        151.4 
      1520.0         0.42        136.5 
      1521.0         0.53        132.1 
      1522.0         0.60        128.1 
      1523.0         0.53         98.8 
      1524.0         1.37         96.3 
      1525.0         0.52        207.8 
      1526.0         0.33        302.2 
      1527.0         0.47        407.0 
      1528.0         0.23        429.5 
      1529.0         0.17        431.3 
      1530.0         0.27        428.0 
      1531.0         0.30        394.8 
      1532.0         0.10        337.7 
      1533.0         0.27        315.9 
      1534.0         0.17        270.6 
      1535.0         0.23        245.6 
      1536.0         0.20        213.9 
      1537.0         0.07        191.0 
      1538.0         0.18        184.7 
      1539.0         0.23        170.7 
      1540.0         0.27        159.5 
      1541.0         0.23        153.4 
      1542.0         0.27        158.4 
      1543.0         0.30        163.7 
      1544.0         0.23        165.2 
      1545.0         0.13        165.3 
      1546.0         0.23        164.7 
      1547.0         0.30        161.1 
      1548.0         0.20        156.4 
      1549.0         0.27        152.8 
      1550.0         0.23        147.4 
      1551.0         0.23        149.7 
      1552.0         0.28        153.7 
      1553.0         0.57        149.0 
      1554.0         0.50        126.9 
      1555.0         1.93        228.5 
      1556.0         0.45        347.2 
      1557.0         0.30        421.3 
      1558.0         0.30        472.5 
      1559.0         0.23        957.7 
      1560.0         0.37        935.8 
      1561.0         0.33        803.6 
      1562.0         0.27        661.3 
      1563.0         0.30        580.5 
      1564.0         0.30        505.3 
      1565.0         0.37        494.8 
      1566.0         0.30        480.1 
      1567.0         0.28        440.0 
      1568.0         0.23        440.0 
      1569.0         0.20        440.0 
      1570.0         0.20        440.0 
      1571.0         0.20        472.6 
      1572.0         0.23        472.2 
      1573.0         0.23        468.0 
      1574.0         0.23        456.5 
      1575.0         0.23        440.0 
      1576.0         0.20        440.0 
      1577.0         0.10        138.3 
      1578.0         0.17        135.6 
      1579.0         0.20        133.7 
      1580.0         0.10        137.3 
      1581.0         0.23        140.0 
      1582.0         0.23        136.1 
      1583.0         0.25        127.7 
      1584.0         0.10        123.7 
      1585.0         1.50        124.6 
      1586.0         0.40        127.9 
      1587.0         0.40        199.3 
      1588.0         0.30        274.7 
      1589.0         0.23        337.4 
      1590.0         0.27        399.0 
      1591.0         0.32        439.9 
      1592.0         0.30        445.9 
      1593.0         0.27        430.4 
      1594.0         0.30        378.4 
      1595.0         0.23        306.2 
      1596.0         0.20        261.7 
      1597.0         0.23        232.4 
      1598.0         0.23        204.7 
      1599.0         0.17        183.8 
      1600.0         0.33        173.2 
      1601.0         0.27        162.6 
      1602.0         0.33        163.7 
      1603.0         0.25        164.9 
      1604.0         0.13        164.9 
      1605.0         0.27        164.7 
      1606.0         0.20        163.3 
      1607.0         0.17        163.1 
      1608.0         0.23        162.0 
      1609.0         0.23        156.3 
      1610.0         0.23        147.8 
      1611.0         0.23        139.6 
      1612.0         0.27        139.3 
      1613.0         0.30        140.8 
      1614.0         0.30        132.8 
      1615.0         3.52        435.9 
      1616.0         0.33        447.1 
      1617.0         0.28        435.4 
      1618.0         0.27        390.0 
      1619.0         0.27        328.2 
      1620.0         0.30        271.2 
      1621.0         0.23        226.7 
      1622.0         0.33        201.1 
      1623.0         0.40        175.6 
      1624.0         0.37        159.2 
      1625.0         0.30        162.3 
      1626.0         0.23        163.8 
      1627.0         0.23        165.1 
      1628.0         0.20        165.1 
      1629.0         0.13        164.0 
      1630.0         0.12        161.1 
      1631.0         0.17        159.7 
      1632.0         0.20        155.5 
      1633.0         0.13        150.7 
      1634.0         0.20        147.1 
      1635.0         0.23        142.3 
      1636.0         0.27        137.5 
      1637.0         0.23        132.8 
      1638.0         0.23        139.7 
      1639.0         0.23        139.7 
      1640.0         0.50        131.8 
      1641.0         0.10        119.2 
      1642.0         0.43        118.8 
      1643.0         0.07        116.9 
      1644.0         0.35        116.0 
      1645.0         0.80        109.1 
      1646.0         0.63        223.6 
      1647.0         0.47        358.8 
      1648.0         0.23        428.2 
      1649.0         0.37       1010.1 
      1650.0         0.43       1030.3 
      1651.0         0.27        996.7 
      1652.0         0.22        891.3 
      1653.0         0.23        790.5 
      1654.0         0.23        683.2 
      1655.0         0.50        610.0 
      1656.0         0.23        490.9 
      1657.0         0.23        505.6 
      1658.0         0.23        440.0 
      1659.0         0.23        440.0 
      1660.0         0.23        440.0 
      1661.0         0.23        440.0 
      1662.0         0.20        440.0 
      1663.0         0.20        474.5 
      1664.0         0.20        475.8 
      1665.0         0.25        475.5 
      1666.0         0.23        472.2 
      1667.0         0.23        464.1 
      1668.0         0.23        457.2 
      1669.0         0.27        447.7 
      1670.0         0.23        440.0 
      1671.0         0.27        143.4 
      1672.0         0.23        147.1 
      1673.0         0.23        146.9 
      1674.0         0.37        140.2 
