~Version Information
VERS.                      2.0: CWLS Log ASCII Standard - VERSION 2.0
WRAP.                       NO: One line per depth step
~Well Information Block
STRT.FT               650.0000: 
STOP.FT              1999.0000: 
STEP.FT                 0.2500: 
NULL.                -999.2500: 
COMP.          Pioneer Natural Resources: COMPANY
WELL.           Firehawk 34-26: WELL
FLD.           Purgatoire River: FIELD
LOC.           1196' FSL & 1595' FEL--: LOCATION
STAT.                 Colorado: State
CNTY.               Las Animas: COUNTY
CTRY. USA : Country
SECT. 26 : Section
TOWN. 32S : Township
RANG. 66W : Range
SRVC.                Patterson: SERVICE COMPANY
DATE.          Sun Oct 16 16:57:28 2005: LOG DATE
API.           05 071 08389 00: UNIQUE WELL ID
~Curve Information Block
DEPT.FT            0 000 00 00: Depth
SN.Ohm-m                      : IEL Short Normal
SP.mV                         : IEL Spontaneous Potential
DIR.Ohm-m                     : IEL Induction Resistivity
GR.GAPI                       : Gamma Ray
~Parameter Information Block
~A  Depth        SN          SP         DIR          GR     
# ...
  1956.5000     21.5169    125.8940     17.1352    100.2139
  1956.7500     21.8014    125.9445     17.3804    102.0498
  1957.0000     21.6897    125.9956     17.6372    103.3029
  1957.2500     21.3854    126.0302     17.8700    102.7861
  1957.5000     21.0371    126.0289     18.0498    100.6042
  1957.7500     20.6988    125.9937     18.1650     98.8830
  1958.0000     20.3928    125.9445     18.2215     96.6541
  1958.2500     20.1391    125.8950     18.2329     95.5695
  1958.5000     19.9429    125.8439     18.2112     94.6362
  1958.7500     19.7955    125.7876     18.1634     94.3783
  1959.0000     19.6919    125.7276     18.0954     94.0522
  1959.2500     19.6439    125.6631     18.0166     93.6648
  1959.5000     19.6682    125.5881     17.9407     93.0400
  1959.7500     19.7615    125.5051     17.8823     92.9041
  1960.0000     19.8965    125.4385     17.8543     93.4650
  1960.2500     20.0409    125.4279     17.8684     94.3891
  1960.5000     20.1682    125.4985     17.9346     96.6045
  1960.7500     20.2604    125.6363     18.0586     98.5863
  1961.0000     20.3161    125.7970     18.2363    101.7610
  1961.2500     20.3583    125.9399     18.4534    103.3138
  1961.5000     20.4261    126.0512     18.6930    103.6255
  1961.7500     20.5580    126.1399     18.9462    102.4634
  1962.0000     20.7845    126.2249     19.2188    100.1669
  1962.2500     21.1227    126.3317     19.5255     99.4529
  1962.5000     21.5711    126.4953     19.8808    100.4760
  1962.7500     22.1235    126.7549     20.2915    102.0505
  1963.0000     22.7882    127.1325     20.7578    104.2330
  1963.2500     23.5861    127.5994     21.2777    105.0577
  1963.5000     24.5330    128.0669     21.8494    105.4640
  1963.7500     25.6391    128.4265     22.4699    105.5766
  1964.0000     26.9153    128.6121     23.1322    106.3282
  1964.2500     28.3503    128.6259     23.8267    107.5233
  1964.5000     29.8875    128.5144     24.5438    110.0647
  1964.7500     31.4349    128.3365     25.2737    111.5751
  1965.0000     32.8933    128.1602     26.0025    111.9635
  1965.2500     34.1908    128.0695     26.7098    109.9812
  1965.5000     35.2951    128.1471     27.3711    102.1105
  1965.7500     36.1802    128.4260     27.9631     93.0344
  1966.0000     36.7986    128.8534     28.4674     73.8529
  1966.2500     37.1081    129.3091     28.8656     58.4463
  1966.5000     37.1097    129.6689     29.1338     35.1470
  1966.7500     36.8413    129.8619     29.2437     22.0656
  1967.0000     36.3552    129.8849     29.1763      8.8026
  1967.2500     35.7056    129.7828     28.9356      4.0611
  1967.5000     34.9452    129.6194     28.5539      0.9811
  1967.7500     34.1161    129.4562     28.0797      0.3176
  1968.0000     33.2363    129.3463     27.5607      0.0430
  1968.2500     32.3113    129.3346     27.0314      0.0085
  1968.5000     31.3625    129.4514     26.5129   -999.2500
  1968.7500     30.4352    129.6969     26.0191   -999.2500
  1969.0000     29.5674    130.0350     25.5619   -999.2500
  1969.2500     28.7583    130.4030     25.1501   -999.2500
  1969.5000     27.9897    130.7349     24.7873   -999.2500
  1969.7500     27.2682    130.9851     24.4719   -999.2500
  1970.0000     26.6240    131.1468     24.2019   -999.2500
  1970.2500     26.0784    131.2506     23.9802   -999.2500
  1970.5000     25.6286    131.3394     23.8118   -999.2500
  1970.7500     25.2571    131.4319     23.6947   -999.2500
  1971.0000     24.9499    131.5107     23.6129   -999.2500
  1971.2500     24.7040    131.5471     23.5408   -999.2500
  1971.5000     24.5194    131.5359     23.4573   -999.2500
  1971.7500     24.3883    131.5048     23.3561   -999.2500
  1972.0000     24.2997    131.4932     23.2446   -999.2500
  1972.2500     24.2430    131.5299     23.1333   -999.2500
  1972.5000     24.1970    131.6253     23.0252   -999.2500
  1972.7500     24.1344    131.7708     22.9115   -999.2500
  1973.0000     24.0454    131.9415     22.7746   -999.2500
  1973.2500     23.9365    132.1103     22.5966   -999.2500
  1973.5000     23.8065    132.2640     22.3715   -999.2500
  1973.7500     23.6369    132.4046     22.1127   -999.2500
  1974.0000     23.4043    132.5336     21.8503   -999.2500
  1974.2500     23.1025    132.6406     21.6188   -999.2500
  1974.5000     22.7567    132.7130     21.4428   -999.2500
  1974.7500     22.4214    132.7550     21.3281   -999.2500
  1975.0000     22.1476    132.7890     21.2610   -999.2500
  1975.2500     21.9509    132.8365     21.2143   -999.2500
  1975.5000     21.8185    132.8972     21.1596   -999.2500
  1975.7500     21.7387    132.9534     21.0801   -999.2500
  1976.0000     21.7149    132.9930     20.9771   -999.2500
  1976.2500     21.7626    133.0267     20.8652   -999.2500
  1976.5000     21.8939    133.0832     20.7598   -999.2500
  1976.7500     22.0991    133.1879     20.6686   -999.2500
  1977.0000     22.3529    133.3497     20.5905   -999.2500
  1977.2500     22.6353    133.5630     20.5218   -999.2500
  1977.5000     22.9257    133.8148     20.4613   -999.2500
  1977.7500     23.1748    134.0884     20.4108   -999.2500
  1978.0000     23.3153    134.3661     20.3716   -999.2500
  1978.2500     23.3148    134.6398     20.3415   -999.2500
  1978.5000     23.1921    134.9193     20.3121   -999.2500
  1978.7500     22.9803    135.2208     20.2699   -999.2500
  1979.0000     22.7013    135.5393     20.2000   -999.2500
  1979.2500     22.3760    135.8383     20.0909   -999.2500
  1979.5000     22.0338    136.0780     19.9413   -999.2500
  1979.7500     21.7044    136.2485     19.7629   -999.2500
  1980.0000     21.4018    136.3697     19.5758   -999.2500
  1980.2500     21.1155    136.4630     19.4006   -999.2500
  1980.5000     20.8289    136.5327     19.2496   -999.2500
  1980.7500     20.5512    136.5717     19.1264   -999.2500
  1981.0000     20.3191    136.5749     19.0284   -999.2500
  1981.2500     20.1654    136.5423     18.9477   -999.2500
  1981.5000     20.0940    136.4798     18.8672   -999.2500
  1981.7500     20.0905    136.4010     18.7623   -999.2500
  1982.0000     20.1378    136.3253     18.6130   -999.2500
  1982.2500     20.2213    136.2684     18.4220   -999.2500
  1982.5000     20.3308    136.2347     18.2183   -999.2500
  1982.7500     20.4566    136.2220     18.0414   -999.2500
  1983.0000     20.5763    136.2328     17.9177   -999.2500
  1983.2500     20.6579    136.2762     17.8501   -999.2500
  1983.5000     20.6841    136.3506     17.8245   -999.2500
  1983.7500     20.6689    136.4263     17.8227   -999.2500
  1984.0000     20.6419    136.4556     17.8289   -999.2500
  1984.2500     20.6118    136.4098     17.8279   -999.2500
  1984.5000     20.5514    136.3047     17.8034   -999.2500
  1984.7500     20.4169    136.1910     17.7433   -999.2500
  1985.0000     20.1796    136.1227     17.7624   -999.2500
  1985.2500     19.8557    136.1330     17.6542   -999.2500
  1985.5000     19.5051    136.2251     17.5509   -999.2500
  1985.7500     19.1928    136.3737     17.4488   -999.2500
  1986.0000     18.9525    136.5364     17.3091   -999.2500
  1986.2500     18.7787    136.6721     17.0721   -999.2500
  1986.5000     18.6281    136.7583     16.6955   -999.2500
  1986.7500     18.4331    136.7988     16.1860   -999.2500
  1987.0000     18.1321    136.8192     15.6050   -999.2500
  1987.2500     17.6903    136.8482     15.0494   -999.2500
  1987.5000     17.1092    136.8971     14.6348   -999.2500
  1987.7500     16.4372    136.9585     14.5054   -999.2500
  1988.0000     15.7557    137.0263     14.8686   -999.2500
  1988.2500     15.1143    137.1135     16.0596   -999.2500
  1988.5000     14.4698    137.2471     18.5359   -999.2500
  1988.7500     13.7041    137.4487     23.7518   -999.2500
  1989.0000     12.7457    137.7190     34.5120   -999.2500
  1989.2500     11.7171    138.0350     59.4115   -999.2500
  1989.5000     10.9333    138.3579    135.6684   -999.2500
  1989.7500     10.7015    138.6457    870.5544   -999.2500
