~Version Information
VERS.                      2.0: CWLS Log ASCII Standard - VERSION 2.0
WRAP.                       NO: One line per depth step
~Well Information Block
STRT.FT               -10.0000: 
STOP.FT              2184.0000: 
STEP.FT                 0.2500: 
NULL.                -999.2500: 
COMP.          Petrogulf Corporation: COMPANY
WELL.              Silva 1-43R: WELL
FLD.           Purgatorie River: FIELD
LOC.           1971' FSL & 526' FEL--: LOCATION
CNTY.               Las Animas: COUNTY
SRVC.          Patterson Wireline: SERVICE COMPANY
DATE.          Thu Jul 13 13:08:17 2006: LOG DATE
UWI.           05 072 08372 00: UNIQUE WELL ID
STAT.                       CO: STATE
~Curve Information Block
DEPT.FT            0 000 00 00: Depth
CCL.                          : Casing Collar Locator
TT3.usec                      : CBL 3' Travel Time
AMP3.mV                       : CBL 3' Amplitude
GR.GAPI                       : Gamma Ray
~Parameter Information Block
~A  Depth       CCL         TT3         AMP3         GR     
# ...
  1430.5000      0.0000    470.4458     10.7551    147.0468
  1430.7500      0.0000    425.8737     10.9316    146.5650
  1431.0000      0.0000    388.5485     11.0810    141.2298
  1431.2500      0.0000    365.0583     11.1861    132.1173
  1431.5000      0.0000    354.0796     11.2449    122.4315
  1431.7500      0.0000    352.8577     11.2365    115.7925
  1432.0000      0.0000    360.0918     11.1153    114.2655
  1432.2500      0.0000    374.5989     10.8418    117.9238
  1432.5000      0.0000    393.5388     10.4135    125.7175
  1432.7500      0.0000    413.5412      9.8608    135.9264
  1433.0000      0.0000    434.0100      9.2296    146.0016
  1433.2500      0.0000    457.4510      8.5875    153.3906
  1433.5000      0.0000    484.8308      8.0373    157.4137
  1433.7500      0.0000    512.6683      7.6767    159.7363
  1434.0000      0.0000    536.9551      7.5122    162.2865
  1434.2500      0.0000    557.1433      7.4358    164.9278
  1434.5000      0.0000    573.2472      7.3212    165.4716
  1434.7500      0.0000    583.0698      7.1314    161.7041
  1435.0000      0.0000    586.5471      6.9145    153.3989
  1435.2500      0.0000    588.8359      6.7237    142.7132
  1435.5000      2.0000    594.7791      6.5683    132.8234
  1435.7500      0.0000    602.8547      6.4238    126.0459
  1436.0000      0.0000    607.2020      6.2726    122.7849
  1436.2500      0.0000    604.5139      6.1307    121.7805
  1436.5000      0.0000    598.4037      6.0174    121.2999
  1436.7500      0.0000    596.7074      5.8948    120.4115
  1437.0000      0.0000    603.3170      5.6769    119.4278
  1437.2500      0.0000    613.5837      5.3300    119.3967
  1437.5000      0.0000    619.2060      4.9389    121.2721
  1437.7500      0.0000    616.0800      4.6363    125.3221
  1438.0000      0.0000    606.0237      4.4840    130.8065
  1438.2500      0.0000    592.6284      4.4440    135.9732
  1438.5000      0.0000    576.8860      4.4389    138.7107
  1438.7500      0.0000    556.5010      4.4116    137.8647
  1439.0000      0.0000    529.6652      4.3391    134.2858
  1439.2500      0.0000    499.9993      4.2233    130.3414
  1439.5000      0.0000    477.1016      4.0866    127.9810
  1439.7500      0.0000    471.6025      3.9749    127.2414
  1440.0000      0.0000    489.1086      3.9504    126.7883
  1440.2500      0.0000    526.6119      4.0674    125.6068
  1440.5000      0.0000    572.7477      4.3519    123.7216
  1440.7500      0.0000    612.8605      4.8091    121.5893
  1441.0000      0.0000    636.0743      5.4529    119.5323
  1441.2500      0.0000    638.7098      6.3240    117.7651
  1441.5000      0.0000    622.3554      7.4784    116.5028
  1441.7500      0.0000    590.3067      8.9728    116.1311
  1442.0000      0.0000    545.6249     10.8716    117.2862
  1442.2500      0.0000    491.5917     13.2609    120.1242
  1442.5000      0.0000    433.7362     16.2288    123.4898
  1442.7500      0.0000    380.1588     19.8139    125.6448
  1443.0000      0.0000    337.9199     23.9550    125.7133
  1443.2500      0.0000    309.0209     28.4611    123.7948
  1443.5000      0.0000    290.7388     33.0218    120.2825
  1443.7500      0.0000    279.1995     37.2645    115.8777
  1444.0000      0.0000    271.8838     40.8129    111.7528
  1444.2500      0.0000    267.6336     43.3049    109.0380
  1444.5000      0.0000    265.7884     44.4394    108.4596
  1444.7500      0.0000    265.9273     44.1107    110.4558
  1445.0000      0.0000    267.9712     42.5095    114.9129
  1445.2500      0.0000    272.0357     40.0571    120.5869
  1445.5000      0.0000    277.8285     37.2306    125.3025
  1445.7500      0.0000    284.2701     34.4323    127.1930
  1446.0000      0.0000    289.9172     31.9386    125.9138
  1446.2500      0.0000    293.8484     29.8877    122.6924
  1446.5000      0.0000    296.0653     28.3003    119.1745
  1446.7500      0.0000    297.1080     27.1345    116.2303
  1447.0000      0.0000    297.4839     26.3416    113.8155
  1447.2500      0.0000    297.4631     25.8694    111.7548
  1447.5000      0.0000    297.1948     25.6082    110.4461
  1447.7500      0.0000    296.8285     25.3579    110.7225
  1448.0000      0.0000    296.5038     24.8891    112.9953
  1448.2500      0.0000    296.3063     24.0561    116.6153
  1448.5000      0.0000    296.3194     22.8469    120.2073
  1448.7500      0.0000    296.7789     21.3458    122.6221
  1449.0000      0.0000    298.2270     19.6790    123.6083
  1449.2500      0.0000    301.4791     17.9961    123.7479
  1449.5000      0.0000    307.2011     16.4674    123.8933
  1449.7500      0.0000    315.1917     15.2559    124.4542
  1450.0000      0.0000    324.0341     14.4642    124.9876
  1450.2500      0.0000    331.7207     14.1079    124.8317
  1450.5000      0.0000    336.7601     14.1536    124.2494
  1450.7500      0.0000    338.6003     14.5893    124.3951
  1451.0000      0.0000    337.1674     15.4547    125.8587
  1451.2500      0.0000    332.4933     16.8126    127.7160
  1451.5000      0.0000    325.0219     18.7280    128.4477
  1451.7500      0.0000    315.8828     21.3024    127.5856
  1452.0000      0.0000    306.3330     24.7098    126.0092
  1452.2500      0.0000    296.9515     29.1404    124.7916
  1452.5000      0.0000    287.7818     34.6609    124.2567
  1452.7500      0.0000    279.1955     41.0967    124.1114
  1453.0000      0.0000    272.1146     48.0128    124.0266
  1453.2500      0.0000    267.2715     54.8095    123.9503
  1453.5000      0.0000    264.5938     60.9176    124.2210
  1453.7500      0.0000    263.4030     66.0139    125.6736
  1454.0000      0.0000    262.9763     70.1109    129.2777
  1454.2500      0.0000    262.8553     73.4588    135.0880
  1454.5000      0.0000    262.8331     76.3419    141.6036
  1454.7500      0.0000    262.8354     78.8723    146.7971
  1455.0000      0.0000    262.8407     80.8439    150.0840
  1455.2500      0.0000    262.8594     81.7043    152.8691
  1455.5000      0.0000    263.0034     80.6783    156.8146
  1455.7500      0.0000    263.6783     77.0463    161.9981
  1456.0000      0.0000    266.1417     70.5227    167.2270
  1456.2500      0.0000    273.4728     61.5316    171.7635
  1456.5000      0.0000    291.4759     51.1193    176.0087
  1456.7500      0.0000    327.7349     40.5261    180.4056
  1457.0000      0.0000    386.9456     30.7630    184.1662
  1457.2500      0.0000    464.3679     22.4432    185.2043
  1457.5000      0.0000    544.5276     15.8160    181.1076
  1457.7500      0.0000    609.6184     10.8537    170.3763
  1458.0000      0.0000    650.7850      7.3466    153.1825
  1458.2500      0.0000    671.2386      4.9978    131.4119
  1458.5000      0.0000    680.2024      3.5000    108.3140
  1458.7500      0.0000    685.5821      2.5841     87.5993
  1459.0000      0.0000    690.7081      2.0461     71.7591
  1459.2500      0.0000    694.8135      1.7518     61.0272
  1459.5000      0.0000    695.3719      1.6187     54.4446
  1459.7500      0.0000    690.6812      1.5887     51.6615
  1460.0000      0.0000    681.4633      1.6150     53.1398
  1460.2500      0.0000    670.7465      1.6696     58.9245
  1460.5000      0.0000    662.1783      1.7524     67.7365
  1460.7500      0.0000    657.9557      1.8805     76.9625
  1461.0000      0.0000    658.1384      2.0573     83.3670
  1461.2500      0.0000    661.6965      2.2550     84.7407
  1461.5000      0.0000    667.8076      2.4292     81.6015
  1461.7500      0.0000    675.8052      2.5463     76.8685
  1462.0000      0.0000    684.0682      2.5930     73.5098
  1462.2500      0.0000    689.7433      2.5703     72.7231
  1462.5000      0.0000    690.6413      2.4909     74.0324
  1462.7500      0.0000    688.0490      2.3809     76.2355
  1463.0000      0.0000    687.2278      2.2721     77.9967
  1463.2500      0.0000    693.8056      2.1874     78.1788
  1463.5000      0.0000    708.7424      2.1316     76.2149
  1463.7500      0.0000    726.7772      2.0952     72.2884
