~Version Information
VERS.                      2.0: CWLS Log ASCII Standard - VERSION 2.0
WRAP.                       NO: One line per depth step
~Well Information Block
STRT.FT               652.0000: 
STOP.FT              1880.0000: 
STEP.FT                 0.1000: 
NULL.                -999.2500: 
COMP.          Pioneer Natural Resources: COMPANY
WELL.          Corkscrew 33-12 Tr: WELL
FLD.           Purgatoire River: FIELD
LOC.           1870' FSL & 1706' FEL: LOCATION
PROV.                 Colorado: PROVINCE
CNTY.               Las Animas: COUNTRY
SRVC.                Patterson: SERVICE COMPANY
DATE.          Tue Mar 29 09:18:51 2005: LOG DATE
UWI.           05 071 08295 00: UNIQUE WELL ID
~Curve Information Block
DEPT.FT            0 000 00 00: Depth
DCAL.in                       : CDL Caliper
RHOB.g/cc                     : CDL Bulk Density
RHOC.g/cc                     : CDL Density Correction
DPOR.pu                       : CDL Density Porosity
GR.GAPI                       : Gamma Ray
NPOR.pu                       : Neutron Porosity
~Parameter Information Block
~A  Depth       DCAL        RHOB        RHOC        DPOR         GR         NPOR    
# ...
   892.0000      8.0401      2.3969      0.0927     15.3383    123.1463     22.7832
   892.1000      8.0401      2.3693      0.0799     17.0145    120.0226     22.6302
   892.2000      8.0401      2.3188      0.0714     20.0706    119.0030     22.6135
   892.3000      8.0444      2.2563     -0.0626     23.8632    122.2554     23.1270
   892.4000      8.0444      2.2113     -0.0048     26.5862    126.5719     24.1041
   892.5000      8.0390      2.2018     -0.0137     27.1612    133.9688     25.0379
   892.6000      8.0390      2.2259      0.0086     25.7014    144.4631     25.6034
   892.7000      8.0390      2.2816      0.0239     22.3269    153.1835     25.9883
   892.8000      8.0352      2.3580      0.1227     17.6975    157.6507     26.4690
   892.9000      8.0352      2.4299      0.1015     13.3376    160.6157     26.8742
   893.0000      8.0299      2.4875      0.1632      9.8470    163.4505     27.1505
   893.1000      8.0299      2.5401      0.1487      6.6588    157.2562     27.5331
   893.2000      8.0299      2.5903      0.1662      3.6177    142.2580     27.8398
   893.3000      8.0231      2.6157      0.1601      2.0812    132.5303     27.7229
   893.4000      8.0231      2.5976      0.0995      3.1783    135.1649     27.4230
   893.5000      8.0071      2.5598     -0.0080      5.4653    145.4651     27.4595
   893.6000      8.0071      2.5399      0.0161      6.6706    154.7815     27.8516
   893.7000      8.0071      2.5435      0.0151      6.4556    154.9419     28.0608
   893.8000      7.9691      2.5517      0.0156      5.9565    145.2094     27.7318
   893.9000      7.9691      2.5519      0.0058      5.9447    131.8335     27.3038
   894.0000      7.9505      2.5510     -0.0034      6.0016    122.0382     27.3156
   894.1000      7.9505      2.5580      0.0354      5.5764    120.7232     27.8184
   894.2000      7.9505      2.5625      0.0475      5.3014    123.9229     28.2695
   894.3000      7.9277      2.5512      0.0164      5.9883    124.2771     28.0689
   894.4000      7.9277      2.5385     -0.0142      6.7590    124.0555     27.4892
   894.5000      7.9212      2.5488      0.0310      6.1350    123.8161     27.3101
   894.6000      7.9212      2.5735      0.0484      4.6347    120.0314     27.4238
   894.7000      7.9212      2.5843      0.0480      3.9798    114.1790     26.9649
   894.8000      7.9208      2.5750      0.0099      4.5438    105.6952     26.2350
   894.9000      7.9208      2.5627     -0.0070      5.2915     96.3704     26.1233
   895.0000      7.8830      2.5648      0.0074      5.1665     92.8383     26.4257
   895.1000      7.8830      2.5860      0.0654      3.8778     93.3337     26.4131
   895.2000      7.8830      2.6143      0.0496      2.1636     90.9238     26.0155
   895.3000      7.8496      2.6291      0.0821      1.2662     86.2362     25.5703
   895.4000      7.8496      2.6151      0.0463      2.1149     83.0930     25.0852
   895.5000      7.8386      2.5816      0.0080      4.1442     82.7855     24.7712
   895.6000      7.8386      2.5664      0.0356      5.0638     87.3585     24.7916
   895.7000      7.8386      2.5936      0.0460      3.4186     97.3893     24.8229
   895.8000      7.8342      2.6378      0.0967      0.7413    108.5959     24.7425
   895.9000      7.8342      2.6514      0.0953     -0.0867    115.7775     24.5622
   896.0000      7.8337      2.6241      0.0350      1.5719    119.1951     24.4630
   896.1000      7.8337      2.5826      0.0628      4.0856    123.9346     24.6901
   896.2000      7.8337      2.5502      0.0305      6.0476    130.3129     25.0170
   896.3000      7.8366      2.5308      0.0212      7.2240    132.3786     25.2062
   896.4000      7.8366      2.5163     -0.0110      8.1007    127.7955     25.3008
   896.5000      7.8382      2.5063     -0.0324      8.7099    119.6897     25.4087
   896.6000      7.8382      2.5075     -0.0142      8.6373    110.7331     25.7481
   896.7000      7.8382      2.5184      0.0283      7.9750    103.4969     26.3113
   896.8000      7.8406      2.5178      0.0239      8.0142    104.9321     26.6227
   896.9000      7.8406      2.4818      0.0347     10.1912    116.1670     26.6940
   897.0000      7.8469      2.4260     -0.0373     13.5779    125.3472     27.0265
   897.1000      7.8469      2.3922     -0.0405     15.6261    125.0757     27.5605
   897.2000      7.8469      2.3975     -0.0211     15.3011    120.9548     28.0341
   897.3000      7.8439      2.4388      0.0083     12.8016    118.2755     28.4365
   897.4000      7.8439      2.5202      0.0730      7.8641    116.3954     28.5103
   897.5000      7.8200      2.6375      0.1614      0.7592    113.9677     28.0061
   897.6000      7.8200      2.7612      0.2256     -6.7383    113.1948     27.4292
   897.7000      7.8200      2.8558      0.2710    -12.4727    117.2412     27.5061
   897.8000      7.7974      2.8933      0.3114    -14.7474    121.7717     27.9890
   897.9000      7.7974      2.8665      0.2615    -13.1230    118.2018     28.2936
   898.0000      7.7668      2.8013      0.1864     -9.1675    109.4212     28.4614
   898.1000      7.7668      2.7363      0.0852     -5.2305    107.0314     28.4902
   898.2000      7.7668      2.6990     -0.0291     -2.9695    112.8205     28.2011
   898.3000      7.7939      2.6894     -0.0237     -2.3867    119.0258     27.6171
   898.4000      7.7939      2.6748     -0.0166     -1.5037    122.3177     26.9386
   898.5000      7.8645      2.6313      0.0183      1.1356    123.2100     26.4185
   898.6000      7.8645      2.5854     -0.0136      3.9154    122.8585     26.1257
   898.7000      7.8645      2.5710      0.0634      4.7857    121.8833     25.7398
   898.8000      7.9162      2.5691      0.0809      4.9047    119.0529     25.1564
   898.9000      7.9162      2.5472      0.0514      6.2302    113.8941     24.6356
   899.0000      7.9170      2.5173      0.0216      8.0448    110.1351     24.1808
   899.1000      7.9170      2.5016      0.0385      8.9930    114.4553     23.8966
   899.2000      7.9170      2.4920      0.0448      9.5753    124.1946     24.0021
   899.3000      7.9261      2.4685      0.0479     10.9977    130.1299     24.2466
   899.4000      7.9261      2.4309      0.0132     13.2817    131.9689     24.2595
   899.5000      7.9469      2.3914      0.0570     15.6732    133.4218     24.1596
   899.6000      7.9469      2.3545      0.0193     17.9110    134.0016     24.4907
   899.7000      7.9469      2.3112      0.0202     20.5339    132.7910     25.2742
   899.8000      7.9779      2.2410     -0.0098     24.7874    127.5504     26.0153
   899.9000      7.9779      2.1281      0.0005     31.6318    118.5322     26.5168
   900.0000      8.0060      1.9894     -0.0873     40.0355    113.2586     26.7304
   900.1000      8.0060      1.8687     -0.0742     47.3545    115.9064     26.7537
   900.2000      8.0060      1.7801     -0.1077     52.7233    123.3871     26.7537
   900.3000      8.0198      1.6951     -0.0681     57.8751    128.5779     26.6091
   900.4000      8.0198      1.5994     -0.1037     63.6738    127.7494     26.2623
   900.5000      8.0690      1.5310     -0.0917     67.8169    124.9754     25.8738
   900.6000      8.0690      1.5144      0.0286     68.8226    124.0851     25.2304
   900.7000      8.0690      1.4965      0.2445     69.9087    125.0901     23.7700
   900.8000      8.1454      1.4247      0.2137     74.2587    127.0909     21.4424
   900.9000      8.1454      1.3240      0.2439     80.3648    129.9612     19.0318
   901.0000      8.3962      1.2311      0.2769     85.9963    133.0957     17.2885
   901.1000      8.3962      1.1545      0.2077     90.6340    135.1169     16.1537
   901.2000      8.3962      1.1151      0.1808     93.0213    137.4350     15.3201
   901.3000      8.9439      1.1390      0.1926     91.5753    136.9975     14.7924
   901.4000      8.9439      1.2369      0.1733     85.6406    129.0571     14.6427
   901.5000      9.6588      1.4154      0.2147     74.8216    120.7651     14.9531
