~Version Information
VERS.                      2.0: CWLS Log ASCII Standard - VERSION 2.0
WRAP.                       NO: One line per depth step
~Well Information Block
STRT.FT                15.0000: 
STOP.FT              1211.0000: 
STEP.FT                 0.2500: 
NULL.                -999.2500: 
COMP.          Pioneer Natural Resources: COMPANY
WELL.          Santa Fe 43-27 Tr: WELL
FLD.           Purgatoire River: FIELD
LOC.           2018' FSL & 534' FEL: LOCATION
PROV.                 Colorado: PROVINCE
CNTY.               Las Animas: COUNTRY
SRVC.                Patterson: SERVICE COMPANY
DATE.          Mon Mar 14 15:43:40 2005: LOG DATE
UWI.           05 071 08303 00: UNIQUE WELL ID
~Curve Information Block
DEPT.FT            0 000 00 00: Depth
GR.GAPI                       : Gamma Ray
CCL.                          : Casing Collar Locator
TT3.usec                      : CBL 3' Travel Time
AMP3.mV                       : CBL 3' Amplitude
AMP5.mV                       : CBL 5' Amplitude
~Parameter Information Block
~A  Depth        GR         CCL         TT3         AMP3        AMP5    
    15.0000     59.8362      0.0000    375.5635     41.1846     13.9107
    15.2500     61.0388      0.0000    460.0406     36.1894     12.0004
    15.5000     63.2138      0.0000    590.3432     31.5745     10.3060
    15.7500     65.1420      0.0000    747.3726     27.5898      8.8149
    16.0000     65.5396      0.0000    882.4426     24.4510      7.5276
    16.2500     63.8189      0.0000    940.3080     22.2349      6.4470
    16.5000     60.7982      0.0000    898.9827     20.8436      5.5705
    16.7500     58.4546      0.0000    788.9054     20.0624      4.8894
    17.0000     58.4514      0.0000    670.1728     19.6579      4.3918
    17.2500     60.8584      0.0000    591.1495     19.4488      4.0598
    17.5000     64.4371      0.0000    566.8545     19.3269      3.8665
    17.7500     67.9380      0.0000    586.5372     19.2455      3.7751
    18.0000     70.8900      0.0000    631.8481     19.1926      3.7466
    18.2500     73.4182      0.0000    688.2386     19.1649      3.7497
    18.5000     75.7099      0.0000    746.9221     19.1594      3.7676
    18.7500     77.7034      0.0000    804.3533     19.1811      3.7946
    19.0000     79.0324      0.0000    863.6996     19.2478      3.8291
    19.2500     79.1018      0.0000    932.2496     19.3813      3.8671
    19.5000     77.4081      0.0000   1009.4498     19.5922      3.9021
    19.7500     74.0501      0.0000   1076.3383     19.8776      3.9266
    20.0000     69.9246      0.0000   1103.9320     20.2327      3.9351
    20.2500     66.3239      0.0000   1077.6143     20.6540      3.9258
    20.5000     64.3120      0.0000   1011.9167     21.1209      3.9019
    20.7500     64.2552      0.0000    939.1542     21.5780      3.8702
    21.0000     65.5892      0.0000    886.1995     21.9465      3.8379
    21.2500     67.0380      0.0000    864.1570     22.1661      3.8078
    21.5000     67.4726      0.0000    874.3607     22.2250      3.7777
    21.7500     66.8152      0.0000    912.9753     22.1489      3.7438
    22.0000     66.0378      0.0000    965.2361     21.9695      3.7040
    22.2500     66.1816      0.0000   1003.4359     21.7050      3.6586
    22.5000     67.2613      0.0000   1002.9863     21.3653      3.6081
    22.7500     68.0728      0.0000    963.4996     20.9609      3.5525
    23.0000     67.3769      0.0000    908.1157     20.5021      3.4906
    23.2500     65.4858      0.0000    860.4492     19.9925      3.4215
    23.5000     64.3261      0.0000    825.1369     19.4317      3.3471
    23.7500     65.6242      0.0000    788.6597     18.8265      3.2720
    24.0000     69.3206      0.0000    733.9360     18.1967      3.2004
    24.2500     73.9148      0.0000    655.5674     17.5659      3.1322
    24.5000     77.9279      0.0000    565.8168     16.9542      3.0627
    24.7500     80.7928      0.0000    486.4948     16.3848      2.9878
    25.0000     82.7470      0.0000    433.5212     15.8937      2.9077
    25.2500     84.2503      0.0000    408.6712     15.5185      2.8271
    25.5000     85.5005      0.0000    403.5278     15.2724      2.7511
    25.7500     86.4440      0.0000    407.7142     15.1301      2.6823
    26.0000     87.0464      0.0000    413.8410     15.0439      2.6222
    26.2500     87.2947      0.0000    418.4367     14.9749      2.5722
    26.5000     87.0390      0.0000    421.2127     14.9047      2.5338
    26.7500     86.1142      0.0000    424.5624     14.8285      2.5084
    27.0000     84.5508      0.0000    434.3123     14.7477      2.4962
    27.2500     82.5343      0.0000    460.1615     14.6666      2.4945
    27.5000     80.2748      0.0000    511.9279     14.5913      2.4975
    27.7500     78.0336      0.0000    591.5754     14.5292      2.4993
    28.0000     76.1958      0.0000    689.1360     14.4901      2.4981
    28.2500     75.1880      0.0000    789.2377     14.4814      2.4965
    28.5000     75.1745      0.0000    880.1667     14.5008      2.4981
    28.7500     75.7616      0.0000    953.0256     14.5368      2.5042
    29.0000     76.2289      0.0000    996.6465     14.5765      2.5124
    29.2500     76.1855      0.0000   1003.3050     14.6128      2.5183
    29.5000     75.8156      0.0000    980.3516     14.6462      2.5177
    29.7500     75.5619      0.0000    948.3066     14.6872      2.5087
    30.0000     75.9180      0.0000    924.9709     14.7539      2.4923
    30.2500     77.4012      0.0000    915.6777     14.8610      2.4734
    30.5000     80.1301      0.0000    917.5289     15.0035      2.4583
    30.7500     83.2773      0.0000    925.3014     15.1544      2.4512
    31.0000     85.3650      0.0000    931.0994     15.2796      2.4519
    31.2500     85.4104      0.0000    925.2480     15.3585      2.4572
    31.5000     83.7515      0.0000    903.1308     15.3918      2.4635
    31.7500     81.7979      0.0000    867.4155     15.3939      2.4680
    32.0000     81.0764      0.0000    819.8363     15.3784      2.4672
    32.2500     82.3330      0.0000    755.8616     15.3442      2.4564
    32.5000     85.1687      0.0000    673.2105     15.2708      2.4331
    32.7500     88.4034      0.0000    583.1567     15.1295      2.4006
    33.0000     90.9799      0.0000    508.2360     14.9038      2.3672
    33.2500     92.5275      0.0000    468.1324     14.6001      2.3410
    33.5000     92.9783      0.0000    468.9043     14.2443      2.3256
    33.7500     92.0660      0.0000    503.7268     13.8779      2.3190
    34.0000     89.7573      0.0000    559.4424     13.5518      2.3151
    34.2500     86.8414      0.0000    619.7910     13.3072      2.3068
    34.5000     84.2750      0.0000    665.2425     13.1562      2.2883
    34.7500     82.0477      0.0000    679.4249     13.0842      2.2583
    35.0000     79.4176      0.0000    662.1886     13.0663      2.2206
    35.2500     76.0690      0.0000    630.9708     13.0726      2.1818
    35.5000     72.3442      0.0000    603.8691     13.0641      2.1469
    35.7500     68.6499      0.0000    586.9938     13.0026      2.1173
    36.0000     65.5031      0.0000    581.8149     12.8727      2.0918
    36.2500     63.9660      0.0000    595.2090     12.6909      2.0701
    36.5000     65.0919      0.0000    632.8978     12.4925      2.0526
    36.7500     68.8010      0.0000    686.2773     12.3078      2.0391
    37.0000     73.8059      0.0000    734.1613     12.1466      2.0266
    37.2500     78.5735      0.0000    758.8493     12.0025      2.0107
    37.5000     82.0564      0.0000    757.3723     11.8732      1.9888
    37.7500     83.9000      0.0000    738.1095     11.7730      1.9629
    38.0000     84.5259      0.0000    711.6143     11.7166      1.9377
    38.2500     84.7993      0.0000    687.3110     11.6919      1.9161
    38.5000     85.1087      0.0000    676.4435     11.6585      1.8958
    38.7500     84.8808      0.0000    691.3651     11.5797      1.8738
    39.0000     83.2952      0.0000    735.3949     11.4521      1.8499
    39.2500     80.3558      0.0000    794.5601     11.3035      1.8259
    39.5000     77.0221      0.0000    846.3661     11.1682      1.8024
    39.7500     74.3461      0.0000    879.2855     11.0647      1.7764
    40.0000     72.7686      0.0000    898.1490     10.9894      1.7407
    40.2500     72.2334      0.0000    908.8690     10.9152      1.6804
    40.5000     72.4493      0.0000    905.3608     10.7972      1.5762
    40.7500     72.8273      0.0000    877.9371     10.5742      1.4196
    41.0000     72.7814      0.0000    834.1027     10.1608      1.2327
    41.2500     72.6075      0.0000    806.2995      9.4547      1.0649
    41.5000     73.5028      0.0000    832.3510      8.3921      0.9616
    41.7500     76.1669      0.0000    923.2639      7.0344      0.9323
    42.0000     79.8131      0.0000   1051.1937      5.6111      0.9519
    42.2500     82.9336      0.0000   1170.5383      4.4449      0.9870
    42.5000     84.6126      0.0000   1249.0146      3.7730      1.0164
    42.7500     84.9598      0.0000   1278.4673      3.6046      1.0352
