~Version Information
 VERS.                                  2.0 : CWLS LAS VERSION
 WRAP.                                   NO : WRAPING MODE
 SWARE .                 MController 2.5.0E : SOFTWARE VERSION
~Well Information
 WELL.                      Robinson 15-11v : WELL
 COMP.                       Petrogulf Corp : COMPANY
 FLD.                      Purgatoire River : FIELD
 LOC.                NW/NW Sec 15 T33S R67W : LOCATION
 DATE.                               8/3/04 : DATE(S) LOGGED
 SRVC.       Blanco Geological Services LLC : SERVICE COMPANY
 STAT.                                   CO : STATE
 CNTY.                           Las Animas : COUNTY
 CTRY.                                  USA : COUNTRY
 API.                       05-071-08027-00 : API NUMBER
 STRT.FT                             588.00 : START DEPTH
 STOP.FT                            2101.00 : STOP DEPTH
 STEP.FT                               1.00 : DEPTH INCREMENT
 NULL.                                -9999 : NULL VALUE
~Curve information
 DEPTH.FT                                   :
 ROP.MIN/FT                                 :
 GAS.UNITS                                  :
~ASCII Log data
# ...
     1588.00        0.233         46.1 
     1589.00        0.233         41.7 
     1590.00        3.350        108.0 
     1591.00        0.233         97.2 
     1592.00        0.233         90.6 
     1593.00        0.200         82.8 
     1594.00        0.200         77.5 
     1595.00        0.200         75.4 
     1596.00        0.267         74.2 
     1597.00        0.317         71.7 
     1598.00        0.267         66.5 
     1599.00        0.233         61.8 
     1600.00        0.200         58.1 
     1601.00        0.233         55.2 
     1602.00        0.367         52.4 
     1603.00        0.267         48.9 
     1604.00        0.233         47.8 
     1605.00        0.267         46.5 
     1606.00        0.267         45.5 
     1607.00        0.333         42.7 
     1608.00        0.267         38.6 
     1609.00        0.233         37.7 
     1610.00        0.217         37.5 
     1611.00        0.200         38.3 
     1612.00        0.233         39.9 
     1613.00        0.200         41.6 
     1614.00        0.200         41.8 
     1615.00        0.233         40.3 
     1616.00        0.200         37.7 
     1617.00        0.200         31.8 
     1618.00        0.200         26.2 
     1619.00        0.200         23.1 
     1620.00        3.117         88.9 
     1621.00        0.467         64.4 
     1622.00        0.233         65.4 
     1623.00        0.167         65.4 
     1624.00        0.267         64.6 
     1625.00        0.267         61.9 
     1626.00        0.200         58.0 
     1627.00        0.250         54.1 
     1628.00        0.267         49.6 
     1629.00        0.200         45.7 
     1630.00        0.233         41.8 
     1631.00        0.200         37.9 
     1632.00        0.200         36.3 
     1633.00        0.167         35.8 
     1634.00        0.167         36.2 
     1635.00        0.200         36.1 
     1636.00        0.200         35.5 
     1637.00        0.233         33.9 
     1638.00        0.233         32.5 
     1639.00        0.200         31.6 
     1640.00        0.200         30.3 
     1641.00        0.233         31.4 
     1642.00        0.183         36.3 
     1643.00        0.133         39.6 
     1644.00        0.100         40.8 
     1645.00        0.133         43.9 
     1646.00        0.233         44.0 
     1647.00        0.267         42.0 
     1648.00        0.200         33.0 
     1649.00        0.167         26.8 
     1650.00        3.550         78.8 
     1651.00        0.100         64.5 
     1652.00        0.233         61.7 
     1653.00        0.167         54.9 
     1654.00        0.133         50.6 
     1655.00        0.133         48.9 
     1656.00        0.167         48.6 
     1657.00        0.200         47.5 
     1658.00        0.267         45.6 
     1659.00        0.233         43.6 
     1660.00        0.233         41.6 
     1661.00        0.250         38.1 
     1662.00        0.233         36.5 
     1663.00        0.267         35.0 
     1664.00        0.267         33.5 
     1665.00        0.267         33.2 
     1666.00        0.333         32.6 
     1667.00        0.200         29.2 
     1668.00        0.133         29.8 
     1669.00        0.133         32.0 
     1670.00        0.100         34.7 
     1671.00        0.167         35.7 
     1672.00        0.133         36.8 
     1673.00        0.167         37.4 
     1674.00        0.200         35.7 
     1675.00        0.233         32.8 
     1676.00        0.200         27.9 
     1677.00        0.150         23.7 
     1678.00        0.100         21.9 
     1679.00        0.133         21.4 
     1680.00        3.117         85.6 
     1681.00        0.300         60.8 
     1682.00        0.267         58.5 
     1683.00        0.267         52.6 
     1684.00        0.267         46.8 
     1685.00        0.233         42.3 
     1686.00        0.233         40.4 
     1687.00        0.267         40.0 
     1688.00        0.267         38.8 
     1689.00        0.267         36.4 
     1690.00        0.300         32.1 
     1691.00        0.267         30.4 
     1692.00        0.350         27.3 
     1693.00        0.333         25.6 
     1694.00        0.233         24.5 
     1695.00        0.233         23.4 
     1696.00        0.300         22.3 
     1697.00        0.300         21.4 
     1698.00        0.300         21.0 
     1699.00        0.300         19.5 
     1700.00        0.267         19.0 
     1701.00        0.300         18.7 
     1702.00        0.267         17.6 
     1703.00        0.300         18.2 
     1704.00        0.283         18.5 
     1705.00        0.300         19.9 
     1706.00        0.267         21.2 
     1707.00        0.267         21.1 
     1708.00        0.300         21.6 
     1709.00        0.467         17.0 
     1710.00        3.250         75.6 
     1711.00        0.267         51.5 
     1712.00        0.433         51.1 
     1713.00        0.367         45.9 
     1714.00        0.300         40.8 
     1715.00        0.383         39.5 
     1716.00        0.133         39.8 
     1717.00        0.133         39.7 
     1718.00        0.167         39.0 
     1719.00        0.200         36.9 
     1720.00        0.233         35.4 
     1721.00        0.233         34.3 
     1722.00        0.233         31.7 
     1723.00        0.233         29.6 
     1724.00        0.233         26.5 
     1725.00        0.233         24.6 
     1726.00        0.167         23.8 
     1727.00        0.133         23.1 
     1728.00        0.133         23.5 
     1729.00        0.200         23.5 
     1730.00        0.233         23.2 
     1731.00        0.267         22.9 
     1732.00        0.183         23.8 
     1733.00        0.100         24.5 
     1734.00        0.200         26.2 
     1735.00        0.300         28.5 
     1736.00        0.300         28.8 
     1737.00        0.300         29.2 
     1738.00        0.300         28.9 
     1739.00        0.267         25.2 
     1740.00        3.683         61.5 
     1741.00        0.367         49.6 
     1742.00        0.333         45.5 
     1743.00        0.333         38.2 
     1744.00        0.350         35.7 
     1745.00        0.367         34.9 
     1746.00        0.300         33.3 
     1747.00        0.300         29.4 
     1748.00        0.233         27.8 
     1749.00        0.267         25.1 
     1750.00        0.267         22.1 
     1751.00        0.200         21.8 
     1752.00        0.200         22.2 
     1753.00        0.133         23.6 
     1754.00        0.167         24.2 
     1755.00        0.267         24.0 
     1756.00        0.233         23.4 
     1757.00        0.250         24.8 
     1758.00        0.133         25.6 
     1759.00        0.167         26.3 
     1760.00        0.200         27.5 
     1761.00        0.267         27.7 
     1762.00        0.300         26.8 
     1763.00        0.300         25.6 
     1764.00        0.333         23.1 
     1765.00        0.300         22.8 
     1766.00        0.333         24.9 
     1767.00        0.300         25.5 
     1768.00        0.267         24.1 
     1769.00        0.300         18.6 
     1770.00        3.050         76.8 
     1771.00        0.483         54.6 
     1772.00        0.533         51.5 
     1773.00        0.333         42.6 
     1774.00        0.300         37.2 
     1775.00        0.367         36.0 
     1776.00        0.300         35.2 
     1777.00        0.333         33.7 
     1778.00        0.333         30.1 
     1779.00        0.367         27.9 
     1780.00        0.317         24.5 
     1781.00        0.300         22.5 
     1782.00        0.267         20.0 
     1783.00        0.333         19.0 
     1784.00        0.300         17.8 
     1785.00        0.300         17.3 
     1786.00        0.300         16.4 
     1787.00        0.267         17.1 
