~Version Information
VERS.                      2.0: CWLS Log ASCII Standard - VERSION 2.0
WRAP.                       NO: One line per depth step
~Well Information Block
STRT.FT                 8.7500: 
STOP.FT              2723.0000: 
STEP.FT                 0.2500: 
NULL.                -999.2500: 
COMP.          Pioneer Natural Resources: COMPANY
WELL.           Desoto 13-7 Tr: WELL
FLD.           Purgatoire River: FIELD
LOC.           1404' FSL & 1115' FWL: LOCATION
PROV.                 Colorado: PROVINCE
CNTY.               Las Animas: COUNTRY
SRVC.                Patterson: SERVICE COMPANY
DATE.          Wed Mar 16 18:00:51 2005: LOG DATE
UWI.           05 071 08216 00: UNIQUE WELL ID
~Curve Information Block
DEPT.FT            0 000 00 00: Depth
GR.GAPI                       : Gamma Ray
CCL.                          : Casing Collar Locator
TT3.usec                      : CBL 3' Travel Time
AMP3.mV                       : CBL 3' Amplitude
AMP5.mV                       : CBL 5' Amplitude
~Parameter Information Block
~A  Depth        GR         CCL         TT3         AMP3        AMP5    
# ...
  1968.7500    117.1226      0.0000    390.4531      4.0847      0.2801
  1969.0000    117.1151      0.0000    393.9759      4.0148      0.2861
  1969.2500    118.7015      0.0000    397.5294      3.9790      0.2891
  1969.5000    122.3075      0.0000    400.5869      4.0047      0.2906
  1969.7500    127.2970      0.0000    403.1622      4.0812      0.2900
  1970.0000    132.2481      0.0000    406.3771      4.1724      0.2861
  1970.2500    135.5913      0.0000    413.0004      4.2415      0.2796
  1970.5000    136.4294      0.0000    427.0797      4.2660      0.2732
  1970.7500    134.9194      0.0000    450.8613      4.2356      0.2698
  1971.0000    131.6951      0.0000    479.8788      4.1476      0.2700
  1971.2500    127.1547      0.0000    502.5454      4.0080      0.2719
  1971.5000    121.5938      0.0000    509.4094      3.8392      0.2735
  1971.7500    115.6309      0.0000    504.5764      3.6826      0.2738
  1972.0000    110.1255      0.0000    504.4656      3.5881      0.2722
  1972.2500    105.9237      0.0000    522.8730      3.5925      0.2685
  1972.5000    103.7233      0.0000    559.0244      3.7030      0.2632
  1972.7500    103.8593      0.0000    600.8312      3.8948      0.2589
  1973.0000    106.2720      0.0000    636.5092      4.1192      0.2586
  1973.2500    110.9103      0.0000    661.2054      4.3209      0.2622
  1973.5000    117.8405      0.0000    675.5593      4.4579      0.2674
  1973.7500    126.5793      0.0000    682.0663      4.5143      0.2721
  1974.0000    135.6552      0.0000    683.4633      4.4942      0.2757
  1974.2500    143.3968      0.0000    682.6255      4.4079      0.2778
  1974.5000    148.9042      0.0000    682.1850      4.2661      0.2779
  1974.7500    151.8203      0.0000    683.4924      4.0848      0.2752
  1975.0000    151.7571      0.0000    686.1469      3.8905      0.2692
  1975.2500    148.6864      0.0000    688.8476      3.7198      0.2599
  1975.5000    143.6710      0.0000    690.6868      3.6096      0.2489
  1975.7500    138.5212      0.0000    691.5883      3.5801      0.2386
  1976.0000    134.5020      0.0000    691.9024      3.6216      0.2311
  1976.2500    131.5714      0.0000    691.9370      3.7007      0.2278
  1976.5000    128.9676      0.0000    691.7697      3.7835      0.2292
  1976.7500    126.3781      0.0000    691.2093      3.8546      0.2346
  1977.0000    124.4077      0.0000    689.7299      3.9149      0.2421
  1977.2500    123.8545      0.0000    686.4801      3.9685      0.2490
  1977.5000    124.4708      0.0000    680.6717      4.0129      0.2535
  1977.7500    124.5765      0.0000    672.4105      4.0393      0.2553
  1978.0000    122.2045      0.0000    663.2778      4.0420      0.2541
  1978.2500    116.7679      0.0000    655.7166      4.0275      0.2514
  1978.5000    109.4224      0.0000    651.3837      4.0115      0.2506
  1978.7500    101.9858      0.0000    649.6408      4.0048      0.2551
  1979.0000     95.8211      0.0000    647.5706      4.0065      0.2647
  1979.2500     91.5221      0.0000    642.4424      4.0115      0.2755
  1979.5000     89.2447      0.0000    635.2862      4.0185      0.2820
  1979.7500     89.1600      0.0000    631.2595      4.0280      0.2802
  1980.0000     91.4023      0.0000    634.9182      4.0360      0.2700
  1980.2500     95.5316      0.0000    645.6702      4.0354      0.2572
  1980.5000    100.5675      0.0000    658.9468      4.0227      0.2496
  1980.7500    105.8473      0.0000    670.5834      3.9995      0.2511
  1981.0000    111.3814      0.0000    678.9094      3.9715      0.2586
  1981.2500    116.9352      0.0000    684.0290      3.9456      0.2658
  1981.5000    121.2107      0.0000    686.7414      3.9260      0.2697
  1981.7500    122.6945      0.0000    687.9952      3.9092      0.2717
  1982.0000    121.3563      0.0000    688.5671      3.8882      0.2747
  1982.2500    118.7863      0.0000    688.8981      3.8596      0.2784
  1982.5000    116.3298      0.0000    689.1608      3.8260      0.2801
  1982.7500    113.6389      0.0000    689.3885      3.7942      0.2776
  1983.0000    109.5201      0.0000    689.5756      3.7739      0.2723
  1983.2500    103.8571      0.0000    689.7064      3.7756      0.2696
  1983.5000     98.1050      0.0000    689.6936      3.8058      0.2748
  1983.7500     93.9938      0.0000    689.1380      3.8624      0.2892
  1984.0000     92.3667      0.0000    686.8549      3.9400      0.3089
  1984.2500     93.1543      0.0000    680.4214      4.0396      0.3276
  1984.5000     95.5943      0.0000    666.7297      4.1703      0.3394
  1984.7500     98.3132      0.0000    644.4698      4.3381      0.3434
  1985.0000     99.9600      0.0000    617.3281      4.5358      0.3427
  1985.2500    100.1443      0.0000    594.1055      4.7464      0.3413
  1985.5000     99.5175      0.0000    583.6632      4.9525      0.3412
  1985.7500     98.9634      0.0000    588.5004      5.1373      0.3424
  1986.0000     98.8535      0.0000    603.2488      5.2816      0.3448
  1986.2500     98.7840      0.0000    619.3378      5.3668      0.3488
  1986.5000     97.8578      0.0000    630.8596      5.3841      0.3542
  1986.7500     95.5768      0.0000    636.6547      5.3419      0.3601
  1987.0000     92.6934      0.0000    638.3669      5.2644      0.3651
  1987.2500     90.9546      0.0000    637.4669      5.1801      0.3671
  1987.5000     91.8178      0.0000    633.5562      5.1081      0.3644
  1987.7500     95.3808      0.0000    624.6940      5.0534      0.3582
  1988.0000    100.3337      0.0000    609.9730      5.0140      0.3519
  1988.2500    104.6766      0.0000    592.9239      4.9887      0.3471
  1988.5000    106.7332      0.0000    581.6451      4.9788      0.3421
  1988.7500    106.1252      0.0000    583.2732      4.9876      0.3337
  1989.0000    104.0990      0.0000    597.7097      5.0111      0.3197
  1989.2500    102.6478      0.0000    617.7994      5.0229      0.2996
  1989.5000    102.8573      0.0000    635.3621      4.9725      0.2748
  1989.7500    104.0396      0.0000    646.0426      4.8210      0.2480
  1990.0000    104.7414      0.0000    649.5009      4.5881      0.2231
  1990.2500    104.5630      0.0000    647.4982      4.3455      0.2040
  1990.5000    104.5730      0.0000    643.2421      4.1455      0.1927
  1990.7500    105.8224      0.0000    641.4999      3.9763      0.1877
  1991.0000    107.9854      0.0000    646.1647      3.8069      0.1864
  1991.2500    109.8536      0.0000    655.8046      3.6510      0.1865
  1991.5000    110.7759      0.0000    663.8586      3.5573      0.1866
  1991.7500    110.9944      0.0000    665.8262      3.5562      0.1859
  1992.0000    110.7949      0.0000    664.5268      3.6412      0.1836
  1992.2500    110.1726      0.0000    665.8936      3.7857      0.1802
  1992.5000    109.4428      0.0000    671.5083      3.9626      0.1777
  1992.7500    109.4431      0.0000    677.6588      4.1551      0.1777
  1993.0000    110.8150      0.0000    679.8460      4.3521      0.1799
  1993.2500    113.4456      0.0000    675.5396      4.5361      0.1833
  1993.5000    116.6940      0.0000    664.2136      4.6833      0.1886
  1993.7500    119.8427      0.0000    648.2178      4.7785      0.1983
  1994.0000    122.2542      0.0000    633.6512      4.8192      0.2137
  1994.2500    123.4635      0.0000    626.7676      4.8080      0.2328
  1994.5000    123.5034      0.0000    627.7630      4.7513      0.2513
  1994.7500    123.0474      0.0000    630.4555      4.6654      0.2661
  1995.0000    122.8152      0.0000    629.4560      4.5749      0.2766
  1995.2500    122.8262      0.0000    625.2388      4.5028      0.2831
  1995.5000    122.6991      0.0000    621.4686      4.4598      0.2848
  1995.7500    122.4885      0.0000    620.8889      4.4417      0.2813
  1996.0000    122.5058      0.0000    624.9019      4.4359      0.2742
  1996.2500    122.3540      0.0000    633.2054      4.4306      0.2671
  1996.5000    120.8156      0.0000    641.8550      4.4228      0.2632
