~Version Information
VERS.                      2.0: CWLS Log ASCII Standard - VERSION 2.0
WRAP.                       NO: One line per depth step
~Well Information Block
STRT.FT                -6.5000: 
STOP.FT              2698.5000: 
STEP.FT                 0.2500: 
NULL.                -999.2500: 
COMP.          Pioneer Natural Resources: COMPANY
WELL.              Cluck 21-25: WELL
FLD.           Purgatorie River: FIELD
LOC.           91' FNL & 1834' FWL--: LOCATION
PROV.                       CO: PROVINCE
CNTY.               Las Animas: COUNTRY
SRVC.          Patterson Wireline: SERVICE COMPANY
DATE.          Mon Jun 13 14:54:35 2005: LOG DATE
UWI.           05 071 08397 00: UNIQUE WELL ID
~Curve Information Block
DEPT.FT            0 000 00 00: Depth
CCL.                          : Casing Collar Locator
TT3.usec                      : CBL 3' Travel Time
AMP3.mV                       : CBL 3' Amplitude
GR.GAPI                       : Gamma Ray
~Parameter Information Block
~A  Depth       CCL         TT3         AMP3         GR     
    -6.5000   -999.2500   -999.2500   -999.2500     53.2050
    -6.2500   -999.2500   -999.2500   -999.2500     51.2365
    -6.0000   -999.2500   -999.2500   -999.2500     49.7923
    -5.7500   -999.2500   -999.2500   -999.2500     49.2107
    -5.5000   -999.2500   -999.2500   -999.2500     49.9447
    -5.2500   -999.2500   -999.2500   -999.2500     52.1429
    -5.0000   -999.2500   -999.2500   -999.2500     54.9842
    -4.7500   -999.2500   -999.2500   -999.2500     57.0032
    -4.5000   -999.2500   -999.2500   -999.2500     57.2832
    -4.2500   -999.2500   -999.2500   -999.2500     56.1071
    -4.0000   -999.2500   -999.2500   -999.2500     54.4505
    -3.7500   -999.2500   -999.2500   -999.2500     53.1528
    -3.5000   -999.2500   -999.2500   -999.2500     52.6494
    -3.2500   -999.2500   -999.2500   -999.2500     53.0913
    -3.0000   -999.2500   -999.2500   -999.2500     54.2997
    -2.7500   -999.2500   -999.2500   -999.2500     55.7057
    -2.5000   -999.2500   -999.2500   -999.2500     56.6835
    -2.2500   -999.2500   -999.2500   -999.2500     56.9581
    -2.0000   -999.2500   -999.2500   -999.2500     56.5598
    -1.7500   -999.2500   -999.2500   -999.2500     55.5142
    -1.5000   -999.2500   1170.0000      1.0803     53.8580
    -1.2500   -999.2500   1170.0000      1.1209     52.0332
    -1.0000   -999.2500   1170.0000      1.1541     50.8963
    -0.7500   -999.2500   1170.0000      1.1641     50.8668
    -0.5000   -999.2500   1170.0000      1.1563     51.1941
    -0.2500   -999.2500   1170.0000      1.1428     50.6144
     0.0000   -999.2500   1170.0000      1.1255     48.7911
     0.2500   -999.2500   1170.0000      1.0946     46.6324
     0.5000   -999.2500   1170.0000      1.0440     45.0482
     0.7500   -999.2500   1170.0000      0.9863     43.8477
     1.0000   -999.2500   1170.0000      0.9542     39.5566
     1.2500   -999.2500   1170.0000      0.9876     36.4660
     1.5000   -999.2500   1170.0000      1.0192     33.7171
     1.7500   -999.2500   1170.0000      1.0336     32.1463
     2.0000   -999.2500   1170.0000      1.0439     32.3010
     2.2500   -999.2500   1170.0000      1.0651     34.0600
     2.5000   -999.2500   1170.0000      1.0878     36.5802
     2.7500   -999.2500   1170.0000      1.0873     39.0051
     3.0000   -999.2500   1170.0000      1.0542     41.3720
     3.2500   -999.2500   1170.0000      1.0088     44.5404
     3.5000   -999.2500   1170.0000      0.9823     48.9112
     3.7500      0.0000   1170.0000      0.9860     53.3545
     4.0000      0.0000   1170.0000      1.0030     55.7778
     4.2500      0.0000   1170.0000      1.0085     54.9270
     4.5000      0.0000   1170.0000      0.9947     51.6411
     4.7500      0.0000   1170.0000      0.9730     48.3174
     5.0000      0.0000   1170.0000      0.9565     47.1616
     5.2500      0.0000   1170.0000      0.9494     48.8158
     5.5000      0.0000   1170.0000      0.9491     52.2512
     5.7500      0.0000   1170.0000      0.9520     55.6162
     6.0000      0.0000   1170.0000      0.9540     57.3102
     6.2500      0.0000   1170.0000      0.9509     56.7381
     6.5000      0.0000   1170.0000      0.9402     54.3483
     6.7500      0.0000   1170.0000      0.9248     51.0682
     7.0000      0.0000   1170.0000      0.9129     47.8040
     7.2500      0.0000   1170.0000      0.9153     45.3048
     7.5000      0.0000   1170.0000      0.9409     44.0552
     7.7500      0.0000   1170.0000      0.9917     44.0774
     8.0000      0.0000   1170.0000      1.0572     44.8673
     8.2500      0.0000   1170.0000      1.1190     45.6040
     8.5000      0.0000   1170.0000      1.1655     45.6872
     8.7500      0.0000   1170.0000      1.1999     45.2693
     9.0000      0.0000   1170.0000      1.2306     45.0677
     9.2500      0.0000   1170.0000      1.2585     45.5115
     9.5000      0.0000   1170.0000      1.2815     46.3629
     9.7500      0.0000   1170.0000      1.3023     47.2807
    10.0000      0.0000   1170.0000      1.3244     48.3176
    10.2500      0.0000   1170.0000      1.3416     49.5973
    10.5000      0.0000   1170.0000      1.3379     50.8123
    10.7500      0.0000   1170.0000      1.2998     51.4352
    11.0000      0.0000   1170.0000      1.2273     51.3106
    11.2500      0.0000   1170.0000      1.1383     50.7716
    11.5000      0.0000   1170.0000      1.0650     50.3630
    11.7500      0.0000   1170.0000      1.0473     50.7512
    12.0000      0.0000   1170.0000      1.1429     52.6649
    12.2500      0.0000   1170.0000      1.4647     56.4902
    12.5000      0.0000   1170.0000      2.2083     61.7464
    12.7500      0.0000   1170.0000      3.5809     67.0143
    13.0000      0.0000   1170.0000      5.6092     70.5949
    13.2500      0.0000   1170.0000      7.9932     71.5386
    13.5000     -2.0000   1170.0000     10.2274     70.1614
    13.7500     -2.0000   1170.0000     11.9382     67.6281
    14.0000      0.0000   1170.0000     13.0973     65.3189
    14.2500      0.0000   1170.0000     13.9249     64.5491
    14.5000      0.0000   1170.0000     14.6550     66.1507
    14.7500      0.0000   1170.0000     15.4073     69.7401
    15.0000      0.0000   1170.0000     16.2015     73.7215
    15.2500      0.0000   1170.0000     17.0095     76.4405
    15.5000      0.0000   1170.0000     17.7830     77.2604
    15.7500      0.0000   1170.0000     18.4777     76.6230
    16.0000      0.0000   1169.9427     19.0827     75.6689
    16.2500      0.0000   1169.5696     19.6372     75.8763
    16.5000      0.0000   1167.6742     20.2127     78.3931
    16.7500      0.0000   1160.1777     20.8713     83.2692
    17.0000      0.0000   1137.0856     21.6266     89.2882
    17.2500      0.0000   1081.6852     22.4368     94.5054
    17.5000      0.0000    978.1642     23.2328     97.1436
    17.7500      0.0000    827.4869     23.9631     96.5785
    18.0000      0.0000    656.6222     24.6189     93.7294
    18.2500      0.0000    505.6098     25.2296     90.2323
    18.5000      0.0000    401.4977     25.8273     87.1540
    18.7500      0.0000    345.3928     26.4133     84.4972
    19.0000      0.0000    321.6301     26.9674     81.6669
    19.2500      0.0000    313.5706     27.4888     78.3029
    19.5000      0.0000    311.1995     28.0087     75.0806
    19.7500      0.0000    310.3812     28.5603     73.6848
    20.0000      0.0000    309.8829     29.1510     75.3095
    20.2500      0.0000    309.4657     29.7675     78.9930
    20.5000      0.0000    309.1050     30.3898     82.2014
    20.7500      0.0000    308.8117     30.9971     83.2928
    21.0000      0.0000    308.5712     31.5710     82.6165
    21.2500      0.0000    308.3622     32.1017     81.0885
    21.5000      0.0000    308.1703     32.5975     78.7014
    21.7500      0.0000    307.9872     33.0883     74.8936
    22.0000      0.0000    307.8078     33.6079     69.8821
    22.2500      0.0000    307.6290     34.1628     65.3261
    22.5000      0.0000    307.4509     34.7259     63.5680
    22.7500      0.0000    307.2747     35.2673     65.7889
    23.0000      0.0000    307.1010     35.7779     70.6746
    23.2500      0.0000    306.9289     36.2625     75.2576
    23.5000      0.0000    306.7576     36.7284     77.4704
    23.7500      0.0000    306.5894     37.1859     77.8309
    24.0000      0.0000    306.4306     37.6393     78.6201
    24.2500      0.0000    306.2895     38.0685     81.6480
    24.5000      0.0000    306.1713     38.4365     86.9585
    24.7500      0.0000    306.0765     38.7261     93.3610
    25.0000      0.0000    306.0018     38.9579     99.4380
    25.2500      0.0000    305.9398     39.1695    103.8260
    25.5000      0.0000    305.8794     39.3872    105.4827
    25.7500      0.0000    305.8114     39.6222    104.5973
    26.0000      0.0000    305.7314     39.8775    102.8667
    26.2500      0.0000    305.6359     40.1483    102.1477
    26.5000      0.0000    305.4902     40.4187    102.8760
    26.7500      0.0000    305.1714     40.6633    104.0609
