~Version Information
VERS.                      2.0: CWLS Log ASCII Standard - VERSION 2.0
WRAP.                       NO: One line per depth step
~Well Information Block
STRT.FT               650.0000: 
STOP.FT              1080.5000: 
STEP.FT                 0.2500: 
NULL.                -999.2500: 
COMP.          Pioneer Natural Resources: COMPANY
WELL.            Galileo 21-11: WELL
FLD.           Purgatoire River: FIELD
LOC.           407' FNL & 2394' FWL: LOCATION
PROV.                 Colorado: PROVINCE
CNTY.               Las Animas: COUNTRY
SRVC.                Patterson: SERVICE COMPANY
DATE.          Mon Apr 11 11:14:18 2005: LOG DATE
UWI.           05 071 08353 00: UNIQUE WELL ID
~Curve Information Block
DEPT.FT            0 000 00 00: Depth
SN.Ohm-m                      : IEL Short Normal
SP.mV                         : IEL Spontaneous Potential
DIR.Ohm-m                     : IEL Induction Resistivity
GR.GAPI                       : Gamma Ray
~Parameter Information Block
~A  Depth        SN          SP         DIR          GR     
# ...
  1052.0000    406.2695    -84.1606     16.4634    143.7725
  1052.2500    526.0363   -100.4463     16.6891    144.3775
  1052.5000    620.9248   -107.2020     16.9589    142.9377
  1052.7500    663.6552   -106.9609     17.2343    140.4768
  1053.0000    667.5781   -102.1652     17.4645    135.5038
  1053.2500    658.0448    -94.4618     17.6050    132.2481
  1053.5000    648.4474    -84.6979     17.6366    128.7196
  1053.7500    641.9583    -73.1663     17.5722    127.4621
  1054.0000    638.4016    -59.8668     17.4453    126.7289
  1054.2500    636.7226    -44.7325     17.2927    126.5709
  1054.5000    635.5533    -27.7684     17.1404    126.3485
  1054.7500    633.9600     -9.0514     16.9997    126.1832
  1055.0000    631.7745     11.3455     16.8691    126.1617
  1055.2500    629.2911     33.3395     16.7400    126.4306
  1055.5000    626.8209     56.6764     16.6021    127.1488
  1055.7500    623.0595     80.7394     16.4466    127.6287
  1056.0000    611.3103    104.4530     16.2675    128.1660
  1056.2500    576.9370    126.2682     16.0634    128.4893
  1056.5000    506.7564    144.1478     15.8396    129.0939
  1056.7500    408.2520    155.6546     15.6093    129.4787
  1057.0000    309.2643    158.4650     15.3896    129.5421
  1057.2500    236.0136    151.4966     15.1945    129.0489
  1057.5000    203.1739    136.1512     15.0293    127.8882
  1057.7500    216.2496    116.5770     14.8918    127.4721
  1058.0000    274.6823     98.2785     14.7787    128.4006
  1058.2500    374.4700     85.7931     14.6902    130.1479
  1058.5000    495.6982     81.0550     14.6297    133.6571
  1058.7500    599.5211     83.4332     14.5990    135.8558
  1059.0000    661.4265     91.0150     14.5983    137.7856
  1059.2500    685.1690    101.9926     14.6270    137.7954
  1059.5000    674.7252    115.3368     14.6854    136.2607
  1059.7500    620.7324    130.6445     14.7722    134.9365
  1060.0000    520.3190    147.5527     14.8811    133.5991
  1060.2500    394.4565    165.2142     14.9994    133.2073
  1060.5000    273.1681    182.0809     15.1114    132.9180
  1060.7500    175.3953    195.9213     15.2035    132.8858
  1061.0000    114.7375    203.9850     15.2709    133.5252
  1061.2500    102.6995    203.4375     15.3181    134.5930
  1061.5000    134.8736    192.1758     15.3567    136.9126
  1061.7500    180.5184    169.7535     15.3994    138.5211
  1062.0000    199.8919    137.9086     15.4567    140.2558
  1062.2500    188.2015    100.4149     15.5349    140.8620
  1062.5000    185.3527     62.2309     15.6346    141.8496
  1062.7500    231.3126     28.0372     15.7491    143.4255
  1063.0000    330.5440      0.7151     15.8658    148.2475
  1063.2500    456.3486    -19.2230     15.9718    153.3825
  1063.5000    576.2008    -32.8311     16.0591    164.2459
  1063.7500    669.9183    -41.3818     16.1266    173.5389
  1064.0000    730.1528    -45.6142     16.1753    188.9860
  1064.2500    760.0874    -45.8437     16.2051    198.0671
  1064.5000    769.6411    -42.3735     16.2168    204.7714
  1064.7500    767.9915    -35.6541     16.2192    202.4298
  1065.0000    761.5278    -26.1497     16.2317    188.8179
  1065.2500    755.1757    -14.2030     16.2779    175.2882
  1065.5000    751.4070     -0.0733     16.3713    153.3583
  1065.7500    749.6219     15.9424     16.5037    139.8409
  1066.0000    748.2609     33.4660     16.6440    122.9828
  1066.2500    746.3035     52.0739     16.7486    114.2263
  1066.5000    740.4812     71.2801     16.7790    104.3761
  1066.7500    721.5275     90.3207     16.7165     99.4524
  1067.0000    678.5668    107.7124     16.5687     93.5339
  1067.2500    613.3798    120.8192     16.3670     90.2584
  1067.5000    548.4156    125.9049     16.1055     86.5075
  1067.7500    510.1789    119.0692     15.9246     85.0319
  1068.0000    498.6638     97.9773     15.7961     84.3030
  1068.2500    487.5041     63.6357     15.7174     84.3233
  1068.5000    461.9977     21.0077     15.6635     83.9688
  1068.7500    441.5268    -22.4207     15.6010     83.0874
  1069.0000    465.3094    -59.6152     15.5063     81.0797
  1069.2500    552.0199    -86.5844     15.3776     79.8441
  1069.5000    668.3810   -102.9364     15.2375     78.8073
  1069.7500    760.3342   -110.5690     15.1302     78.3032
  1070.0000    807.0499   -111.9413     15.1266     75.6220
  1070.2500    822.3606   -109.0317     15.3439     70.8313
  1070.5000    824.6332   -103.0899     15.9745     57.4430
  1070.7500    823.3722    -94.7997     17.3263     45.1646
  1071.0000    821.9106    -84.5293     19.9865     26.0306
  1071.2500    821.1267    -72.5224     24.6637     15.5943
  1071.5000    820.9493    -58.9854     32.9379      5.6826
  1071.7500    821.0944    -44.0821     47.4097      2.4445
  1072.0000    821.4933    -27.8921     71.8134      0.5268
  1072.2500    822.2912    -10.3923    108.6162      0.1567
  1072.5000    823.6536      8.5140    152.3500      0.0182
  1072.7500    825.6488     28.9666    188.6414      0.0022
  1073.0000    828.2070     51.1745    209.7918   -999.2500
  1073.2500    830.7670     75.4811    221.6451   -999.2500
  1073.5000    829.7915    102.3715    233.5615   -999.2500
  1073.7500    811.5303    132.3092    253.1514   -999.2500
  1074.0000    745.7272    165.3412  10511.9785   -999.2500
  1074.2500    603.4081    200.5509 100000.0000   -999.2500
  1074.5000    401.1242    235.7114 100000.0000   -999.2500
  1074.7500    208.2661    267.6304 100000.0000   -999.2500
  1075.0000     84.9014    293.2921 100000.0000   -999.2500
  1075.2500     33.8977    311.1463 100000.0000   -999.2500
  1075.5000     23.5177    321.5999 100000.0000   -999.2500
  1075.7500     26.3720    326.1444 100000.0000   -999.2500
  1076.0000     30.1034    325.4498 100000.0000   -999.2500
  1076.2500     31.8939    317.3245 100000.0000   -999.2500
  1076.5000     32.5056    296.2057 100000.0000   -999.2500
  1076.7500     32.7837    256.3401 100000.0000   -999.2500
  1077.0000     32.2776    198.2164 100000.0000   -999.2500
  1077.2500     29.2274    132.3080 100000.0000   -999.2500
  1077.5000     22.2719     74.1257 100000.0000   -999.2500
  1077.7500     13.0812     34.1312 100000.0000   -999.2500
  1078.0000      5.5372     12.7219 100000.0000   -999.2500
  1078.2500      1.6157      3.7967 100000.0000   -999.2500
  1078.5000      0.3160      0.8990 100000.0000   -999.2500
  1078.7500      0.0406      0.1664 100000.0000   -999.2500
  1079.0000      0.0033      0.0221 100000.0000   -999.2500
  1079.2500   -999.2500   -999.2500 100000.0000   -999.2500
  1079.5000   -999.2500   -999.2500 100000.0000   -999.2500
  1079.7500   -999.2500   -999.2500 100000.0000   -999.2500
  1080.0000   -999.2500   -999.2500 100000.0000   -999.2500
  1080.2500   -999.2500   -999.2500 100000.0000   -999.2500
  1080.5000   -999.2500   -999.2500 100000.0000   -999.2500
