~Version Information
 VERS.                                  2.0 : CWLS LAS VERSION
 WRAP.                                   NO : WRAPING MODE
 SWARE .                 MController 2.5.0J : SOFTWARE VERSION
~Well Information
 WELL.                         Culver 14-12 : WELL
 COMP.    Pioneer Natural Resources USA Inc : COMPANY
 FLD.                      Purgatoire River : FIELD
 LOC.                SW/SW Sec 12 T32S R66W : LOCATION
 DATE.                              6/06/05 : DATE(S) LOGGED
 SRVC.       Blanco Geological Services LLC : SERVICE COMPANY
 STAT.                                   CO : STATE
 CNTY.                           Las Animas : COUNTY
 CTRY.                                  USA : COUNTRY
 API.                       05 071 08386 00 : API NUMBER
 STRT.FT                             442.00 : START DEPTH
 STOP.FT                            2305.00 : STOP DEPTH
 STEP.FT                               1.00 : DEPTH INCREMENT
 NULL.                                -9999 : NULL VALUE
~Curve information
 DEPTH.FT                                   :
 ROP.MIN/FT                                 :
 GAS.UNITS                                  :
~ASCII Log data
# ...
      2042.0         0.33        924.7 
      2043.0         0.43        986.0 
      2044.0         0.45        986.3 
      2045.0         0.43        957.0 
      2046.0         0.47        903.8 
      2047.0         0.43        850.5 
      2048.0         0.47        815.2 
      2049.0         0.47        792.9 
      2050.0         0.47        763.3 
      2051.0         1.75        663.5 
      2052.0         0.60        820.9 
      2053.0         0.57        837.1 
      2054.0         0.50        815.5 
      2055.0         0.42        794.3 
      2056.0         0.27        766.0 
      2057.0         0.23        785.8 
      2058.0         0.13        798.6 
      2059.0         0.30        808.8 
      2060.0         0.40        807.1 
      2061.0         0.37        793.9 
      2062.0         0.47        775.4 
      2063.0         0.43        774.7 
      2064.0         0.33        765.0 
      2065.0         0.38        711.7 
      2066.0         1.90        869.7 
      2067.0         0.43       1086.4 
      2068.0         0.47       1142.6 
      2069.0         0.38       1146.0 
      2070.0         0.33       1043.2 
      2071.0         0.40        968.8 
      2072.0         0.37        890.0 
      2073.0         0.40        855.2 
      2074.0         0.43        865.4 
      2075.0         0.33        864.3 
      2076.0         0.43        850.9 
      2077.0         0.43        826.6 
      2078.0         0.45        787.5 
      2079.0         0.40        752.5 
      2080.0         0.37        742.4 
      2081.0         0.43        737.0 
      2082.0         0.47        725.9 
      2083.0         0.37        717.5 
      2084.0         0.40        709.7 
      2085.0         0.37        704.3 
      2086.0         0.35        703.6 
      2087.0         0.37        699.3 
      2088.0         0.37        696.2 
      2089.0         0.37        699.9 
      2090.0         0.33        711.1 
      2091.0         0.23        724.2 
      2092.0         0.20        730.9 
      2093.0         0.30        731.3 
      2094.0         0.30        721.5 
      2095.0         0.37        675.0 
      2096.0         2.45       1031.5 
      2097.0         0.43       1189.5 
      2098.0         0.27       1223.2 
      2099.0         0.33       1223.8 
      2100.0         0.42       1179.0 
      2101.0         0.37       1066.8 
      2102.0         0.43        969.8 
      2103.0         0.50        926.7 
      2104.0         0.50        920.6 
      2105.0         0.37        888.6 
      2106.0         0.37        846.8 
      2107.0         0.40        808.1 
      2108.0         0.45        799.3 
      2109.0         0.47        747.1 
      2110.0         0.47        723.2 
      2111.0         0.43        696.2 
      2112.0         0.47        676.7 
      2113.0         0.33        691.8 
      2114.0         0.37        663.9 
      2115.0         0.37        660.5 
      2116.0         0.32        657.5 
      2117.0         0.23        678.4 
      2118.0         0.10        688.5 
      2119.0         0.17        704.6 
      2120.0         0.30        724.2 
      2121.0         0.37        760.6 
      2122.0         0.33        750.1 
      2123.0         0.33        760.2 
      2124.0         0.33        759.6 
      2125.0         0.37        727.2 
      2126.0         2.15       1058.4 
      2127.0         0.37       1143.3 
      2128.0         0.43       1146.0 
      2129.0         0.40       1109.6 
      2130.0         0.50       1047.3 
      2131.0         0.42        952.3 
      2132.0         0.50        942.5 
      2133.0         0.50        942.5 
      2134.0         0.47        909.8 
      2135.0         0.43        922.6 
      2136.0         0.43        855.9 
      2137.0         0.40        838.1 
      2138.0         0.40        815.5 
      2139.0         0.42        790.9 
      2140.0         0.37        768.7 
      2141.0         0.40        753.5 
      2142.0         0.40        739.7 
      2143.0         0.37        732.3 
      2144.0         0.40        726.5 
      2145.0         0.33        717.5 
      2146.0         0.17        696.6 
      2147.0         0.17        697.6 
      2148.0         0.13        756.2 
      2149.0         0.13        747.4 
      2150.0         0.18        790.6 
      2151.0         0.30        875.8 
      2152.0         0.50        933.4 
      2153.0         0.40        998.1 
      2154.0         0.13        894.0 
      2155.0         0.27        908.1 
      2156.0         2.45       1670.2 
      2157.0         0.67       1805.0 
      2158.0         0.43       1741.3 
      2159.0         0.37       1530.1 
      2160.0         0.37       1381.2 
      2161.0         0.33       1387.6 
      2162.0         0.45       1397.3 
      2163.0         0.40       1379.2 
      2164.0         0.60       1309.7 
      2165.0         0.47       1188.1 
      2166.0         0.53       1135.9 
      2167.0         0.53       1083.7 
      2168.0         0.47       1037.9 
      2169.0         0.52       1016.0 
      2170.0         0.40        983.6 
      2171.0         0.43        961.0 
      2172.0         0.43        951.6 
      2173.0         0.43        936.4 
      2174.0         0.43        968.5 
      2175.0         0.63        990.4 
      2176.0         0.85        921.6 
      2177.0         0.60        913.2 
      2178.0         0.50        932.7 
      2179.0         0.43        874.1 
      2180.0         0.47        869.1 
      2181.0         0.43        862.0 
      2182.0         0.45        856.9 
      2183.0         0.47        909.2 
      2184.0         0.47        857.3 
      2185.0         0.43        780.8 
      2186.0         2.65       1739.0 
      2187.0         0.67       1759.9 
      2188.0         0.47       1663.8 
      2189.0         0.50       1507.2 
      2190.0         0.50       1348.8 
      2191.0         0.62       1279.1 
      2192.0         0.57       1280.1 
      2193.0         0.70       1218.1 
      2194.0         0.77       1143.0 
      2195.0         0.90        978.6 
      2196.0         1.08        828.6 
      2197.0         0.83        681.4 
      2198.0         0.87        590.8 
      2199.0         0.77        556.1 
      2200.0         0.75        593.1 
      2201.0         0.67        630.2 
      2202.0         0.50        683.8 
      2203.0         0.20        708.7 
      2204.0         0.40        740.0 
      2205.0         0.43        758.2 
      2206.0         0.40        778.4 
      2207.0         0.42        799.3 
      2208.0         0.37        801.0 
      2209.0         0.40        799.0 
      2210.0         0.60        772.7 
      2211.0         0.40        753.8 
      2212.0         0.53        777.4 
      2213.0         0.53        789.6 
      2214.0         0.62        821.6 
      2215.0         0.57        730.6 
      2216.0         4.98       1261.6 
      2217.0         0.50       1170.3 
      2218.0         0.78       1052.0 
      2219.0         0.77        998.4 
      2220.0         2.65       1042.9 
      2221.0         0.63        657.1 
      2222.0         0.67        667.6 
      2223.0         0.67        686.5 
      2224.0         0.60        639.0 
      2225.0         0.62        633.9 
      2226.0         0.63        597.8 
      2227.0         0.60        591.1 
      2228.0         0.60        595.2 
      2229.0         0.47        592.8 
      2230.0         0.43        586.7 
      2231.0         0.48        589.8 
      2232.0         0.60        589.8 
      2233.0         0.57        585.4 
      2234.0         0.43        581.7 
      2235.0         0.43        582.0 
      2236.0         0.43        580.0 
      2237.0         0.43        573.9 
      2238.0         0.45        572.6 
      2239.0         0.43        572.2 
      2240.0         0.43        571.6 
      2241.0         0.53        568.9 
