~Version Information
VERS.                      2.0: CWLS Log ASCII Standard - VERSION 2.0
WRAP.                       NO: One line per depth step
~Well Information Block
STRT.FT                15.0000: 
STOP.FT              1211.0000: 
STEP.FT                 0.2500: 
NULL.                -999.2500: 
COMP.          Pioneer Natural Resources: COMPANY
WELL.          Santa Fe 43-27 Tr: WELL
FLD.           Purgatoire River: FIELD
LOC.           2018' FSL & 534' FEL: LOCATION
PROV.                 Colorado: PROVINCE
CNTY.               Las Animas: COUNTRY
SRVC.                Patterson: SERVICE COMPANY
DATE.          Mon Mar 14 15:43:40 2005: LOG DATE
UWI.           05 071 08303 00: UNIQUE WELL ID
~Curve Information Block
DEPT.FT            0 000 00 00: Depth
GR.GAPI                       : Gamma Ray
CCL.                          : Casing Collar Locator
TT3.usec                      : CBL 3' Travel Time
AMP3.mV                       : CBL 3' Amplitude
AMP5.mV                       : CBL 5' Amplitude
~Parameter Information Block
~A  Depth        GR         CCL         TT3         AMP3        AMP5    
# ...
   883.0000    103.0095      0.0000   1256.8652      6.9384      1.3837
   883.2500    108.6453      0.0000   1264.2784      7.9662      1.3761
   883.5000    113.7118      0.0000   1257.3994      9.1659      1.3858
   883.7500    115.7602      0.0000   1230.7539     10.3612      1.4379
   884.0000    113.6812      0.0000   1178.6932     11.4876      1.5504
   884.2500    108.0341      0.0000   1104.7977     12.5111      1.7130
   884.5000    100.0467      0.0000   1024.6038     13.3202      1.8878
   884.7500     91.0484      0.0000    956.0712     13.8003      2.0428
   885.0000     82.6637      0.0000    907.5269     13.9637      2.1756
   885.2500     76.4240      0.0000    875.4451     13.9392      2.2957
   885.5000     72.8184      0.0000    852.0165     13.8643      2.3973
   885.7500     71.1443      0.0000    832.7181     13.8104      2.4629
   886.0000     70.2801      0.0000    817.5350     13.7845      2.4842
   886.2500     69.3220      0.0000    808.0286     13.7630      2.4690
   886.5000     67.7437      0.0000    805.3599     13.7254      2.4331
   886.7500     65.4671      0.0000    810.7905     13.6722      2.3898
   887.0000     62.9523      0.0000    825.7487     13.6238      2.3468
   887.2500     61.1260      0.0000    848.9996     13.6046      2.3071
   887.5000     61.0401      0.0000    873.7708     13.6236      2.2719
   887.7500     63.3544      0.0000    890.3969     13.6666      2.2420
   888.0000     67.9611      0.0000    893.3093     13.7078      2.2176
   888.2500     73.8655      0.0000    883.7944     13.7289      2.1991
   888.5000     79.2671      0.0000    865.9576     13.7266      2.1867
   888.7500     82.0261      0.0000    843.2130     13.7031      2.1793
   889.0000     80.6062      0.0000    818.9177     13.6566      2.1744
   889.2500     75.0275      0.0000    796.8998     13.5812      2.1692
   889.5000     67.0517      0.0000    779.9964     13.4716      2.1621
   889.7500     59.2387      0.0000    769.1263     13.3255      2.1515
   890.0000     53.5662      0.0000    763.8637     13.1479      2.1354
   890.2500     50.8433      0.0000    763.2896     12.9580      2.1135
   890.5000     51.0407      0.0000    766.1792     12.7835      2.0876
   890.7500     53.4170      0.0000    770.7291     12.6425      2.0601
   891.0000     56.1676      0.0000    774.8784     12.5306      2.0320
   891.2500     56.8448      0.0000    778.2646     12.4266      2.0038
   891.5000     54.0855      0.0000    784.7868     12.3091      1.9769
   891.7500     49.0272      0.0000    802.4312     12.1701      1.9528
   892.0000     44.6320      0.0000    838.2173     12.0194      1.9319
   892.2500     43.4848      0.0000    890.2685     11.8784      1.9135
   892.5000     46.2412      0.0000    944.0829     11.7649      1.8970
   892.7500     51.8370      0.0000    979.6058     11.6794      1.8828
   893.0000     58.5727      0.0000    985.6815     11.6047      1.8720
   893.2500     64.8063      0.0000    968.6901     11.5197      1.8659
   893.5000     69.1321      0.0000    947.1175     11.4177      1.8642
   893.7500     70.7255      0.0000    937.3216     11.3129      1.8644
   894.0000     69.9027      0.0000    941.3893     11.2293      1.8618
   894.2500     68.0398      0.0000    945.8167     11.1840      1.8528
   894.5000     66.5628      0.0000    934.0244     11.1796      1.8375
   894.7500     66.0467      0.0000    902.4952     11.2064      1.8209
   895.0000     66.2961      0.0000    863.2662     11.2491      1.8093
   895.2500     66.8890      0.0000    831.2255     11.2970      1.8065
   895.5000     67.3847      0.0000    812.7966     11.3584      1.8111
   895.7500     67.4041      0.0000    806.6705     11.4580      1.8181
   896.0000     66.9246      0.0000    811.3204     11.6095      1.8227
   896.2500     66.2393      0.0000    829.4994     11.7873      1.8232
   896.5000     65.3731      0.0000    865.4940     11.9338      1.8225
   896.7500     63.9181      0.0000    917.0423     11.9994      1.8266
   897.0000     61.6952      0.0000    970.6646     11.9732      1.8414
   897.2500     59.3040      0.0000   1009.3798     11.8794      1.8685
   897.5000     57.8157      0.0000   1027.5104     11.7553      1.9035
   897.7500     58.0834      0.0000   1034.4685     11.6374      1.9387
   898.0000     60.2854      0.0000   1040.7919     11.5588      1.9681
   898.2500     63.8314      0.0000   1043.6478     11.5502      1.9898
   898.5000     67.6276      0.0000   1030.7098     11.6346      2.0045
   898.7500     70.5952      0.0000    997.9014     11.8181      2.0136
   899.0000     72.1538      0.0000    959.5121     12.0783      2.0189
   899.2500     72.3631      0.0000    938.3088     12.3638      2.0228
   899.5000     71.6673      0.0000    945.9182     12.6150      2.0292
   899.7500     70.5295      0.0000    974.3084     12.7980      2.0415
   900.0000     69.2599      0.0000   1006.0461     12.9184      2.0603
   900.2500     67.9625      0.0000   1029.6093     13.0022      2.0821
   900.5000     66.4418      0.0000   1043.4694     13.0716      2.1025
   900.7500     64.3043      0.0000   1049.1398     13.1401      2.1185
   901.0000     61.4837      0.0000   1044.8763     13.2186      2.1296
   901.2500     58.6470      0.0000   1026.3695     13.3110      2.1368
   901.5000     56.7942      0.0000    991.6273     13.4024      2.1421
   901.7500     56.4657      0.0000    945.4855     13.4614      2.1460
   902.0000     57.5120      0.0000    900.3425     13.4605      2.1483
   902.2500     59.5012      0.0000    870.6141     13.3996      2.1490
   902.5000     61.9646      0.0000    863.3732     13.3068      2.1484
   902.7500     64.1678      0.0000    873.8973     13.2149      2.1459
   903.0000     65.0455      0.0000    890.8808     13.1372      2.1388
   903.2500     63.7362      0.0000    905.4620     13.0635      2.1229
   903.5000     60.2932      0.0000    915.5274     12.9725      2.0958
   903.7500     55.8245      0.0000    923.6531     12.8468      2.0590
   904.0000     51.8696      0.0000    932.5540     12.6807      2.0186
   904.2500     49.5462      0.0000    941.2675     12.4786      1.9826
   904.5000     49.1327      0.0000    943.9826     12.2562      1.9584
   904.7500     50.2349      0.0000    933.1782     12.0488      1.9491
   905.0000     52.2192      0.0000    905.9121     11.9074      1.9522
   905.2500     54.5247      0.0000    867.8039     11.8725      1.9610
   905.5000     56.7024      0.0000    830.1357     11.9510      1.9682
   905.7500     58.3602      0.0000    802.5085     12.1184      1.9699
   906.0000     59.3043      0.0000    787.8406     12.3398      1.9678
   906.2500     59.7314      0.0000    783.2246     12.5841      1.9671
   906.5000     60.1260      0.0000    784.3325     12.8237      1.9720
   906.7500     61.0014      0.0000    789.0082     13.0307      1.9824
   907.0000     62.7725      0.0000    797.5773     13.1788      1.9945
   907.2500     65.5816      0.0000    810.9011     13.2604      2.0044
   907.5000     69.0407      0.0000    829.0198     13.3006      2.0118
   907.7500     72.3046      0.0000    851.9052     13.3432      2.0181
   908.0000     74.6127      0.0000    880.7205     13.4142      2.0238
   908.2500     75.8338      0.0000    916.3828     13.5020      2.0280
   908.5000     76.4524      0.0000    954.9361     13.5752      2.0307
   908.7500     76.8450      0.0000    984.4977     13.6098      2.0337
   909.0000     76.6097      0.0000    989.7796     13.6004      2.0400
   909.2500     75.0015      0.0000    963.4423     13.5531      2.0515
   909.5000     72.1919      0.0000    913.9969     13.4748      2.0666
   909.7500     69.6194      0.0000    860.7612     13.3696      2.0815
   910.0000     68.7098      0.0000    820.3028     13.2415      2.0938
   910.2500     69.4521      0.0000    797.9479     13.0987      2.1033
   910.5000     70.5014      0.0000    789.8942     12.9558      2.1110
   910.7500     70.4878      0.0000    789.7006     12.8318      2.1179
