~Version Information
VERS.                      2.0: CWLS Log ASCII Standard - VERSION 2.0
WRAP.                       NO: One line per depth step
~Well Information Block
STRT.FT               390.0000: 
STOP.FT               902.2000: 
STEP.FT                 0.1000: 
NULL.                -999.2500: 
COMP.          Pioneer Natural Resources: COMPANY
WELL.              Venom 32-22: WELL
FLD.           Purgatoire River: FIELD
LOC.           2307' FNL & 2024' FEL----: LOCATION
PROV.                 Colorado: PROVINCE
CNTY.               Las Animas: COUNTRY
SRVC.                Patterson: SERVICE COMPANY
DATE.          Wed May 11 08:31:39 2005: LOG DATE
UWI.           05 071 08361 00: UNIQUE WELL ID
~Curve Information Block
DEPT.FT            0 000 00 00: Depth
DCAL.in                       : CDL Caliper
RHOB.g/cc                     : CDL Bulk Density
RHOC.g/cc                     : CDL Density Correction
DPOR.pu                       : CDL Density Porosity
NPOR.pu                       : Neutron Porosity
GR.GAPI                       : Gamma Ray
~Parameter Information Block
~A  Depth       DCAL        RHOB        RHOC        DPOR        NPOR         GR     
# ...
   610.8000      8.0248      2.5993      0.0931      3.0738     20.5141    136.0565
   610.9000      8.0248      2.5965      0.1119      3.2415     17.3642    145.7549
   611.0000      8.0215      2.5895      0.0891      3.6688     17.3531    156.4498
   611.1000      8.0215      2.5850      0.0548      3.9375     20.0386    162.9495
   611.2000      8.0215      2.5897      0.0622      3.6550     20.0346    157.6639
   611.3000      8.0265      2.5908      0.0699      3.5891     16.4459    144.8443
   611.4000      8.0265      2.5820      0.0387      4.1205     14.5499    137.5128
   611.5000      8.0370      2.5690      0.0720      4.9080     17.2762    141.9130
   611.6000      8.0370      2.5451      0.0655      6.3598     22.4693    151.3747
   611.7000      8.0370      2.5144     -0.0040      8.2205     24.0670    157.6595
   611.8000      8.0432      2.5016      0.0016      8.9963     22.0232    157.6151
   611.9000      8.0432      2.5120      0.0034      8.3657     21.9156    150.0048
   612.0000      8.0443      2.5295      0.0348      7.3055     24.6473    142.3542
   612.1000      8.0443      2.5427      0.0221      6.5029     27.5060    141.0746
   612.2000      8.0443      2.5482      0.0702      6.1722     28.8576    139.0464
   612.3000      8.0445      2.5434      0.0216      6.4616     27.8613    133.1989
   612.4000      8.0445      2.5294      0.0223      7.3121     25.5479    133.6269
   612.5000      8.0439      2.5079     -0.0004      8.6138     25.2729    141.7281
   612.6000      8.0439      2.4827      0.0159     10.1403     28.0982    147.8681
   612.7000      8.0439      2.4672     -0.0278     11.0779     29.6609    151.8897
   612.8000      8.0447      2.4756      0.0040     10.5711     27.3369    159.7125
   612.9000      8.0447      2.4966      0.0351      9.2994     25.4956    167.5600
   613.0000      8.0506      2.5081      0.0587      8.6020     27.3341    168.5664
   613.1000      8.0506      2.5101      0.0208      8.4797     29.6698    164.8343
   613.2000      8.0506      2.5131      0.0566      8.2960     27.9417    159.7910
   613.3000      8.0570      2.5189      0.0588      7.9450     23.4996    156.7157
   613.4000      8.0570      2.5308      0.0657      7.2212     21.8554    158.6782
   613.5000      8.0541      2.5429      0.0921      6.4886     24.4546    159.5251
   613.6000      8.0541      2.5357      0.0776      6.9272     27.7320    155.0712
   613.7000      8.0541      2.5152      0.0182      8.1682     28.6576    151.9929
   613.8000      8.0486      2.5069      0.0588      8.6727     28.9348    156.9601
   613.9000      8.0486      2.5149      0.0127      8.1904     29.7888    167.3132
   614.0000      8.0459      2.5288      0.0433      7.3424     28.2607    169.7481
   614.1000      8.0459      2.5400      0.0502      6.6656     23.8272    160.7905
   614.2000      8.0459      2.5405      0.0676      6.6365     21.8918    157.0155
   614.3000      8.0414      2.5298      0.0082      7.2871     24.9060    164.7465
   614.4000      8.0414      2.5171      0.0530      8.0556     27.9332    171.8304
   614.5000      8.0371      2.5064      0.0491      8.7038     25.4553    172.2989
   614.6000      8.0371      2.4988      0.0776      9.1651     20.3744    171.9512
   614.7000      8.0371      2.4967     -0.0000      9.2918     18.9967    173.9122
   614.8000      8.0403      2.4984      0.0554      9.1863     22.1277    172.5924
   614.9000      8.0403      2.5021      0.0322      8.9629     25.2104    167.2118
   615.0000      8.0442      2.5126      0.0426      8.3267     25.1484    161.2917
   615.1000      8.0442      2.5280      0.0703      7.3967     24.5865    154.4359
   615.2000      8.0442      2.5437      0.0514      6.4435     25.6739    153.4426
   615.3000      8.0419      2.5607      0.0315      5.4093     27.7914    164.7848
   615.4000      8.0419      2.5692      0.0711      4.8967     29.2872    179.1487
   615.5000      8.0354      2.5594      0.0590      5.4927     28.5706    185.2342
   615.6000      8.0354      2.5449      0.0595      6.3675     27.0074    180.8796
   615.7000      8.0354      2.5329      0.0966      7.0962     27.4958    174.2749
   615.8000      8.0285      2.5130      0.0845      8.3045     30.3204    175.1230
   615.9000      8.0285      2.4922      0.0332      9.5620     32.2398    178.5583
   616.0000      8.0246      2.4861      0.0282      9.9313     29.4315    177.6665
   616.1000      8.0246      2.4915      0.0557      9.6062     23.4773    176.0923
   616.2000      8.0246      2.5010      0.0387      9.0332     20.8733    175.8683
   616.3000      8.0232      2.5144      0.0773      8.2174     23.3547    172.7917
   616.4000      8.0232      2.5270      0.0737      7.4517     25.2610    167.5694
   616.5000      8.0204      2.5267      0.0818      7.4732     22.6115    167.5036
   616.6000      8.0204      2.5120      0.0325      8.3607     19.8603    170.9922
   616.7000      8.0204      2.5061      0.0082      8.7221     21.4146    170.4347
   616.8000      8.0171      2.5239      0.0694      7.6450     26.1263    167.6171
   616.9000      8.0171      2.5415      0.1267      6.5763     29.1888    169.6810
   617.0000      8.0153      2.5289      0.0767      7.3366     29.4393    173.8158
   617.1000      8.0153      2.4937      0.0225      9.4719     30.0654    170.3478
   617.2000      8.0153      2.4629      0.0652     11.3389     31.4026    161.4044
   617.3000      8.0188      2.4477      0.0380     12.2583     31.2094    159.7261
   617.4000      8.0188      2.4487      0.0088     12.2010     29.0554    173.2028
   617.5000      8.0279      2.4628      0.0587     11.3457     26.5762    197.3033
   617.6000      8.0279      2.4729      0.0933     10.7318     25.8743    212.1361
   617.7000      8.0279      2.4618      0.0827     11.4084     27.4490    203.7430
   617.8000      8.0365      2.4434     -0.0082     12.5221     28.5474    184.9113
   617.9000      8.0365      2.4454      0.0228     12.3994     26.3360    175.7979
   618.0000      8.0410      2.4693      0.0437     10.9539     23.1210    182.1668
   618.1000      8.0410      2.4986      0.0806      9.1736     22.5808    194.5444
   618.2000      8.0410      2.5221      0.0799      7.7493     24.9344    198.4945
   618.3000      8.0431      2.5418      0.1088      6.5562     27.4656    188.3106
   618.4000      8.0431      2.5582      0.1096      5.5661     26.4220    172.0177
   618.5000      8.0462      2.5567      0.1126      5.6541     22.4988    163.7490
   618.6000      8.0462      2.5356      0.0482      6.9339     21.3042    166.1311
   618.7000      8.0462      2.5137      0.0667      8.2636     23.8774    169.6952
   618.8000      8.0486      2.4966      0.0477      9.2974     25.1083    170.2241
   618.9000      8.0486      2.4845      0.0261     10.0284     22.9482    170.5147
   619.0000      8.0484      2.4877      0.0293      9.8358     21.5198    168.0146
   619.1000      8.0484      2.5085      0.0703      8.5730     23.6651    160.6473
   619.2000      8.0484      2.5278      0.0888      7.4044     28.1814    152.3248
   619.3000      8.0438      2.5242      0.0864      7.6230     31.8282    145.4497
   619.4000      8.0438      2.5042      0.0137      8.8375     32.4092    145.5036
   619.5000      8.0398      2.4918      0.0217      9.5878     30.7350    153.7449
   619.6000      8.0398      2.4893      0.0723      9.7370     28.9615    159.9497
   619.7000      8.0398      2.4889      0.0243      9.7629     28.3407    157.5213
   619.8000      8.0463      2.4944      0.0431      9.4298     28.5325    149.0184
   619.9000      8.0463      2.4976      0.1019      9.2365     27.6811    141.3280
   620.0000      8.0529      2.4854      0.0527      9.9748     26.0360    137.2223
   620.1000      8.0529      2.4665      0.0339     11.1238     26.1074    134.9714
   620.2000      8.0529      2.4490      0.0138     12.1818     27.7070    135.7449
   620.3000      8.0452      2.4240      0.0590     13.6945     28.4635    139.4949
