~Version Information
VERS.                      2.0: CWLS Log ASCII Standard - VERSION 2.0
WRAP.                       NO: One line per depth step
~Well Information Block
STRT.FT               930.0000: 
STOP.FT              2783.2500: 
STEP.FT                 0.2500: 
NULL.                -999.2500: 
COMP.          Pioneer Natural Resources: COMPANY
WELL.           Desoto 13-7TR: WELL
FLD.           Purgatoire River: FIELD
LOC.           1404' FSL & 1115' FWL: LOCATION
PROV.                 Colorado: PROVINCE
CNTY.               Las Animas: COUNTRY
SRVC.                Patterson: SERVICE COMPANY
DATE.          Fri Jan 14 11:02:13 2005: LOG DATE
UWI.           05 071 08216 00: UNIQUE WELL ID
~Curve Information Block
DEPT.FT            0 000 00 00: Depth
SN.Ohm-m                      : IEL Short Normal
SP.mV                         : IEL Spontaneous Potential
DIR.Ohm-m                     : IEL Induction Resistivity
GR.GAPI                       : Gamma Ray
~Parameter Information Block
~A  Depth        SN          SP         DIR          GR     
# ...
  2136.0000     31.1284   -211.8498     26.8102     53.5402
  2136.2500     31.0888   -211.8596     28.7371     52.0969
  2136.5000     30.6809   -211.4076     30.8223     50.8093
  2136.7500     29.9265   -210.5628     31.4968     51.2928
  2137.0000     28.9648   -209.4578     29.0605     55.3448
  2137.2500     27.9804   -208.2587     24.1039     60.7339
  2137.5000     27.1057   -207.1335     19.0336     72.6318
  2137.7500     26.3731   -206.2317     15.3414     82.2077
  2138.0000     25.7444   -205.6778     13.2641     96.3016
  2138.2500     25.1732   -205.5762     12.7217    103.6764
  2138.5000     24.6397   -206.0192     13.9779    109.5654
  2138.7500     24.1437   -207.0905     18.4302    110.0931
  2139.0000     23.6856   -208.8604     31.7531    108.2073
  2139.2500     23.2611   -211.3726     85.1567    107.0484
  2139.5000     22.8623   -214.6351    262.7423    107.2979
  2139.7500     22.4692   -218.6078     76.4175    108.6524
  2140.0000     22.0324   -223.2116     25.0971    111.1554
  2140.2500     21.4635   -228.3557     12.8327    112.3328
  2140.5000     20.6467   -233.9814      8.5764    112.2431
  2140.7500     19.4803   -240.1134      6.8646    110.6307
  2141.0000     17.9399   -246.8962      6.2347    106.4466
  2141.2500     16.1254   -254.5938      6.1266    103.3691
  2141.5000     14.2443   -263.5397      6.1522     99.7559
  2141.7500     12.5161   -274.0388      5.8775     98.2715
  2142.0000     11.0523   -286.2464      5.0295     96.6005
  2142.2500      9.8006   -300.0591      3.8561     94.8374
  2142.5000      8.6017   -315.0606      2.8186     89.6321
  2142.7500      7.3222   -330.5490      2.1154     84.3717
  2143.0000      5.9601   -345.6489      1.7265     75.4359
  2143.2500      4.6463   -359.4839      1.6018     70.0621
  2143.5000      3.5472   -371.3543      1.7701     64.0464
  2143.7500      2.7541   -380.8651      2.5169     61.3510
  2144.0000      2.2404   -387.9649      5.8410     58.6679
  2144.2500      1.9017   -392.8939 100000.0000     57.4162
  2144.5000      1.6343   -396.0714 100000.0000     55.9124
  2144.7500      1.3875   -397.9711 100000.0000     55.0924
  2145.0000      1.1651   -399.0235      8.3031     54.2622
  2145.2500      0.9919   -399.5632      1.4547     54.0986
  2145.5000      0.8836   -399.8192      0.6002     54.8846
  2145.7500      0.8353   -399.9313      0.3285     56.6416
  2146.0000      0.8260   -399.9766      0.2306     62.1855
  2146.2500      0.8280   -399.9933      0.2215     67.9064
  2146.5000      0.8192   -399.9993      0.2930     77.7533
  2146.7500      0.7922   -399.9967      0.5001     83.1539
  2147.0000      0.7556   -399.9843      1.0978     86.2142
  2147.2500      0.7258   -399.9483      4.8767     84.2828
  2147.5000      0.7135   -399.8537 100000.0000     77.4645
  2147.7500      0.7169   -399.6250 100000.0000     72.4928
  2148.0000      0.7262   -399.1152 100000.0000     67.2571
  2148.2500      0.7345   -398.0645 100000.0000     65.6693
  2148.5000      0.7410   -396.0614 100000.0000     65.8069
  2148.7500      0.7461   -392.5264 100000.0000     67.8249
  2149.0000      0.7502   -386.7466 100000.0000     75.2208
  2149.2500      0.7588   -377.9838     24.6930     83.6013
  2149.5000      0.7914   -365.6506      1.9330    100.0279
  2149.7500      0.8899   -349.5153      0.8297    111.5869
  2150.0000      1.1250   -329.8606      0.4959    126.2700
  2150.2500      1.5895   -307.5248      0.3727    133.0674
  2150.5000      2.3629   -283.7877      0.3583    138.7610
  2150.7500      3.4514   -260.1263      0.4464    140.3853
  2151.0000      4.7519   -237.9232      0.7180    141.1833
  2151.2500      6.0878   -218.2220      1.6428    141.2348
  2151.5000      7.3024   -201.6009     23.5512    141.0595
  2151.7500      8.3267   -188.1797 100000.0000    140.8352
  2152.0000      9.1737   -177.7260 100000.0000    140.0328
  2152.2500      9.8881   -169.8042 100000.0000    138.8544
  2152.5000     10.5070   -163.9148 100000.0000    136.0264
  2152.7500     11.0512   -159.5917 100000.0000    133.9828
  2153.0000     11.5366   -156.4507 100000.0000    132.1192
  2153.2500     11.9863   -154.1982 100000.0000    132.1027
  2153.5000     12.4332   -152.6166 100000.0000    133.4523
  2153.7500     12.9095   -151.5419    529.7409    134.7305
  2154.0000     13.4312   -150.8456     15.1109    136.4909
  2154.2500     13.9942   -150.4182     10.4596    137.0473
  2154.5000     14.5847   -150.1691      9.9277    135.7354
  2154.7500     15.1934   -150.0242     10.5882    133.0647
  2155.0000     15.8211   -149.9287     11.7926    127.4329
  2155.2500     16.4788   -149.8487     13.4690    123.9759
  2155.5000     17.1890   -149.7713     16.1660    121.0984
  2155.7500     17.9832   -149.7019     21.7405    120.7006
  2156.0000     18.8844   -149.6583     37.9188    120.7468
  2156.2500     19.8855   -149.6624    193.7896    120.2479
  2156.5000     20.9434   -149.7323 100000.0000    118.4516
  2156.7500     21.9968   -149.8763 100000.0000    117.1084
  2157.0000     22.9954   -150.0908 100000.0000    115.7271
  2157.2500     23.9173   -150.3622 100000.0000    115.2124
  2157.5000     24.7643   -150.6707    356.1884    114.5563
  2157.7500     25.5441   -150.9950     38.1538    114.1754
  2158.0000     26.2603   -151.3165     20.6666    114.2973
  2158.2500     26.9121   -151.6212     15.3837    115.0901
  2158.5000     27.4958   -151.9005     13.4190    116.7755
  2158.7500     28.0032   -152.1517     12.8782    117.4974
  2159.0000     28.4274   -152.3751     13.1519    117.0626
  2159.2500     28.7745   -152.5719     14.0294    115.7321
  2159.5000     29.0688   -152.7396     15.4600    112.7383
  2159.7500     29.3427   -152.8713     17.4378    110.4806
  2160.0000     29.6195   -152.9582     19.9042    107.1492
  2160.2500     29.8998   -152.9966     22.6594    105.0112
  2160.5000     30.1605   -152.9946     25.3414    101.7757
  2160.7500     30.3697   -152.9765     27.5559     99.5336
  2161.0000     30.5139   -152.9784     29.0981     96.0425
  2161.2500     30.6197   -153.0403     30.0431     93.5723
  2161.5000     30.7537   -153.1940     30.6136     89.4151
  2161.7500     30.9988   -153.4555     31.0013     86.3269
  2162.0000     31.4157   -153.8224     31.3002     81.5368
  2162.2500     32.0108   -154.2771     31.5490     78.3596
  2162.5000     32.7243   -154.7930     31.7945     73.3956
  2162.7500     33.4470   -155.3415     32.1056     69.8663
  2163.0000     34.0598   -155.8973     32.5269     64.7554
  2163.2500     34.4797   -156.4410     33.0206     61.9514
  2163.5000     34.6888   -156.9582     33.4558     58.9197
  2163.7500     34.7337   -157.4366     33.6845     57.4348
  2164.0000     34.6942   -157.8635     33.6548     55.6532
  2164.2500     34.6414   -158.2235     33.4482     54.9389
  2164.5000     34.6089   -158.4999     33.1913     55.2205
  2164.7500     34.5844   -158.6785     32.9322     56.3755
  2165.0000     34.5202   -158.7529     32.6028     58.7558
  2165.2500     34.3552   -158.7296     32.1012     60.1439
  2165.5000     34.0454   -158.6306     31.4244     61.5083
  2165.7500     33.5901   -158.4905     30.7176     62.1207
  2166.0000     33.0408   -158.3504     30.1827     62.9521
  2166.2500     32.4810   -158.2485     29.9424     63.4777
  2166.5000     31.9885   -158.2122     29.9797     64.2018
  2166.7500     31.6027   -158.2548     30.1787     64.6451
  2167.0000     31.3189   -158.3763     30.4152     65.0134
  2167.2500     31.1073   -158.5703     30.6187     64.7367
  2167.5000     30.9366   -158.8303     30.7643     63.0147
  2167.7500     30.7887   -159.1543     30.8302     60.9292
  2168.0000     30.6625   -159.5463     30.7877     56.9019
  2168.2500     30.5710   -160.0145     30.6332     54.1991
  2168.5000     30.5332   -160.5683     30.4179     51.0205
  2168.7500     30.5640   -161.2153     30.2346     49.6452
  2169.0000     30.6679   -161.9589     30.1683     48.4067
  2169.2500     30.8369   -162.7969     30.2533     47.9048
