~Version Information
VERS.                      2.0: CWLS Log ASCII Standard - VERSION 2.0
WRAP.                       NO: One line per depth step
~Well Information Block
STRT.FT               300.0000: 
STOP.FT               871.2000: 
STEP.FT                 0.1000: 
NULL.                -999.2500: 
COMP.          Pioneer Natural Resources: COMPANY
WELL.            Hustler 12-17: WELL
FLD.           Purgatoire River: FIELD
LOC.           2150' FNL & 450' FWL: LOCATION
PROV.                 Colorado: PROVINCE
CNTY.               Las Animas: COUNTRY
SRVC.                Patterson: SERVICE COMPANY
DATE.          Mon Dec 20 11:14:19 2004: LOG DATE
UWI.           05 071 08236 00: UNIQUE WELL ID
~Curve Information Block
DEPT.FT            0 000 00 00: Depth
DCAL.in                       : CDL Caliper
RHOB.g/cc                     : CDL Bulk Density
RHOC.g/cc                     : CDL Density Correction
DPOR.pu                       : CDL Density Porosity
NPOR.pu                       : Neutron Porosity
GR.GAPI                       : Gamma Ray
~Parameter Information Block
~A  Depth       DCAL        RHOB        RHOC        DPOR        NPOR         GR     
# ...
   799.2000      7.8923      2.5318      0.0042      7.1645     26.4287    164.8820
   799.3000      7.8895      2.5242      0.0580      7.6269     27.4093    165.2813
   799.4000      7.8895      2.5199      0.0557      7.8819     27.5377    162.6229
   799.5000      7.8834      2.5155      0.0269      8.1523     26.4318    157.4676
   799.6000      7.8834      2.5109      0.0390      8.4327     25.2583    155.6939
   799.7000      7.8834      2.5099      0.0290      8.4889     24.7749    160.2489
   799.8000      7.8788      2.5188      0.0401      7.9545     24.8468    166.2284
   799.9000      7.8788      2.5383      0.0457      6.7682     25.1349    167.3493
   800.0000      7.8781      2.5532      0.0839      5.8670     25.3878    160.9787
   800.1000      7.8781      2.5446      0.0561      6.3883     25.5665    152.4021
   800.2000      7.8781      2.5167      0.0254      8.0772     25.7441    150.3917
   800.3000      7.8787      2.4911     -0.0326      9.6284     25.8713    156.8915
   800.4000      7.8787      2.4812     -0.0209     10.2285     25.7086    164.4333
   800.5000      7.8783      2.4830     -0.0062     10.1188     25.4029    164.0487
   800.6000      7.8783      2.4949     -0.0243      9.4002     25.4696    157.8840
   800.7000      7.8783      2.5215      0.0166      7.7893     25.8143    154.8869
   800.8000      7.8780      2.5543      0.0563      5.7998     25.8564    154.1261
   800.9000      7.8780      2.5803      0.0790      4.2248     25.5878    149.5379
   801.0000      7.8805      2.6001      0.0748      3.0265     25.5772    145.1172
   801.1000      7.8805      2.6155      0.1213      2.0886     26.0660    144.3783
   801.2000      7.8805      2.6168      0.1388      2.0146     26.5545    145.0352
   801.3000      7.8865      2.5991      0.0743      3.0820     26.6978    146.5517
   801.4000      7.8865      2.5764      0.0236      4.4606     26.5632    149.5246
   801.5000      7.8923      2.5641      0.0497      5.2043     26.1305    153.3011
   801.6000      7.8923      2.5629      0.0442      5.2784     25.7353    156.6937
   801.7000      7.8923      2.5653      0.0280      5.1343     25.7781    156.7838
   801.8000      7.8952      2.5658      0.0286      5.1034     25.9724    151.6360
   801.9000      7.8952      2.5673     -0.0122      5.0149     25.9827    147.7104
   802.0000      7.8983      2.5728      0.0733      4.6812     25.8489    151.7310
   802.1000      7.8983      2.5752      0.0643      4.5335     25.6362    158.8763
   802.2000      7.8983      2.5720      0.0477      4.7267     25.4873    161.6075
   802.3000      7.9028      2.5656      0.0496      5.1173     25.4231    161.5954
   802.4000      7.9028      2.5578      0.0320      5.5852     25.3719    162.9592
   802.5000      7.9066      2.5521      0.0366      5.9352     25.2986    162.0860
   802.6000      7.9066      2.5477      0.0189      6.2015     25.1246    156.3551
   802.7000      7.9066      2.5455      0.0055      6.3326     25.0761    152.0029
   802.8000      7.9072      2.5491      0.0282      6.1134     25.3589    153.0501
   802.9000      7.9072      2.5529      0.0503      5.8828     25.5434    153.6973
   803.0000      7.9045      2.5521      0.0378      5.9348     25.1809    151.0937
   803.1000      7.9045      2.5502      0.0555      6.0511     24.7113    149.7391
   803.2000      7.9045      2.5476     -0.0103      6.2049     24.7168    151.0131
   803.3000      7.9020      2.5391      0.0499      6.7241     25.0700    155.4257
   803.4000      7.9020      2.5242     -0.0133      7.6232     25.5091    162.3718
   803.5000      7.8977      2.5137      0.0005      8.2621     25.7885    167.0640
   803.6000      7.8977      2.5099      0.0313      8.4932     25.7662    163.0190
   803.7000      7.8977      2.5060      0.0380      8.7259     25.8218    151.5970
   803.8000      7.8927      2.4984      0.0505      9.1895     25.9337    141.8829
   803.9000      7.8927      2.5004     -0.0157      9.0659     25.7175    135.3451
   804.0000      7.8930      2.5277      0.0358      7.4146     25.4746    131.2447
   804.1000      7.8930      2.5589      0.0964      5.5192     25.5882    133.6258
   804.2000      7.8930      2.5690      0.0594      4.9069     25.8919    139.7986
   804.3000      7.8945      2.5659      0.0779      5.0992     25.9575    144.5038
   804.4000      7.8945      2.5571      0.0738      5.6306     25.8269    150.4631
   804.5000      7.8935      2.5377      0.0581      6.8046     25.9096    157.6198
   804.6000      7.8935      2.5170     -0.0255      8.0612     26.1403    163.1665
   804.7000      7.8935      2.5103      0.0383      8.4666     26.1559    169.0171
   804.8000      7.8916      2.5094      0.0115      8.5192     25.8934    176.9194
   804.9000      7.8916      2.4969      0.0366      9.2777     25.6518    181.7373
   805.0000      7.8911      2.4711      0.0103     10.8404     25.6243    178.6262
   805.1000      7.8911      2.4494     -0.0194     12.1555     25.6298    170.1598
   805.2000      7.8911      2.4478     -0.0063     12.2539     25.6317    164.6971
   805.3000      7.8905      2.4617      0.0246     11.4151     25.7051    163.8666
   805.4000      7.8905      2.4789      0.0136     10.3669     25.7662    157.4671
   805.5000      7.8862      2.4953      0.0436      9.3763     25.8319    142.1445
   805.6000      7.8862      2.5104      0.0701      8.4605     25.9096    128.5444
   805.7000      7.8862      2.5268      0.0800      7.4677     25.8747    123.1740
   805.8000      7.8880      2.5466      0.0727      6.2678     25.7930    121.6730
   805.9000      7.8880      2.5656      0.1080      5.1134     25.8577    123.3670
   806.0000      7.8945      2.5757      0.1592      4.5030     26.1040    129.4971
   806.1000      7.8945      2.5782      0.0691      4.3520     26.4969    135.0093
   806.2000      7.8945      2.5811      0.0897      4.1779     26.8550    136.9486
   806.3000      7.8957      2.5820      0.0982      4.1240     26.9972    138.2409
   806.4000      7.8957      2.5768      0.0934      4.4356     26.8465    139.7926
   806.5000      7.8980      2.5637      0.0709      5.2288     26.4784    142.1085
   806.6000      7.8980      2.5408      0.0548      6.6160     26.0944    148.1778
   806.7000      7.8980      2.5154      0.0124      8.1591     25.7655    157.7024
   806.8000      7.9073      2.4926      0.0366      9.5402     25.3901    166.8330
   806.9000      7.9073      2.4633      0.0587     11.3166     24.9927    168.9489
   807.0000      7.9152      2.4460     -0.0467     12.3640     24.8517    163.5761
   807.1000      7.9152      2.4774      0.0332     10.4621     25.0437    157.2561
   807.2000      7.9152      2.5361      0.0230      6.9042     25.4959    150.9863
   807.3000      7.9096      2.5701      0.1226      4.8395     26.0507    144.1805
   807.4000      7.9096      2.5688      0.0407      4.9215     26.4324    142.1133
   807.5000      7.8958      2.5697      0.0286      4.8646     26.6590    145.4148
   807.6000      7.8958      2.5938      0.0993      3.4075     27.0466    149.5555
   807.7000      7.8958      2.6116      0.1166      2.3297     27.6623    153.6609
   807.8000      7.8810      2.6053      0.0722      2.7100     28.3323    155.9564
   807.9000      7.8810      2.5933      0.0839      3.4357     28.8954    150.8106
   808.0000      7.8741      2.5818      0.1083      4.1363     29.1043    142.8173
   808.1000      7.8741      2.5641      0.0861      5.2039     28.9214    142.3821
   808.2000      7.8741      2.5487      0.0678      6.1373     28.7949    146.5320
   808.3000      7.8759      2.5432      0.0588      6.4755     29.0810    147.3769
   808.4000      7.8759      2.5440      0.0665      6.4226     29.5402    150.7950
   808.5000      7.8839      2.5447      0.0726      6.3848     29.5848    161.3280
   808.6000      7.8839      2.5397      0.0705      6.6823     28.8957    172.0054
   808.7000      7.8839      2.5327      0.0158      7.1094     27.8267    176.8265
