~Version Information
 VERS.                                  2.0 : CWLS LAS VERSION
 WRAP.                                   NO : WRAPING MODE
 SWARE .                 MController 2.5.0J : SOFTWARE VERSION
~Well Information
 WELL.                        MOO MOO 31-36 : WELL
 COMP.    PIONEER NATURAL RESOURCES USA INC : COMPANY
 FLD.                      PURGATOIRE RIVER : FIELD
 LOC.                NW/NE SEC 36 T32S R67W : LOCATION
 DATE.                             06/16/05 : DATE(S) LOGGED
 SRVC.       BLANCO GEOLOGICAL SERVICES LLC : SERVICE COMPANY
 STAT.                             COLORADO : STATE
 CNTY.                           LAS ANIMAS : COUNTY
 CTRY.                                  USA : COUNTRY
 API.                       05-071-08395-00 : API NUMBER
 STRT.FT                             303.00 : START DEPTH
 STOP.FT                            2275.00 : STOP DEPTH
 STEP.FT                               1.00 : DEPTH INCREMENT
 NULL.                                -9999 : NULL VALUE
~Curve information
 DEPTH.FT                                   :
 ROP.MIN/FT                                 :
 GAS.UNITS                                  :
~ASCII Log data
# ...
      1703.0         0.17       1243.3 
      1704.0         0.17       1237.1 
      1705.0         0.27       1250.2 
      1706.0         2.38       1741.2 
      1707.0         0.50       2375.3 
      1708.0         0.37       3027.3 
      1709.0         0.27       3302.1 
      1710.0         0.27       3084.5 
      1711.0         0.30       2657.3 
      1712.0         0.23       2309.5 
      1713.0         0.27       2012.8 
      1714.0         0.23       1808.0 
      1715.0         0.28       1643.1 
      1716.0         0.27       1520.4 
      1717.0         0.30       1427.2 
      1718.0         0.20       1378.1 
      1719.0         0.20       1345.7 
      1720.0         0.17       1322.5 
      1721.0         0.20       1314.0 
      1722.0         0.17       1315.3 
      1723.0         0.13       1308.8 
      1724.0         0.10       1298.6 
      1725.0         0.20       1290.1 
      1726.0         0.20       1280.0 
      1727.0         0.23       1276.7 
      1728.0         0.23       1265.9 
      1729.0         0.20       1255.8 
      1730.0         0.23       1258.4 
      1731.0         0.22       1259.4 
      1732.0         0.20       1228.9 
      1733.0         0.20       1252.5 
      1734.0         0.27       1240.4 
      1735.0         0.30       1236.1 
      1736.0         1.30       1184.4 
      1737.0         0.27       1119.0 
      1738.0         0.40       1125.5 
      1739.0         0.33       1202.8 
      1740.0         0.35       1326.1 
      1741.0         0.27       1426.5 
      1742.0         0.27       1686.0 
      1743.0         0.20       1751.1 
      1744.0         0.23       1738.0 
      1745.0         0.27       1669.3 
      1746.0         0.23       1603.8 
      1747.0         0.20       1544.6 
      1748.0         0.27       1475.6 
      1749.0         0.43       1384.3 
      1750.0         0.33       1334.3 
      1751.0         0.42       1310.1 
      1752.0         0.33       1324.8 
      1753.0         0.33       1316.3 
      1754.0         0.17       1311.4 
      1755.0         0.20       1299.3 
      1756.0         0.33       1292.4 
      1757.0         0.40       1289.4 
      1758.0         0.37       1270.1 
      1759.0         0.40       1266.2 
      1760.0         0.33       1266.2 
      1761.0         0.30       1277.7 
      1762.0         0.32       1263.9 
      1763.0         0.30       1256.4 
      1764.0         0.30       1230.2 
      1765.0         0.20       1220.1 
      1766.0         1.67       1062.7 
      1767.0         0.13       1057.2 
      1768.0         0.23       1081.4 
      1769.0         0.55       1236.1 
      1770.0         0.43       1463.5 
      1771.0         0.30       1675.8 
      1772.0         0.30       1805.7 
      1773.0         0.30       1728.8 
      1774.0         0.30       1644.4 
      1775.0         0.37       1561.3 
      1776.0         0.33       1501.8 
      1777.0         0.30       1437.0 
      1778.0         0.30       1394.1 
      1779.0         0.28       1360.8 
      1780.0         0.20       1347.0 
      1781.0         0.27       1345.1 
      1782.0         0.27       1345.4 
      1783.0         0.23       1332.0 
      1784.0         0.27       1319.5 
      1785.0         0.23       1315.3 
      1786.0         0.27       1309.4 
      1787.0         0.23       1295.3 
      1788.0         0.27       1292.4 
      1789.0         0.23       1295.3 
      1790.0         0.30       1289.1 
      1791.0         0.30       1292.4 
      1792.0         0.38       1290.4 
      1793.0         0.33       1266.9 
      1794.0         0.27       1250.2 
      1795.0         0.27       1240.0 
      1796.0         1.53       1099.7 
      1797.0         0.23       1074.5 
      1798.0         0.55       1144.8 
      1799.0         0.30       1270.8 
      1800.0         0.23       1417.4 
      1801.0         0.23       1580.6 
      1802.0         0.30       1810.6 
      1803.0         0.33       1796.9 
      1804.0         0.30       1711.8 
      1805.0         0.27       1666.0 
      1806.0         0.27       1625.4 
      1807.0         0.23       1580.9 
      1808.0         0.27       1530.9 
      1809.0         0.30       1459.9 
      1810.0         0.32       1410.5 
      1811.0         0.27       1363.1 
      1812.0         0.33       1341.1 
      1813.0         0.30       1328.7 
      1814.0         0.30       1343.8 
      1815.0         0.30       1331.0 
      1816.0         0.27       1324.8 
      1817.0         0.23       1334.9 
      1818.0         0.30       1331.0 
      1819.0         0.27       1328.7 
      1820.0         0.27       1328.4 
      1821.0         0.30       1333.9 
      1822.0         0.32       1326.7 
      1823.0         0.33       1318.6 
      1824.0         0.23       1308.8 
      1825.0         0.20       1292.1 
      1826.0         0.53       1260.0 
      1827.0         0.83       1158.3 
      1828.0         0.13       1131.1 
      1829.0         0.50       1148.1 
      1830.0         0.38       1276.0 
      1831.0         0.37       1485.4 
      1832.0         0.23       1588.8 
      1833.0         0.23       1652.9 
      1834.0         0.23       1702.0 
      1835.0         0.20       1724.9 
      1836.0         0.13       1716.4 
      1837.0         0.20       1691.5 
      1838.0         0.23       1668.3 
      1839.0         0.20       1625.8 
      1840.0         0.20       1568.2 
      1841.0         0.17       1503.7 
      1842.0         0.20       1452.0 
      1843.0         0.20       1418.7 
      1844.0         0.17       1400.0 
      1845.0         0.13       1381.4 
      1846.0         0.15       1367.0 
      1847.0         0.17       1347.7 
      1848.0         0.37       1346.4 
      1849.0         0.40       1346.4 
      1850.0         0.53       1372.9 
      1851.0         0.60       1359.1 
      1852.0         0.57       1328.7 
      1853.0         0.57       1312.7 
      1854.0         0.52       1285.2 
      1855.0         0.30       1285.9 
      1856.0         1.87       1176.9 
      1857.0         0.23       1166.4 
      1858.0         0.17       1198.5 
      1859.0         0.23       1269.2 
      1860.0         0.22       1361.1 
      1861.0         0.30       1538.7 
      1862.0         0.17       1638.8 
      1863.0         0.13       1748.1 
      1864.0         0.17       1887.8 
      1865.0         0.13       1957.2 
      1866.0         0.20       2003.3 
      1867.0         0.23       1963.4 
      1868.0         0.23       1890.1 
      1869.0         0.23       1796.9 
      1870.0         0.23       1709.5 
      1871.0         0.23       1615.9 
      1872.0         0.27       1529.9 
      1873.0         0.20       1476.3 
      1874.0         0.23       1429.8 
      1875.0         0.27       1397.1 
      1876.0         0.25       1362.1 
      1877.0         0.23       1365.0 
      1878.0         0.27       1325.4 
      1879.0         0.27       1401.0 
      1880.0         0.23       1391.2 
      1881.0         0.17       1384.3 
      1882.0         0.20       1381.1 
      1883.0         0.27       1377.5 
      1884.0         0.27       1371.6 
      1885.0         0.30       1363.1 
      1886.0         2.92       1242.7 
      1887.0         0.33       1335.9 
      1888.0         0.40       1551.5 
      1889.0         0.37       1754.0 
      1890.0         0.28       1867.2 
      1891.0         0.20       1963.4 
      1892.0         0.23       2078.2 
      1893.0         0.20       2098.2 
      1894.0         0.17       2036.0 
      1895.0         0.20       1918.2 
      1896.0         0.20       1833.5 
      1897.0         0.23       1758.6 
      1898.0         0.20       1685.6 
      1899.0         0.23       1626.7 
      1900.0         0.43       1528.6 
      1901.0         0.33       1469.7 
      1902.0         0.30       1444.8 
