~Version Information
VERS.                      2.0: CWLS Log ASCII Standard - VERSION 2.0
WRAP.                       NO: One line per depth step
~Well Information Block
STRT.FT                -8.0000: 
STOP.FT              1357.5000: 
STEP.FT                 0.2500: 
NULL.                -999.2500: 
COMP.          Pioneer Natural Resources: COMPANY
WELL.          Lorencito 6-3-34-66: WELL
FLD.           Purgatorie River: FIELD
LOC.           2545' FNL & 1914' FWL: LOCATION
STAT.                       CO: State
CNTY.               Las Animas: COUNTY
CTRY. USA : Country
SECT. 3 : Section
TOWN. 34S : Township
RANG. 66W : Range
SRVC.          Patterson Wireline: SERVICE COMPANY
DATE.          Tue Sep 27 11:36:13 2005: LOG DATE
API.           05 071 08369 00: UNIQUE WELL ID
~Curve Information Block
DEPT.FT            0 000 00 00: Depth
CCL.                          : Casing Collar Locator
TT3.usec                      : CBL 3' Travel Time
AMP3.mV                       : CBL 3' Amplitude
GR.GAPI                       : Gamma Ray
~Parameter Information Block
~A  Depth       CCL         TT3         AMP3         GR     
# ...
   628.5000      0.0000    260.6642     55.4105    138.0460
   628.7500      0.0000    260.6799     55.1351    138.4757
   629.0000      0.0000    260.6997     54.8334    136.9367
   629.2500      0.0000    260.7231     54.5313    131.3273
   629.5000      0.0000    260.7502     54.2459    121.6619
   629.7500      0.0000    260.7823     53.9609    110.0395
   630.0000      0.0000    260.8196     53.6376     98.8659
   630.2500      0.0000    260.8591     53.2543     89.1401
   630.5000      0.0000    260.8950     52.8376     80.4842
   630.7500      0.0000    260.9206     52.4587     72.3290
   631.0000      0.0000    260.9321     52.1937     64.6883
   631.2500      0.0000    260.9313     52.0794     58.1790
   631.5000      0.0000    260.9266     52.0968     53.7596
   631.7500      0.0000    260.9334     52.1924     52.2778
   632.0000      0.0000    260.9750     52.3163     53.9447
   632.2500      0.0000    261.0757     52.4414     58.1532
   632.5000      0.0000    261.2340     52.5554     63.7844
   632.7500      0.0000    261.3929     52.6516     69.7311
   633.0000      0.0000    261.4609     52.7368     75.3017
   633.2500      0.0000    261.3889     52.8376     80.3103
   633.5000      0.0000    261.2178     52.9879     84.8536
   633.7500      0.0000    261.0353     53.2138     89.1258
   634.0000      0.0000    260.8987     53.5289     93.5517
   634.2500      0.0000    260.8131     53.9282     98.8165
   634.5000      0.0000    260.7613     54.3826    105.2328
   634.7500      0.0000    260.7290     54.8495    112.2210
   635.0000      0.0000    260.7083     55.3012    118.8424
   635.2500      0.0000    260.6937     55.7417    124.5518
   635.5000      0.0000    260.6808     56.1964    129.0035
   635.7500      0.0000    260.6678     56.6827    131.6266
   636.0000      0.0000    260.6547     57.1849    131.9768
   636.2500      0.0000    260.6419     57.6508    130.3132
   636.5000      0.0000    260.6303     58.0191    127.5021
   636.7500      0.0000    260.6207     58.2587    124.4178
   637.0000      0.0000    260.6134     58.3823    121.4969
   637.2500      0.0000    260.6082     58.4201    118.8480
   637.5000      0.0000    260.6056     58.3877    116.8317
   637.7500      0.0000    260.6070     58.2809    116.3846
   638.0000      0.0000    260.6135     58.0999    118.4117
   638.2500      0.0000    260.6241     57.8772    122.7397
   638.5000      0.0000    260.6363     57.6687    127.7579
   638.7500      0.0000    260.6476     57.5041    131.1897
   639.0000      0.0000    260.6577     57.3533    131.3703
   639.2500      0.0000    260.6685     57.1636    128.2683
   639.5000      0.0000    260.6803     56.9323    123.7142
   639.7500      0.0000    260.6896     56.7295    120.5241
   640.0000      0.0000    260.6902     56.6438    120.8394
   640.2500      0.0000    260.6786     56.7051    125.0131
   640.5000      0.0000    260.6585     56.8591    131.8874
   640.7500      0.0000    260.6378     57.0193    139.6334
   641.0000      0.0000    260.6221     57.1468    146.0292
   641.2500      0.0000    260.6116     57.2672    148.5247
   641.5000      0.0000    260.6047     57.4058    145.1403
   641.7500      0.0000    260.6020     57.5256    136.1390
   642.0000      0.0000    260.6039     57.5572    124.7983
   642.2500      0.0000    260.6075     57.4890    115.7220
   642.5000      0.0000    260.6068     57.4035    111.5893
   642.7500      0.0000    260.5956     57.4140    111.3324
   643.0000      0.0000    260.5717     57.5625    111.4241
   643.2500      0.0000    260.5384     57.7760    108.9233
   643.5000      0.0000    260.5029     57.9239    103.7575
   643.7500      0.0000    260.4735     57.9239     98.7213
   644.0000      0.0000    260.4563     57.7973     97.2315
   644.2500      0.0000    260.4547     57.6221    100.6985
   644.5000      0.0000    260.4691     57.4477    108.0095
   644.7500      0.0000    260.4957     57.2675    117.3722
   645.0000      0.0000    260.5273     57.0604    127.8561
   645.2500      0.0000    260.5566     56.8394    138.7516
   645.5000      0.0000    260.5796     56.6510    148.2831
   645.7500      0.0000    260.5960     56.5391    153.9907
   646.0000      0.0000    260.6079     56.5161    154.4132
   646.2500      0.0000    260.6164     56.5660    150.0865
   646.5000      0.0000    260.6204     56.6628    143.1211
   646.7500      0.0000    260.6187     56.7801    135.9877
   647.0000      0.0000    260.6137     56.8842    130.1555
   647.2500      0.0000    260.6106     56.9314    125.4682
   647.5000      0.0000    260.6143     56.8862    121.0382
   647.7500      0.0000    260.6257     56.7402    116.6773
   648.0000      0.0000    260.6436     56.5050    113.0590
   648.2500      0.0000    260.6680     56.1847    110.7145
   648.5000      0.0000    260.7008     55.7713    109.3981
   648.7500      0.0000    260.7416     55.2790    108.3428
   649.0000      0.0000    260.7835     54.7736    106.8657
   649.2500      0.0000    260.8152     54.3494    104.8278
   649.5000      0.0000    260.8290     54.0620    102.6072
   649.7500      0.0000    260.8271     53.8804    100.6139
   650.0000      0.0000    260.8208     53.6955     99.0679
   650.2500      0.0000    260.8254     53.3766     98.5528
   650.5000      0.0000    260.8549     52.8411    100.5304
   650.7500      0.0000    260.9182     52.0967    106.6226
   651.0000      0.0000    261.0164     51.2299    116.9365
   651.2500      0.0000    261.1401     50.3601    129.2219
   651.5000      0.0000    261.2673     49.6037    139.9411
   651.7500      0.0000    261.3677     49.0644    146.3670
   652.0000      0.0000    261.4142     48.8221    148.0680
   652.2500      0.0000    261.3966     48.9029    146.7435
   652.5000      0.0000    261.3254     49.2594    144.5811
   652.7500      0.0000    261.2240     49.7979    142.5553
   653.0000      0.0000    261.1163     50.4371    140.3161
   653.2500      0.0000    261.0176     51.1429    137.5105
   653.5000      0.0000    260.9334     51.9116    134.5469
   653.7500      0.0000    260.8636     52.7344    131.8504
   654.0000      0.0000    260.8061     53.5843    129.2361
   654.2500      0.0000    260.7576     54.4244    126.5729
   654.5000      0.0000    260.7156     55.2164    124.2950
   654.7500      0.0000    260.6786     55.9286    122.8740
   655.0000      0.0000    260.6467     56.5391    122.5446
   655.2500      0.0000    260.6213     57.0295    123.7129
   655.5000      0.0000    260.6042     57.3783    126.7785
   655.7500      0.0000    260.5968     57.5727    131.4657
   656.0000      0.0000    260.5989     57.6244    136.9737
   656.2500      0.0000    260.6099     57.5636    142.6602
   656.5000      0.0000    260.6281     57.4208    148.0690
   656.7500      0.0000    260.6512     57.2263    152.6975
   657.0000      0.0000    260.6763     57.0209    156.4862
   657.2500      0.0000    260.7009     56.8494    160.2034
   657.5000      0.0000    260.7231     56.7380    164.4931
   657.7500      0.0000    260.7421     56.6861    168.6255
   658.0000      0.0000    260.7683     56.6811    170.9275
   658.2500      0.0000    260.8455     56.7135    170.4660
   658.5000      0.0000    261.1871     56.7591    167.8457
   658.7500      0.0000    262.4646     56.7039    164.3058
   659.0000      0.0000    266.1343     56.2375    160.3075
   659.2500      0.0000    274.1102     54.8441    155.1395
   659.5000      0.0000    287.0474     52.0774    147.8871
   659.7500      0.0000    302.2535     48.0556    138.8142
   660.0000      0.0000    314.2679     43.6846    129.5573
   660.2500      0.0000    318.9714     40.1797    121.5928
   660.5000      0.0000    316.9706     38.2236    114.6094
   660.7500      0.0000    312.2540     37.6032    107.0269
   661.0000      0.0000    308.2910     37.6114     98.3047
   661.2500     -2.0000    306.1495     37.6558     90.0345
   661.5000      0.0000    305.3466     37.4964     84.4128
   661.7500      0.0000    305.1625     37.1257     82.3262
