~Version Information
VERS.                      2.0: CWLS Log ASCII Standard - VERSION 2.0
WRAP.                       NO: One line per depth step
~Well Information Block
STRT.FT               245.0000: 
STOP.FT              1919.7000: 
STEP.FT                 0.1000: 
NULL.                -999.2500: 
COMP.          Pioneer Natural Resources: COMPANY
WELL.          Oink Oink 14-36 Tr: WELL
FLD.           Purgatoire River: FIELD
LOC.           236' FSL & 164' FWL--: LOCATION
PROV.                 Colorado: PROVINCE
CNTY.               Las Animas: COUNTRY
SRVC.                Patterson: SERVICE COMPANY
DATE.          Fri Jun 10 08:23:18 2005: LOG DATE
UWI.           05 071 08393 00: UNIQUE WELL ID
~Curve Information Block
DEPT.FT            0 000 00 00: Depth
DCAL.in                       : CDL Caliper
RHOB.g/cc                     : CDL Bulk Density
RHOC.g/cc                     : CDL Density Correction
DPOR.pu                       : CDL Density Porosity
NPOR.pu                       : Neutron Porosity
GR.GAPI                       : Gamma Ray
~Parameter Information Block
~A  Depth       DCAL        RHOB        RHOC        DPOR        NPOR         GR     
# ...
   350.6000      8.0685      2.6034      0.1097      2.8220     27.2431    105.1755
   350.7000      8.0685      2.6034      0.0550      2.8266     27.0566    104.9281
   350.8000      8.0747      2.6048      0.0953      2.7378     27.0992    110.1538
   350.9000      8.0747      2.5981      0.0809      3.1481     27.4590    120.5435
   351.0000      8.0862      2.5770      0.0327      4.4227     27.9760    127.0157
   351.1000      8.0862      2.5562      0.0292      5.6857     28.5894    124.3812
   351.2000      8.0862      2.5451      0.0192      6.3575     29.0148    119.2540
   351.3000      8.0940      2.5386      0.0112      6.7545     28.8976    120.2800
   351.4000      8.0940      2.5334     -0.0150      7.0683     28.3936    126.2334
   351.5000      8.0950      2.5311      0.0422      7.2049     28.1338    129.8326
   351.6000      8.0950      2.5318      0.0141      7.1627     28.0440    129.7729
   351.7000      8.0950      2.5351      0.0589      6.9654     27.8597    130.8352
   351.8000      8.0949      2.5335      0.0647      7.0595     27.7480    134.8934
   351.9000      8.0949      2.5318      0.0428      7.1666     27.7641    138.9981
   352.0000      8.0946      2.5446      0.0360      6.3909     27.9937    140.1214
   352.1000      8.0946      2.5664      0.0752      5.0654     28.3865    136.8259
   352.2000      8.0946      2.5803      0.0486      4.2235     28.5642    131.5185
   352.3000      8.0927      2.5778      0.0675      4.3786     28.3206    129.3994
   352.4000      8.0927      2.5640      0.0152      5.2122     27.7629    129.4545
   352.5000      8.0903      2.5476      0.0306      6.2081     27.2622    129.6070
   352.6000      8.0903      2.5345      0.0110      7.0011     27.0402    132.8531
   352.7000      8.0903      2.5364      0.0009      6.8877     26.8098    136.6512
   352.8000      8.0883      2.5498      0.0654      6.0700     26.4434    136.1348
   352.9000      8.0883      2.5574      0.0474      5.6100     26.4121    131.7667
   353.0000      8.0850      2.5552      0.0400      5.7435     26.9434    125.1698
   353.1000      8.0850      2.5482      0.0393      6.1688     27.3656    120.6161
   353.2000      8.0850      2.5432      0.0632      6.4746     26.9176    124.0618
   353.3000      8.0819      2.5422      0.0536      6.5315     25.8275    133.9360
   353.4000      8.0819      2.5408      0.0282      6.6170     24.7511    142.3373
   353.5000      8.0815      2.5440      0.0595      6.4229     24.1945    145.5712
   353.6000      8.0815      2.5565      0.0676      5.6638     24.2734    142.2962
   353.7000      8.0815      2.5701      0.0386      4.8447     24.2128    133.4358
   353.8000      8.0837      2.5797      0.0486      4.2581     23.6047    124.0208
   353.9000      8.0837      2.5875      0.0605      3.7864     23.1365    118.6275
   354.0000      8.0850      2.5919      0.0700      3.5183     23.2620    118.6175
   354.1000      8.0850      2.5902      0.0591      3.6217     23.7453    120.9748
   354.2000      8.0850      2.5789      0.0781      4.3104     24.1585    121.6719
   354.3000      8.0832      2.5618      0.0121      5.3441     24.4015    121.0600
   354.4000      8.0832      2.5554      0.0220      5.7337     24.6507    120.1647
   354.5000      8.0769      2.5563      0.0700      5.6770     24.8489    116.9175
   354.6000      8.0769      2.5484      0.0254      6.1579     24.8921    112.8787
   354.7000      8.0769      2.5378      0.0023      6.7981     25.1302    111.5349
   354.8000      8.0693      2.5390      0.0336      6.7294     25.8044    112.8366
   354.9000      8.0693      2.5533      0.0340      5.8580     26.6229    114.9124
   355.0000      8.0655      2.5830      0.0289      4.0581     27.3682    115.4054
   355.1000      8.0655      2.6201      0.1616      1.8105     27.8812    110.7787
   355.2000      8.0655      2.6422      0.1063      0.4738     27.9299    102.9886
   355.3000      8.0645      2.6463      0.0844      0.2221     27.8788     99.7003
   355.4000      8.0645      2.6406      0.1016      0.5692     28.0153    100.7711
   355.5000      8.0640      2.6266      0.0831      1.4199     28.0622    102.9719
   355.6000      8.0640      2.6120      0.0490      2.3005     27.9998    106.5488
   355.7000      8.0640      2.6053      0.0447      2.7115     28.1200    109.0433
   355.8000      8.0649      2.6005      0.0401      2.9982     28.3816    107.8992
   355.9000      8.0649      2.5914      0.0464      3.5543     28.4516    102.9689
   356.0000      8.0668      2.5828      0.0239      4.0706     28.2537     97.6643
   356.1000      8.0668      2.5823      0.0218      4.1053     28.1194     97.5410
   356.2000      8.0668      2.5906      0.0114      3.5994     28.1986    101.7332
   356.3000      8.0679      2.5994      0.0630      3.0656     28.3459    104.4936
   356.4000      8.0679      2.5967      0.0731      3.2305     28.4321    105.3719
   356.5000      8.0671      2.5913      0.0033      3.5555     28.2680    108.1742
   356.6000      8.0671      2.6042      0.0394      2.7730     27.8174    113.3812
   356.7000      8.0671      2.6329      0.0518      1.0393     27.5769    117.4683
   356.8000      8.0674      2.6560      0.0922     -0.3648     27.7311    119.7861
   356.9000      8.0674      2.6605      0.0681     -0.6389     27.9402    121.6722
   357.0000      8.0693      2.6479      0.0719      0.1260     28.1149    124.4240
   357.1000      8.0693      2.6209      0.0448      1.7648     28.2574    127.9921
   357.2000      8.0693      2.5884     -0.0027      3.7321     28.4143    128.0291
   357.3000      8.0712      2.5678      0.0161      4.9840     28.6139    124.3013
   357.4000      8.0712      2.5608      0.0626      5.4068     28.6798    124.1585
   357.5000      8.0708      2.5608      0.0119      5.4056     28.3902    130.6495
   357.6000      8.0708      2.5627      0.0570      5.2900     27.9923    135.4696
   357.7000      8.0708      2.5505      0.0300      6.0288     28.0978    131.9708
   357.8000      8.0678      2.5235     -0.0261      7.6685     28.4455    126.3327
   357.9000      8.0678      2.5083     -0.0029      8.5855     28.4475    125.8993
   358.0000      8.0651      2.5197      0.0262      7.8983     28.2681    128.6371
   358.1000      8.0651      2.5422      0.0450      6.5326     28.0791    128.5272
   358.2000      8.0651      2.5548      0.0441      5.7676     27.7957    123.3334
   358.3000      8.0646      2.5541      0.0942      5.8112     27.4939    117.8095
   358.4000      8.0646      2.5586      0.0062      5.5378     27.1150    116.5819
   358.5000      8.0663      2.5824      0.0864      4.0990     26.6022    118.0014
   358.6000      8.0663      2.6100      0.0742      2.4217     26.3119    119.0736
   358.7000      8.0663      2.6276      0.0890      1.3605     26.4526    117.7205
   358.8000      8.0690      2.6381      0.0697      0.7241     26.7911    112.9179
   358.9000      8.0690      2.6413      0.1260      0.5269     27.1512    109.0725
   359.0000      8.0696      2.6359      0.0824      0.8546     27.5820    110.0911
   359.1000      8.0696      2.6352      0.0810      0.8958     27.9641    113.4530
   359.2000      8.0696      2.6500      0.0765     -0.0015     28.1953    112.8568
   359.3000      8.0676      2.6637      0.0853     -0.8308     28.4778    106.7537
   359.4000      8.0676      2.6541      0.0524     -0.2460     28.9015    100.7409
   359.5000      8.0668      2.6273      0.0713      1.3739     29.1270     98.0126
   359.6000      8.0668      2.6050      0.0474      2.7274     29.0557     98.6556
   359.7000      8.0668      2.5939      0.0891      3.4022     29.3548    102.4944
   359.8000      8.0688      2.5871      0.0509      3.8130     30.3557    106.3665
   359.9000      8.0688      2.5839      0.0416      4.0031     31.3782    106.4487
   360.0000      8.0747      2.5905      0.0237      3.6089     31.8157    104.4491
   360.1000      8.0747      2.6038      0.0337      2.8006     31.9191    106.0769
