~Version Information
VERS.                      2.0: CWLS Log ASCII Standard - VERSION 2.0
WRAP.                       NO: One line per depth step
~Well Information Block
STRT.FT                -5.2500: 
STOP.FT               769.5000: 
STEP.FT                 0.2500: 
NULL.                -999.2500: 
COMP.          Pioneer Natural Resources: COMPANY
WELL.          HG Duran 34-27 Tr: WELL
FLD.           Purgatorie River: FIELD
LOC.           1076' FSL & 1465' FEL: LOCATION
PROV.                 Colorado: PROVINCE
CNTY.               Las Animas: COUNTRY
SRVC.          Patterson Wireline: SERVICE COMPANY
DATE.          Mon Apr 18 09:19:17 2005: LOG DATE
UWI.           05-071-08218-00: UNIQUE WELL ID
~Curve Information Block
DEPT.FT            0 000 00 00: Depth
CCL.                          : Casing Collar Locator
TT3.usec                      : CBL 3' Travel Time
AMP3.mV                       : CBL 3' Amplitude
GR.GAPI                       : Gamma Ray
~Parameter Information Block
~A  Depth       CCL         TT3         AMP3         GR     
# ...
   195.7500      0.0000    965.3544     12.9829     71.4462
   196.0000      0.0000    958.2029     12.8677     68.9851
   196.2500      0.0000    942.1094     12.6167     66.4680
   196.5000      0.0000    916.2942     12.2831     64.5331
   196.7500      0.0000    882.9149     11.9687     63.3005
   197.0000      0.0000    848.9611     11.7824     62.5681
   197.2500      0.0000    821.6169     11.7938     62.5592
   197.5000      0.0000    803.2720     12.0184     64.0787
   197.7500      0.0000    792.3270     12.4378     67.4110
   198.0000      0.0000    786.9384     13.0220     71.2246
   198.2500      0.0000    786.3073     13.7429     73.2337
   198.5000      0.0000    789.3063     14.5676     72.3614
   198.7500      0.0000    793.7934     15.4333     69.9587
   199.0000      0.0000    797.7445     16.2259     68.4328
   199.2500      0.0000    800.6254     16.7995     68.8962
   199.5000      0.0000    803.9575     17.0488     70.5103
   199.7500      0.0000    811.3856     16.9811     71.8419
   200.0000      0.0000    827.8870     16.7136     72.3754
   200.2500      0.0000    856.2178     16.4016     72.8186
   200.5000      0.0000    891.3175     16.1739     74.1636
   200.7500      0.0000    919.2604     16.1022     76.4818
   201.0000      0.0000    926.3038     16.1694     78.8274
   201.2500      0.0000    910.9445     16.2596     80.4359
   201.5000      0.0000    884.7493     16.2323     81.7219
   201.7500      0.0000    860.6373     16.0331     83.7713
   202.0000      0.0000    843.0887     15.7177     86.9173
   202.2500      0.0000    829.8873     15.3776     90.0928
   202.5000      0.0000    818.9283     15.0768     91.7414
   202.7500      0.0000    810.5273     14.8479     91.2379
   203.0000      0.0000    805.3014     14.6930     89.1723
   203.2500      0.0000    802.7012     14.5704     86.3917
   203.5000      0.0000    801.5950     14.4173     83.2004
   203.7500      0.0000    801.1569     14.2128     79.5532
   204.0000      0.0000    801.0311     14.0085     75.6388
   204.2500      0.0000    801.1048     13.8866     72.2061
   204.5000      0.0000    801.3290     13.8933     70.4967
   204.7500      0.0000    801.6374     14.0046     71.8472
   205.0000      0.0000    801.9532     14.1464     76.8436
   205.2500      0.0000    802.2609     14.2422     84.1869
   205.5000      0.0000    802.7064     14.2532     90.4671
   205.7500      0.0000    803.6909     14.1864     92.0383
   206.0000      0.0000    805.8359     14.0729     87.8723
   206.2500      0.0000    809.7040     13.9388     80.3230
   206.5000      0.0000    815.2722     13.7925     73.0279
   206.7500      0.0000    821.5250     13.6355     68.5354
   207.0000      0.0000    826.6190     13.4683     67.4904
   207.2500      0.0000    828.7094     13.2756     68.7693
   207.5000      0.0000    827.0562     13.0196     70.3046
   207.7500      0.0000    822.7422     12.6695     70.8098
   208.0000      0.0000    818.5330     12.2346     70.8239
   208.2500      0.0000    818.0107     11.7630     71.5197
   208.5000      0.0000    824.1804     11.3205     72.9987
   208.7500      0.0000    838.0475     10.9717     74.5982
   209.0000      0.0000    858.0155     10.7564     76.2367
   209.2500      0.0000    880.3188     10.6732     78.3073
   209.5000      0.0000    900.1832     10.6863     80.4153
   209.7500      0.0000    913.7414     10.7388     81.1082
   210.0000      0.0000    919.6052     10.7630     79.1493
   210.2500      0.0000    917.6750     10.7036     74.9887
   210.5000      0.0000    906.9081     10.5407     70.9709
   210.7500      0.0000    887.0796     10.2786     69.8759
   211.0000      0.0000    862.4467      9.9259     72.8243
   211.2500      0.0000    840.2244      9.5045     78.2929
   211.5000      0.0000    825.1455      9.0719     83.1374
   211.7500      0.0000    817.4819      8.7162     84.8468
   212.0000      0.0000    815.4948      8.5272     83.2675
   212.2500      0.0000    817.4265      8.5691     80.4839
   212.5000      0.0000    821.1743      8.8596     79.1732
   212.7500      0.0000    823.9265      9.3589     80.6974
   213.0000      0.0000    823.2742      9.9740     84.1246
   213.2500      0.0000    818.8623     10.5811     87.0866
   213.5000      0.0000    812.6533     11.0618     88.1051
   213.7500      0.0000    807.2589     11.3444     87.7639
   214.0000      0.0000    804.1352     11.4288     87.0678
   214.2500      0.0000    803.3563     11.3723     85.5366
   214.5000      0.0000    804.4763     11.2386     82.0141
   214.7500      0.0000    806.9833     11.0518     76.6738
   215.0000      0.0000    810.1024     10.8093     71.1183
   215.2500      0.0000    812.7968     10.5340     66.9843
   215.5000      0.0000    814.2654     10.2962     65.2517
   215.7500      0.0000    814.1509     10.1869     66.3739
   216.0000      0.0000    812.2761     10.2745     70.1566
   216.2500      0.0000    808.6143     10.5674     75.5131
   216.5000      0.0000    803.5987     10.9887     80.8238
   216.7500      0.0000    798.1384     11.3932     84.7270
   217.0000      0.0000    793.2760     11.6400     86.6854
   217.2500      0.0000    789.7621     11.6758     86.9175
   217.5000      0.0000    787.7076     11.5579     85.8927
   217.7500      0.0000    786.6644     11.3975     84.0017
   218.0000      0.0000    786.1411     11.2727     81.6085
   218.2500      0.0000    785.9748     11.1844     78.9626
   218.5000      0.0000    786.3832     11.0837     75.8306
   218.7500      0.0000    788.0228     10.9412     71.5751
   219.0000      0.0000    791.9025     10.7918     65.8440
   219.2500      0.0000    799.2692     10.7108     59.0290
   219.5000      0.0000    811.2633     10.7440     52.0929
   219.7500      0.0000    827.3693     10.8589     46.1376
   220.0000      0.0000    843.5833     10.9644     41.9296
   220.2500      0.0000    854.3587     10.9783     39.6577
   220.5000      0.0000    858.1923     10.8736     39.3436
   220.7500      0.0000    859.2302     10.6634     41.4247
   221.0000      0.0000    861.6574     10.3566     46.3638
   221.2500      0.0000    866.1214      9.9601     53.2638
   221.5000      0.0000    874.5661      9.5226     59.4420
   221.7500      0.0000    894.0576      9.1390     62.3608
   222.0000      0.0000    930.1563      8.8829     62.1101
   222.2500      0.0000    977.9376      8.7536     61.3866
   222.5000      0.0000   1023.9519      8.7030     62.8673
   222.7500      0.0000   1056.9658      8.6947     66.7437
   223.0000      0.0000   1074.5511      8.7280     70.6871
   223.2500      0.0000   1080.6366      8.8258     72.1403
   223.5000      0.0000   1079.8213      9.0174     70.8136
   223.7500      0.0000   1074.0367      9.3193     69.0935
   224.0000      0.0000   1061.6045      9.7056     69.9923
   224.2500      0.0000   1038.0671     10.0994     74.4121
   224.5000      0.0000    999.8421     10.4166     80.0424
   224.7500      0.0000    949.4779     10.6288     83.0652
   225.0000      0.0000    896.8909     10.7743     81.4341
   225.2500      0.0000    853.6763     10.9045     76.6048
   225.5000      0.0000    825.7555     11.0303     72.0593
   225.7500      0.0000    811.5498     11.1202     70.3644
   226.0000      0.0000    805.8110     11.1427     71.6095
   226.2500      0.0000    803.8932     11.1012     74.0677
   226.5000      0.0000    803.2562     11.0263     75.8539
   226.7500      0.0000    802.9388     10.9483     76.0285
   227.0000      0.0000    802.7089     10.8866     74.6530
   227.2500      0.0000    802.6154     10.8532     72.3651
   227.5000      0.0000    802.8907     10.8479     69.9791
   227.7500      0.0000    804.0244     10.8476     68.1296
   228.0000      0.0000    806.8158     10.8091     67.0034
   228.2500      0.0000    812.1252     10.6880     66.4649
   228.5000      0.0000    820.2260     10.4670     66.4497
   228.7500      0.0000    830.2250     10.1700     67.0230
   229.0000      0.0000    840.1821      9.8440     68.0577
