~Version Information
VERS.                      2.0: CWLS Log ASCII Standard - VERSION 2.0
WRAP.                       NO: One line per depth step
~Well Information Block
STRT.FT               866.0000: 
STOP.FT              2027.5000: 
STEP.FT                 0.1000: 
NULL.                -999.2500: 
COMP.          Petrogulf Corporation: COMPANY
WELL.             State 16-21R: WELL
FLD.           Purgatorie River: FIELD
LOC.           203' FNL & 1560' FWL: LOCATION
PROV.                 Colorado: PROVINCE
CNTY.               Las Animas: COUNTRY
SRVC.                Patterson: SERVICE COMPANY
DATE.          Tue Aug 16 13:32:09 2005: LOG DATE
UWI.                071 08313 : UNIQUE WELL ID
~Curve Information Block
DEPT.FT            0 000 00 00: Depth
DCAL.in                       : CDL Caliper
RHOB.g/cc                     : CDL Bulk Density
RHOC.g/cc                     : CDL Density Correction
DPOR.pu                       : CDL Density Porosity
GR.GAPI                       : Gamma Ray
NPOR.pu                       : Neutron Porosity
~Parameter Information Block
~A  Depth       DCAL        RHOB        RHOC        DPOR         GR         NPOR    
   866.0000      8.2148      2.1106     -0.5090     32.6908     84.2941     38.9524
   866.1000      8.2148      2.1161     -0.4882     32.3566     83.6898     38.9391
   866.2000      8.2148      2.1230     -0.4979     31.9390     83.1303     39.0067
   866.3000      8.2219      2.1227     -0.5118     31.9553     84.1194     38.9980
   866.4000      8.2219      2.1218     -0.5449     32.0123     85.7767     38.8660
   866.5000      8.2164      2.1355     -0.4883     31.1815     85.6649     38.7683
   866.6000      8.2164      2.1632     -0.4065     29.5059     84.7673     38.7699
   866.7000      8.2164      2.1865     -0.4372     28.0916     85.3788     38.9268
   866.8000      8.2186      2.1910     -0.4473     27.8212     86.4358     39.3004
   866.9000      8.2186      2.1759     -0.4872     28.7329     84.9582     39.6643
   867.0000      8.2312      2.1537     -0.5095     30.0766     80.8829     39.7388
   867.1000      8.2312      2.1366     -0.5426     31.1174     77.1296     39.6539
   867.2000      8.2312      2.1342     -0.5634     31.2623     74.8916     39.5739
   867.3000      8.2282      2.1529     -0.5262     30.1257     72.4495     39.3641
   867.4000      8.2282      2.1776     -0.4290     28.6329     68.9484     39.0261
   867.5000      8.2332      2.1827     -0.4463     28.3234     65.8346     38.7905
   867.6000      8.2332      2.1735     -0.5278     28.8766     63.2916     38.6806
   867.7000      8.2332      2.1819     -0.5123     28.3670     60.9583     38.5467
   867.8000      8.2465      2.2154     -0.4521     26.3379     59.4586     38.3092
   867.9000      8.2465      2.2451     -0.4417     24.5367     58.1368     37.9391
   868.0000      8.2464      2.2490     -0.4761     24.3050     56.3623     37.6333
   868.1000      8.2464      2.2308     -0.4441     25.4042     54.8495     37.6564
   868.2000      8.2464      2.2102     -0.5105     26.6555     53.1259     37.7340
   868.3000      8.2520      2.2067     -0.4842     26.8668     51.0158     37.5237
   868.4000      8.2520      2.2163     -0.5138     26.2865     49.3628     37.1556
   868.5000      8.2576      2.2245     -0.5184     25.7881     48.2605     36.7980
   868.6000      8.2576      2.2271     -0.4751     25.6325     47.2468     36.4688
   868.7000      8.2576      2.2327     -0.5729     25.2925     46.6175     36.1631
   868.8000      8.2558      2.2493     -0.4315     24.2839     47.0217     35.9909
   868.9000      8.2558      2.2613     -0.4407     23.5583     47.7838     36.0987
   869.0000      8.2556      2.2556     -0.4483     23.9056     48.7102     36.2979
   869.1000      8.2556      2.2405     -0.4268     24.8172     50.9884     36.3208
   869.2000      8.2556      2.2309     -0.4814     25.4006     52.5506     36.3498
   869.3000      8.2471      2.2328     -0.4949     25.2855     50.4897     36.5180
   869.4000      8.2471      2.2366     -0.4731     25.0562     46.5908     36.4758
   869.5000      8.2489      2.2375     -0.5145     24.9993     43.8228     36.0477
   869.6000      8.2489      2.2423     -0.4748     24.7071     42.2685     35.5937
   869.7000      8.2489      2.2532     -0.5032     24.0491     40.8518     35.4909
   869.8000      8.2439      2.2675     -0.4532     23.1804     39.4733     35.6457
   869.9000      8.2439      2.2808     -0.4425     22.3772     39.7016     35.6711
   870.0000      8.2534      2.2884     -0.4429     21.9176     42.1752     35.4430
   870.1000      8.2534      2.2893     -0.4678     21.8635     44.8123     35.1308
   870.2000      8.2534      2.2871     -0.4438     21.9915     44.3835     34.7935
   870.3000      8.2716      2.2843     -0.4499     22.1647     41.0732     34.4548
   870.4000      8.2716      2.2789     -0.4479     22.4912     38.8402     34.2448
   870.5000      8.2651      2.2751     -0.4890     22.7235     39.6026     34.1781
   870.6000      8.2651      2.2724     -0.4028     22.8869     41.1379     34.1873
   870.7000      8.2651      2.2642     -0.4971     23.3802     41.7535     34.1561
   870.8000      8.2634      2.2590     -0.4848     23.6968     42.6481     34.0445
   870.9000      8.2634      2.2646     -0.5121     23.3593     44.1503     33.9534
   871.0000      8.2501      2.2797     -0.4589     22.4415     44.7091     33.9686
   871.1000      8.2501      2.3016     -0.4761     21.1140     44.2385     34.1393
   871.2000      8.2501      2.3235     -0.4231     19.7906     43.5818     34.3954
   871.3000      8.2467      2.3366     -0.4403     18.9952     42.3752     34.5074
   871.4000      8.2467      2.3363     -0.4335     19.0138     41.0725     34.4291
   871.5000      8.2518      2.3318     -0.4829     19.2878     40.8486     34.3545
   871.6000      8.2518      2.3375     -0.4275     18.9380     40.8381     34.2856
   871.7000      8.2518      2.3460     -0.4137     18.4236     39.9839     34.1039
   871.8000      8.2361      2.3441     -0.4296     18.5370     39.5264     33.9322
   871.9000      8.2361      2.3355     -0.4682     19.0610     40.0991     33.9410
   872.0000      8.2449      2.3280     -0.4752     19.5162     40.7619     34.1897
   872.1000      8.2449      2.3162     -0.3843     20.2300     41.7324     34.5369
   872.2000      8.2449      2.2893     -0.4617     21.8599     43.8365     34.7337
   872.3000      8.2432      2.2538     -0.5119     24.0135     46.5639     34.8196
   872.4000      8.2432      2.2217     -0.5157     25.9570     49.0125     34.9468
   872.5000      8.2492      2.1972     -0.5089     27.4395     51.1135     35.1083
   872.6000      8.2492      2.1807     -0.5459     28.4423     53.6881     35.2484
   872.7000      8.2492      2.1591     -0.4626     29.7536     57.3892     35.3756
   872.8000      8.2578      2.1205     -0.5433     32.0905     62.0440     35.4755
   872.9000      8.2578      2.0792     -0.5585     34.5912     67.4617     35.6229
   873.0000      8.2504      2.0453     -0.4832     36.6483     72.4746     36.1265
   873.1000      8.2504      2.0118     -0.5601     38.6762     76.0622     37.0460
   873.2000      8.2504      1.9844     -0.5641     40.3372     79.1460     37.8474
   873.3000      8.2533      1.9657     -0.4815     41.4716     83.2538     38.2263
   873.4000      8.2533      1.9365     -0.4718     43.2444     88.1884     38.6430
   873.5000      8.2550      1.8936     -0.5739     45.8408     93.7161     39.3265
   873.6000      8.2550      1.8667     -0.5742     47.4750    100.3164     39.9660
   873.7000      8.2550      1.8671     -0.5093     47.4489    106.1357     40.4316
   873.8000      8.2561      1.8717     -0.5223     47.1688    108.5565     40.8021
   873.9000      8.2561      1.8641     -0.5266     47.6298    108.1925     41.1414
   874.0000      8.2728      1.8475     -0.4927     48.6367    107.2003     41.4121
   874.1000      8.2728      1.8271     -0.5479     49.8748    107.1089     41.5441
   874.2000      8.2728      1.8085     -0.4961     50.9993    109.4301     41.6059
   874.3000      8.2735      1.8026     -0.5603     51.3572    111.5185     41.7434
   874.4000      8.2735      1.8172     -0.4832     50.4708    110.0226     42.0753
   874.5000      8.2700      1.8384     -0.4802     49.1898    107.9510     42.5007
   874.6000      8.2700      1.8448     -0.4857     48.8016    108.2625     42.7669
   874.7000      8.2700      1.8346     -0.4964     49.4197    108.6944     42.8454
   874.8000      8.2654      1.8215     -0.5349     50.2094    106.7179     42.7930
   874.9000      8.2654      1.8136     -0.5016     50.6909    104.5847     42.5632
   875.0000      8.2729      1.8096     -0.5574     50.9352    105.4440     42.2105
   875.1000      8.2729      1.8120     -0.5302     50.7862    107.6741     41.8082
   875.2000      8.2729      1.8207     -0.5364     50.2589    108.5529     41.5176
   875.3000      8.2750      1.8293     -0.5160     49.7393    109.3034     41.5033
   875.4000      8.2750      1.8347     -0.4981     49.4131    111.8623     41.5411
   875.5000      8.2652      1.8417     -0.4894     48.9851    114.1691     41.5042
