~Version Information
VERS.                      2.0: CWLS Log ASCII Standard - VERSION 2.0
WRAP.                       NO: One line per depth step
~Well Information Block
STRT.FT                -7.0000: 
STOP.FT              2730.2500: 
STEP.FT                 0.2500: 
NULL.                -999.2500: 
COMP.          Pioneer Natural Resources: COMPANY
WELL.             Squeal 11-26: WELL
FLD.           Purgatorie River: FIELD
LOC.           1186' FNL & 152' FWL--: LOCATION
PROV.                       CO: PROVINCE
CNTY.               Las Animas: COUNTRY
SRVC.          Patterson Wireline: SERVICE COMPANY
DATE.          Tue Jul 26 11:59:46 2005: LOG DATE
UWI.           05 071 08404 00: UNIQUE WELL ID
~Curve Information Block
DEPT.FT            0 000 00 00: Depth
CCL.                          : Casing Collar Locator
TT3.usec                      : CBL 3' Travel Time
AMP3.mV                       : CBL 3' Amplitude
GR.GAPI                       : Gamma Ray
~Parameter Information Block
~A  Depth       CCL         TT3         AMP3         GR     
# ...
  1065.0000      0.0000    661.0605      5.4494     66.4352
  1065.2500      0.0000    672.6530      5.4529     71.7257
  1065.5000      0.0000    679.1232      5.4525     80.1582
  1065.7500      0.0000    681.3257      5.4425     90.4163
  1066.0000      0.0000    681.3276      5.4197    100.0415
  1066.2500      0.0000    679.6433      5.3854    106.7702
  1066.5000      0.0000    674.7007      5.3465    110.1059
  1066.7500      0.0000    664.8337      5.3145    111.4746
  1067.0000      0.0000    651.1964      5.2998    112.6664
  1067.2500      0.0000    639.2981      5.3068    114.3734
  1067.5000      0.0000    636.4301      5.3318    116.3053
  1067.7500      0.0000    645.5410      5.3638    118.0820
  1068.0000      0.0000    662.0519      5.3898    119.6700
  1068.2500      0.0000    678.0107      5.4020    121.3850
  1068.5000      0.0000    688.5305      5.4024    123.6245
  1068.7500      0.0000    693.5162      5.3990    126.1234
  1069.0000      0.0000    695.0180      5.3994    127.7006
  1069.2500      0.0000    694.3952      5.4069    127.4225
  1069.5000      0.0000    690.8936      5.4205    125.7144
  1069.7500      0.0000    680.9420      5.4357    123.6451
  1070.0000      0.0000    658.6012      5.4456    121.4764
  1070.2500      0.0000    618.8839      5.4437    118.4438
  1070.5000      0.0000    563.1779      5.4257    113.6135
  1070.7500      0.0000    501.6874      5.3944    106.7662
  1071.0000      0.0000    448.5400      5.3623     98.8576
  1071.2500      0.0000    413.1650      5.3499     91.7670
  1071.5000      0.0000    396.1697      5.3734     87.2852
  1071.7500      0.0000    392.5189      5.4306     86.1583
  1072.0000      0.0000    397.3543      5.4996     88.0216
  1072.2500      0.0000    409.6155      5.5535     91.8387
  1072.5000      0.0000    432.3984      5.5755     96.1916
  1072.7500      0.0000    470.1581      5.5614     99.7125
  1073.0000      0.0000    523.2738      5.5133    101.9652
  1073.2500      0.0000    584.1970      5.4385    103.8388
  1073.5000      0.0000    640.5021      5.3539    106.8486
  1073.7500      0.0000    682.5829      5.2810    112.1707
  1074.0000      0.0000    707.9453      5.2328    120.2929
  1074.2500      0.0000    719.5330      5.2058    130.9130
  1074.5000      0.0000    722.5489      5.1910    142.6283
  1074.7500      0.0000    722.5516      5.1922    153.0777
  1075.0000      0.0000    723.6976      5.2317    160.0988
  1075.2500      0.0000    726.9802      5.3349    163.2477
  1075.5000      0.0000    730.2167      5.5038    164.1274
  1075.7500      0.0000    730.0778      5.7028    164.7174
  1076.0000      0.0000    724.4742      5.8756    165.1115
  1076.2500      0.0000    714.0659      5.9826    163.3390
  1076.5000      0.0000    702.2673      6.0260    157.6941
  1076.7500      0.0000    693.3245      6.0398    148.7280
  1077.0000      0.0000    689.4973      6.0565    138.5529
  1077.2500      0.0000    689.8780      6.0809    128.7057
  1077.5000      0.0000    691.9842      6.0859    119.2388
  1077.7500      0.0000    694.0798      6.0323    109.6804
  1078.0000      0.0000    695.6057      5.8989    100.5508
  1078.2500      0.0000    695.9669      5.7040     93.7245
  1078.5000      0.0000    694.2659      5.4996     91.0952
  1078.7500      0.0000    690.7559      5.3376     93.0227
  1079.0000      0.0000    687.4971      5.2369     98.3890
  1079.2500      0.0000    686.6398      5.1821    105.8826
  1079.5000      0.0000    688.4329      5.1541    114.5622
  1079.7500      0.0000    691.5313      5.1587    123.2981
  1080.0000      0.0000    694.8814      5.2256    130.5217
  1080.2500      0.0000    698.6761      5.3770    134.9458
  1080.5000      0.0000    703.3964      5.5973    136.2648
  1080.7500      0.0000    708.4043      5.8309    134.9422
  1081.0000      0.0000    711.9518      6.0171    131.4140
  1081.2500      0.0000    712.6663      6.1303    125.7338
  1081.5000      0.0000    710.8959      6.1886    118.2003
  1081.7500      0.0000    708.6400      6.2271    110.1742
  1082.0000      0.0000    708.2819      6.2700    103.8433
  1082.2500      0.0000    711.1148      6.3218    100.8123
  1082.5000      0.0000    716.4119      6.3670    100.9942
  1082.7500      0.0000    721.5288      6.3719    103.0903
  1083.0000      0.0000    723.3680      6.2984    105.9353
  1083.2500      0.0000    720.5311      6.1320    109.1118
  1083.5000      0.0000    714.3073      5.8970    112.5514
  1083.7500      0.0000    707.4881      5.6444    116.0404
  1084.0000      0.0000    702.2433      5.4243    119.2624
  1084.2500      0.0000    699.1043      5.2673    122.0791
  1084.5000      0.0000    697.4921      5.1812    124.5009
  1084.7500      0.0000    696.6824      5.1572    126.4774
  1085.0000      0.0000    696.2559      5.1791    128.0995
  1085.2500      0.0000    696.0426      5.2305    129.9293
  1085.5000      0.0000    695.9653      5.2953    132.6180
  1085.7500      0.0000    695.9900      5.3591    136.0313
  1086.0000      0.0000    696.1106      5.4166    139.1384
  1086.2500      0.0000    696.2994      5.4743    140.9177
  1086.5000      0.0000    696.4102      5.5417    141.0840
  1086.7500      0.0000    696.0887      5.6224    139.7064
  1087.0000      0.0000    694.7073      5.7207    136.5472
  1087.2500      0.0000    691.6672      5.8451    131.4778
  1087.5000      0.0000    687.4257      5.9835    125.5603
  1087.7500      0.0000    684.6444      6.0799    121.0130
  1088.0000      0.0000    687.4426      6.0674    119.6339
  1088.2500      0.0000    697.9117      5.9407    121.5233
  1088.5000      0.0000    713.0613      5.7702    125.5174
  1088.7500      0.0000    727.0227      5.6335    130.3477
  1089.0000      0.0000    737.9305      5.5531    134.9822
  1089.2500      0.0000    752.0442      5.5115    138.2554
  1089.5000      2.0000    779.0143      5.4969    138.8589
  1089.7500      0.0000    821.4180      5.5231    136.0672
  1090.0000      0.0000    868.4097      5.6142    130.6007
  1090.2500      0.0000    900.7061      5.7704    124.5533
  1090.5000      0.0000    904.3376      5.9404    120.0898
  1090.7500      0.0000    881.3602      6.0425    117.9954
  1091.0000      0.0000    847.7160      6.0378    117.3018
  1091.2500      0.0000    821.4918      5.9689    116.0888
  1091.5000      0.0000    813.1019      5.9082    112.8484
  1091.7500      0.0000    822.9958      5.8883    107.5617
  1092.0000      0.0000    843.4270      5.8955    101.6886
  1092.2500      0.0000    861.0262      5.9078     97.2690
  1092.5000      0.0000    862.6031      5.9181     96.0269
  1092.7500      0.0000    844.2048      5.9333     98.7999
  1093.0000      0.0000    814.3987      5.9662    104.9677
  1093.2500      0.0000    786.0953      6.0268    112.2779
  1093.5000      0.0000    766.0021      6.1125    118.0252
  1093.7500      0.0000    752.8861      6.2030    121.0158
  1094.0000      0.0000    742.9356      6.2683    122.1369
  1094.2500      0.0000    734.0544      6.2885    122.8941
  1094.5000      0.0000    726.2997      6.2657    123.9131
  1094.7500      0.0000    720.2827      6.2176    124.9194
  1095.0000      0.0000    715.5347      6.1600    125.2941
  1095.2500      0.0000    710.3184      6.0945    124.1974
  1095.5000      0.0000    703.0206      6.0102    120.9016
  1095.7500      0.0000    693.2305      5.8961    115.5293
  1096.0000      0.0000    681.8314      5.7553    109.1596
  1096.2500      0.0000    671.1798      5.6073    103.1971
  1096.5000      0.0000    665.0002      5.4781     98.8460
  1096.7500      0.0000    666.3378      5.3834     96.7165
  1097.0000      0.0000    674.7601      5.3201     96.4011
  1097.2500      0.0000    686.2661      5.2724     96.6740
  1097.5000      0.0000    696.6194      5.2294     96.4308
  1097.7500      0.0000    704.1816      5.1961     95.3637
  1098.0000      0.0000    709.1935      5.1857     93.9319
  1098.2500      0.0000    711.9576      5.2027     93.0727
