~Version Information
VERS.                      2.0: CWLS Log ASCII Standard - VERSION 2.0
WRAP.                       NO: One line per depth step
~Well Information Block
STRT.FT                -8.2500: 
STOP.FT              2239.2500: 
STEP.FT                 0.2500: 
NULL.                -999.2500: 
COMP.          Pioneer Natural Resources: COMPANY
WELL.            Moo Moo 31-36: WELL
FLD.           Purgatorie River: FIELD
LOC.           612' FNL & 2326' FEL--: LOCATION
PROV.                       CO: PROVINCE
CNTY.               Las Animas: COUNTRY
SRVC.          Patterson Wireline: SERVICE COMPANY
DATE.          Thu Jun 23 10:04:07 2005: LOG DATE
UWI.           05 071 08395 00: UNIQUE WELL ID
~Curve Information Block
DEPT.FT            0 000 00 00: Depth
CCL.                          : Casing Collar Locator
TT3.usec                      : CBL 3' Travel Time
AMP3.mV                       : CBL 3' Amplitude
GR.GAPI                       : Gamma Ray
~Parameter Information Block
~A  Depth       CCL         TT3         AMP3         GR     
    -8.2500   -999.2500   -999.2500   -999.2500     67.3334
    -8.0000   -999.2500   -999.2500   -999.2500     68.5899
    -7.7500   -999.2500   -999.2500   -999.2500     69.4970
    -7.5000   -999.2500   -999.2500   -999.2500     70.1087
    -7.2500   -999.2500   -999.2500   -999.2500     70.3871
    -7.0000   -999.2500   -999.2500   -999.2500     70.0092
    -6.7500   -999.2500   -999.2500   -999.2500     68.9389
    -6.5000   -999.2500   -999.2500   -999.2500     67.6783
    -6.2500   -999.2500   -999.2500   -999.2500     66.7167
    -6.0000   -999.2500   -999.2500   -999.2500     65.9643
    -5.7500   -999.2500   -999.2500   -999.2500     64.9033
    -5.5000   -999.2500   -999.2500   -999.2500     63.1511
    -5.2500   -999.2500   -999.2500   -999.2500     60.9528
    -5.0000   -999.2500   -999.2500   -999.2500     59.3835
    -4.7500   -999.2500   -999.2500   -999.2500     59.9162
    -4.5000   -999.2500   -999.2500   -999.2500     63.2664
    -4.2500   -999.2500   -999.2500   -999.2500     68.3929
    -4.0000   -999.2500   -999.2500   -999.2500     72.8193
    -3.7500   -999.2500   -999.2500   -999.2500     74.4148
    -3.5000   -999.2500   -999.2500   -999.2500     73.1325
    -3.2500   -999.2500   1170.0000      0.8807     70.8446
    -3.0000   -999.2500   1170.0000      0.8996     69.5086
    -2.7500   -999.2500   1170.0000      0.9319     69.6576
    -2.5000   -999.2500   1170.0000      0.9723     70.3133
    -2.2500   -999.2500   1170.0000      1.0067     69.8191
    -2.0000   -999.2500   1170.0000      1.0231     66.9835
    -1.7500   -999.2500   1170.0000      1.0210     61.9767
    -1.5000   -999.2500   1170.0000      1.0073     56.1432
    -1.2500   -999.2500   1170.0000      0.9852     50.7248
    -1.0000   -999.2500   1170.0000      0.9505     45.7892
    -0.7500   -999.2500   1170.0000      0.9005     40.5973
    -0.5000   -999.2500   1170.0000      0.8408     34.9927
    -0.2500   -999.2500   1170.0000      0.7812     30.1529
     0.0000   -999.2500   1170.0000      0.7301     27.8209
     0.2500   -999.2500   1170.0000      0.6935     28.9733
     0.5000   -999.2500   1170.0000      0.6732     39.9024
     0.7500   -999.2500   1170.0000      0.6830     47.6580
     1.0000   -999.2500   1170.0000      0.7000     55.5945
     1.2500   -999.2500   1170.0000      0.7236     62.3955
     1.5000   -999.2500   1170.0000      0.7519     66.5677
     1.7500   -999.2500   1170.0000      0.7783     67.3511
     2.0000      0.0000   1170.0000      0.7955     65.5258
     2.2500      0.0000   1170.0000      0.8019     63.0437
     2.5000      0.0000   1170.0000      0.8012     61.6353
     2.7500      0.0000   1170.0000      0.7970     61.6828
     3.0000      0.0000   1170.0000      0.7902     62.3125
     3.2500      0.0000   1170.0000      0.7850     62.3570
     3.5000      0.0000   1170.0000      0.7934     61.2074
     3.7500      0.0000   1170.0000      0.8287     58.9780
     4.0000      0.0000   1170.0000      0.8928     56.2319
     4.2500      0.0000   1170.0000      0.9738     53.8788
     4.5000      0.0000   1170.0000      1.0547     53.1140
     4.7500      0.0000   1170.0000      1.1200     54.8029
     5.0000      0.0000   1170.0000      1.1565     58.5656
     5.2500      0.0000   1170.0000      1.1579     62.5866
     5.5000      0.0000   1170.0000      1.1334     64.5771
     5.7500      0.0000   1170.0000      1.1050     63.2171
     6.0000      0.0000   1170.0000      1.0906     59.0633
     6.2500      0.0000   1170.0000      1.0904     54.2197
     6.5000      0.0000   1170.0000      1.0900     50.9082
     6.7500      0.0000   1170.0000      1.0753     50.1221
     7.0000      0.0000   1170.0000      1.0441     51.3999
     7.2500      0.0000   1170.0000      1.0089     53.4729
     7.5000      0.0000   1170.0000      0.9923     54.9935
     7.7500      0.0000   1170.0000      1.0157     55.0356
     8.0000      0.0000   1170.0000      1.1004     53.3858
     8.2500      0.0000   1170.0000      1.3026     50.5218
     8.5000      0.0000   1170.0000      1.7883     47.1932
     8.7500      0.0000   1170.0000      2.8773     43.9793
     9.0000      0.0000   1170.0000      4.9219     41.2276
     9.2500      0.0000   1170.0000      7.9762     39.2301
     9.5000      0.0000   1170.0000     11.5169     38.2253
     9.7500      0.0000   1170.0000     14.5966     38.2912
    10.0000      0.0000   1170.0000     16.4062     39.3794
    10.2500      0.0000   1170.0000     16.7401     41.3167
    10.5000      0.0000   1170.0000     15.9625     43.6210
    10.7500      0.0000   1170.0000     14.6158     45.5360
    11.0000      0.0000   1170.0000     13.0871     46.6152
    11.2500      0.0000   1170.0000     11.5462     47.3076
    11.5000      0.0000   1169.9910     10.0575     48.6972
    11.7500      0.0000   1169.9314      8.6777     51.5800
    12.0000      0.0000   1169.6287      7.4632     55.8695
    12.2500      0.0000   1168.4252      6.4330     60.7125
    12.5000      0.0000   1164.6965      5.5617     64.9764
    12.7500      0.0000   1155.6670      4.8177     67.7890
    13.0000      0.0000   1138.5161      4.2010     68.8543
    13.2500      0.0000   1112.8199      3.7392     68.3918
    13.5000      0.0000   1082.1649      3.4478     66.9320
    13.7500      0.0000   1052.6982      3.3015     65.1894
    14.0000      0.0000   1029.7491      3.2453     63.8638
    14.2500      0.0000   1015.6204      3.2335     63.2213
    14.5000      0.0000   1009.3520      3.2519     62.8800
    14.7500      0.0000   1007.4341      3.3042     62.3853
    15.0000      0.0000   1005.4587      3.3837     62.0495
    15.2500      0.0000   1000.6013      3.4629     62.7624
    15.5000      0.0000    993.0715      3.5095     64.8030
    15.7500      0.0000    985.1087      3.5094     67.3006
    16.0000      0.0000    978.7429      3.4769     69.2087
    16.2500      0.0000    974.5040      3.4464     70.4990
    16.5000      0.0000    971.5840      3.4523     71.9737
    16.7500      0.0000    968.4603      3.5084     73.9890
    17.0000      0.0000    963.4336      3.5988     75.8079
    17.2500      0.0000    955.4658      3.6908     76.3758
    17.5000      0.0000    945.2690      3.7595     75.4930
    17.7500      0.0000    935.3589      3.8033     74.0041
    18.0000      0.0000    928.3180      3.8368     72.9878
    18.2500      0.0000    924.8693      3.8709     72.9145
    18.5000      0.0000    923.8320      3.9014     73.3979
    18.7500      0.0000    923.6007      3.9161     73.6247
    19.0000      0.0000    923.2823      3.9065     73.2561
    19.2500      0.0000    922.7439      3.8745     72.9862
    19.5000      0.0000    922.1284      3.8356     73.8171
    19.7500      0.0000    921.4492      3.8162     75.5202
    20.0000      0.0000    920.4522      3.8365     76.2490
    20.2500      0.0000    918.7944      3.8903     74.2246
    20.5000      0.0000    916.5139      3.9471     69.6610
    20.7500      0.0000    914.4220      3.9788     64.7026
    21.0000      0.0000    913.8160      3.9803     61.7395
    21.2500      0.0000    915.5070      3.9657     61.9911
    21.5000      0.0000    919.0596      3.9523     65.0416
    21.7500      0.0000    922.7388      3.9493     69.0134
    22.0000      0.0000    923.8701      3.9565     71.7271
    22.2500      0.0000    919.4959      3.9691     72.6219
    22.5000      0.0000    907.0969      3.9821     73.3027
    22.7500      0.0000    884.1148      3.9923     75.5481
    23.0000      0.0000    846.6248      3.9951     79.1482
    23.2500      0.0000    791.5519      3.9822     82.2979
    23.5000      0.0000    723.1348      3.9480     83.7293
    23.7500      0.0000    654.2623      3.8979     83.8996
    24.0000      0.0000    595.9910      3.8471     84.2469
    24.2500      0.0000    547.3379      3.8109     85.6240
    24.5000      0.0000    500.6393      3.7989     87.4496
    24.7500      0.0000    454.5307      3.8157     88.4233
    25.0000      0.0000    416.2928      3.8575     88.0489
