~Version Information
VERS.                      2.0: CWLS Log ASCII Standard - VERSION 2.0
WRAP.                       NO: One line per depth step
~Well Information Block
STRT.FT               630.0000: 
STOP.FT              1156.0000: 
STEP.FT                 0.2500: 
NULL.                -999.2500: 
COMP.          Pioneer Natural Resources: COMPANY
WELL.          Drewmeister 34-34: WELL
FLD.           Purgatoire River: FIELD
LOC.           958' FSL & 1857' FEL: LOCATION
STAT.                 Colorado: State
CNTY.               Las Animas: COUNTY
CTRY. USA : Country
SECT. 34 : Section
TOWN. 32S : Township
RANG. 65W : Range
SRVC.                Patterson: SERVICE COMPANY
DATE.          Mon Oct 03 23:24:37 2005: LOG DATE
API.           05 071 08131 00: UNIQUE WELL ID
~Curve Information Block
DEPT.FT            0 000 00 00: Depth
SN.Ohm-m                      : IEL Short Normal
SP.mV                         : IEL Spontaneous Potential
DIR.Ohm-m                     : IEL Induction Resistivity
GR.GAPI                       : Gamma Ray
~Parameter Information Block
~A  Depth        SN          SP         DIR          GR     
# ...
   965.0000     45.7235    799.9761     19.2648     72.9835
   965.2500     40.8534    799.9761     19.3091     70.3804
   965.5000     34.6710    799.9761     19.3919     67.7684
   965.7500     28.5873    799.9761     19.4799     67.2574
   966.0000     23.8219    799.9761     19.5440     68.1754
   966.2500     20.9517    799.9761     19.5632     69.3467
   966.5000     19.9433    799.9761     19.5294     71.0970
   966.7500     20.1179    799.9761     19.4494     72.1674
   967.0000     20.5522    799.9761     19.3411     73.8821
   967.2500     20.6253    799.9761     19.2261     75.1338
   967.5000     20.2641    799.9761     19.1229     76.8153
   967.7500     19.7446    799.9761     19.0435     77.5515
   968.0000     19.3136    799.9761     18.9905     77.9130
   968.2500     19.0459    799.9761     18.9584     77.6807
   968.5000     18.9505    799.9761     18.9408     76.7720
   968.7500     19.0419    799.9761     18.9390     76.0021
   969.0000     19.2543    799.9761     18.9635     74.9703
   969.2500     19.4046    799.9761     19.0250     74.2994
   969.5000     19.3699    799.9761     19.1241     72.7033
   969.7500     19.2489    799.9761     19.2471     71.0115
   970.0000     19.2596    799.9761     19.3711     67.9477
   970.2500     19.5027    799.9761     19.4712     66.0842
   970.5000     19.8701    799.9761     19.5301     64.3902
   970.7500     20.1292    799.9761     19.5515     64.4587
   971.0000     20.1518    799.9761     19.5713     67.0805
   971.2500     20.0742    799.9761     19.6507     70.4223
   971.5000     20.0961    799.9761     19.8463     76.1579
   971.7500     20.2005    799.9761     20.1760     79.0569
   972.0000     20.2184    799.9761     20.6076     80.5070
   972.2500     20.1189    799.9761     21.0806     79.6232
   972.5000     20.1683    799.9761     21.5455     76.8704
   972.7500     20.7314    799.9761     21.9846     75.0336
   973.0000     21.8584    799.9761     22.4020     73.2513
   973.2500     23.1463    799.9761     22.7997     72.6859
   973.5000     24.0970    799.9761     23.1683     72.1997
   973.7500     24.5738    799.9761     23.4953     71.9619
   974.0000     24.8536    799.9761     23.7739     72.0041
   974.2500     25.2818    799.9761     24.0011     72.4326
   974.5000     25.8805    799.9761     24.1669     73.3527
   974.7500     26.4238    799.9761     24.2545     73.8051
   975.0000     26.8620    799.9761     24.2557     74.0362
   975.2500     27.2764    799.9761     24.1934     74.0688
   975.5000     27.5554    799.9761     24.1232     74.2423
   975.7500     27.5558    799.9761     24.1099     74.4071
   976.0000     27.6646    799.9761     24.1975     74.5699
   976.2500     28.8188    799.9761     24.4009     74.7422
   976.5000     31.2216    799.9761     24.7170     75.6299
   976.7500     33.6601    799.9761     25.1306     76.8203
   977.0000     35.2921    799.9761     25.5992     79.1434
   977.2500     36.5759    799.9761     26.0334     80.5808
   977.5000     37.1872    799.9761     26.3138     82.0008
   977.7500     35.5350    799.9761     26.3572     82.5308
   978.0000     31.5058    799.9761     26.1812     83.2899
   978.2500     27.3281    799.9761     25.9017     83.9031
   978.5000     24.9461    799.9761     25.6631     84.2182
   978.7500     24.3924    799.9761     25.5658     83.2691
   979.0000     24.7032    799.9761     25.6359     79.5683
   979.2500     25.0476    799.9761     25.8336     76.1491
   979.5000     25.0653    799.9761     26.0831     71.6217
   979.7500     24.8012    799.9761     26.3054     70.1273
   980.0000     24.5083    799.9761     26.4405     70.9573
   980.2500     24.4001    799.9761     26.4558     73.1986
   980.5000     24.5134    799.9761     26.3482     77.3724
   980.7500     24.7420    799.9761     26.1433     79.3897
   981.0000     24.9073    799.9761     25.8906     79.5257
   981.2500     24.8983    799.9761     25.6497     77.5028
   981.5000     24.7888    799.9761     25.4698     72.5369
   981.7500     24.7019    799.9761     25.3726     69.1128
   982.0000     24.6206    799.9761     25.3483     65.5820
   982.2500     24.4486    799.9761     25.3674     64.9114
   982.5000     24.2107    799.9761     25.4007     66.6320
   982.7500     24.0754    799.9761     25.4309     69.2608
   983.0000     24.1648    799.9761     25.4452     74.4198
   983.2500     24.3982    799.9761     25.4227     78.0797
   983.5000     24.5148    799.9761     25.3343     83.0903
   983.7500     24.2643    799.9761     25.1579     85.6848
   984.0000     23.5608    799.9761     24.8914     87.7126
   984.2500     22.4980    799.9761     24.5520     87.5106
   984.5000     21.3155    799.9761     24.1657     84.9315
   984.7500     20.2602    799.9761     23.7582     82.1216
   985.0000     19.5082    799.9761     23.3491     77.3151
   985.2500     19.2369    799.9761     22.9463     74.2523
   985.5000     19.5887    799.9761     22.5455     70.5129
   985.7500     20.5134    799.9761     22.1385     68.8600
   986.0000     21.6466    799.9761     21.7280     67.9563
   986.2500     22.4564    799.9761     21.3323     68.4516
   986.5000     22.6977    799.9761     20.9747     70.5963
   986.7500     22.5362    799.9761     20.6663     72.6454
   987.0000     22.1673    799.9761     20.3982     76.1449
   987.2500     21.6804    799.9761     20.1465     78.7164
   987.5000     21.2277    799.9761     19.8858     83.0021
   987.7500     20.9494    799.9761     19.5999     85.8673
   988.0000     20.7947    799.9761     19.2857     89.1107
   988.2500     20.6321    799.9761     18.9502     90.0450
   988.5000     20.4335    799.9761     18.6052     89.4302
   988.7500     20.2141    799.9761     18.2650     87.9349
   989.0000     19.9240    799.9761     17.9466     84.9837
   989.2500     19.5108    799.9761     17.6685     83.3562
   989.5000     19.0172    799.9761     17.4455     82.8533
   989.7500     18.5823    799.9761     17.2808     84.1537
   990.0000     18.3974    799.9761     17.1636     87.7377
   990.2500     18.5175    799.9761     17.0735     90.2457
   990.5000     18.7069    799.9761     16.9922     92.9074
   990.7500     18.7165    799.9761     16.9117     93.6925
   991.0000     18.5654    799.9761     16.8354     93.3774
   991.2500     18.3711    799.9761     16.7693     92.3385
   991.5000     18.2013    799.9761     16.7139     90.5292
   991.7500     18.1564    799.9761     16.6637     90.0256
   992.0000     18.3168    799.9761     16.6122     91.1415
   992.2500     18.6217    799.9761     16.5579     92.8061
   992.5000     18.9502    799.9761     16.5041     95.1966
   992.7500     19.2176    799.9761     16.4570     95.8507
   993.0000     19.3410    799.9761     16.4240     94.6727
   993.2500     19.2645    799.9761     16.4122     92.6195
   993.5000     19.0639    799.9761     16.4254     88.8668
   993.7500     18.9246    799.9761     16.4617     86.8459
   994.0000     18.9381    799.9761     16.5142     85.5973
   994.2500     18.9692    799.9761     16.5761     85.9013
   994.5000     18.8897    799.9761     16.6450     86.9548
   994.7500     18.8006    799.9761     16.7237     87.3123
   995.0000     18.8344    799.9761     16.8202     86.8650
   995.2500     18.9607    799.9761     16.9471     86.1873
   995.5000     19.1049    799.9761     17.1185     85.2081
   995.7500     19.2967    799.9761     17.3406     84.5753
   996.0000     19.6087    799.9761     17.5985     83.2918
   996.2500     20.0130    799.9761     17.8490     82.2923
   996.5000     20.3531    799.9761     18.0367     81.2987
   996.7500     20.4845    799.9761     18.1275     81.1958
   997.0000     20.4308    799.9761     18.1332     81.3140
   997.2500     20.3435    799.9761     18.1016     81.0758
   997.5000     20.3450    799.9761     18.0806     80.1195
   997.7500     20.4579    799.9761     18.0922     79.5104
   998.0000     20.6120    799.9761     18.1333     79.5749
   998.2500     20.6959    799.9761     18.1961     80.6033
