~Version Information
VERS.                      2.0: CWLS Log ASCII Standard - VERSION 2.0
WRAP.                       NO: One line per depth step
~Well Information Block
STRT.FT               650.0000: 
STOP.FT              1999.0000: 
STEP.FT                 0.2500: 
NULL.                -999.2500: 
COMP.          Pioneer Natural Resources: COMPANY
WELL.           Firehawk 34-26: WELL
FLD.           Purgatoire River: FIELD
LOC.           1196' FSL & 1595' FEL--: LOCATION
STAT.                 Colorado: State
CNTY.               Las Animas: COUNTY
CTRY. USA : Country
SECT. 26 : Section
TOWN. 32S : Township
RANG. 66W : Range
SRVC.                Patterson: SERVICE COMPANY
DATE.          Sun Oct 16 16:57:28 2005: LOG DATE
API.           05 071 08389 00: UNIQUE WELL ID
~Curve Information Block
DEPT.FT            0 000 00 00: Depth
SN.Ohm-m                      : IEL Short Normal
SP.mV                         : IEL Spontaneous Potential
DIR.Ohm-m                     : IEL Induction Resistivity
GR.GAPI                       : Gamma Ray
~Parameter Information Block
~A  Depth        SN          SP         DIR          GR     
# ...
  1253.0000     16.5647    -18.8064     15.0083     90.6547
  1253.2500     16.0179    -18.5957     14.7105     91.8763
  1253.5000     15.4723    -18.5909     14.5096     95.2312
  1253.7500     14.9993    -18.7672     14.4074     97.9913
  1254.0000     14.6856    -19.0621     14.3959    101.5201
  1254.2500     14.5821    -19.3918     14.4623    102.8192
  1254.5000     14.6788    -19.6809     14.5929    102.5480
  1254.7500     14.9380    -19.8960     14.7722    100.6162
  1255.0000     15.3382    -20.0690     14.9842     94.8829
  1255.2500     15.8578    -20.2840     15.2141     89.4898
  1255.5000     16.4434    -20.6116     15.4553     80.6028
  1255.7500     17.0385    -21.0341     15.7121     75.3645
  1256.0000     17.6296    -21.4376     15.9985     70.0969
  1256.2500     18.2326    -21.6910     16.3307     68.4101
  1256.5000     18.8549    -21.7294     16.7194     67.2371
  1256.7500     19.4817    -21.5725     17.1663     66.1409
  1257.0000     20.0832    -21.2941     17.6631     62.6118
  1257.2500     20.6339    -20.9902     18.1945     59.0151
  1257.5000     21.1252    -20.7538     18.7431     52.9150
  1257.7500     21.5623    -20.6436     19.2929     49.2265
  1258.0000     21.9617    -20.6635     19.8298     45.2775
  1258.2500     22.3423    -20.7696     20.3376     43.8785
  1258.5000     22.7041    -20.9014     20.7945     43.1922
  1258.7500     23.0369    -21.0223     21.1753     43.1783
  1259.0000     23.3437    -21.1489     21.4596     43.2509
  1259.2500     23.6305    -21.3400     21.6425     43.4272
  1259.5000     23.8842    -21.6378     21.7421     44.3749
  1259.7500     24.0731    -22.0179     21.7972     45.6251
  1260.0000     24.1678    -22.4016     21.8518     48.2196
  1260.2500     24.1610    -22.7037     21.9351     50.1394
  1260.5000     24.0711    -22.8317     22.0478     52.8324
  1260.7500     23.9398    -22.6462     22.1660     54.2432
  1261.0000     23.8311    -21.9911     22.2609     55.2087
  1261.2500     23.8234    -20.8364     22.3230     54.8147
  1261.5000     23.9864    -19.4092     22.3696     52.8817
  1261.7500     24.3429    -18.1575     22.4320     51.2494
  1262.0000     24.8424    -17.5316     22.5306     49.3288
  1262.2500     25.3827    -17.7230     22.6600     48.7338
  1262.5000     25.8748    -18.5577     22.7940     48.7992
  1262.7500     26.2751    -19.6327     22.9043     49.1609
  1263.0000     26.5687    -20.5700     22.9776     49.5883
  1263.2500     26.7626    -21.1784     23.0211     49.6645
  1263.5000     26.8874    -21.4523     23.0553     49.5693
  1263.7500     26.9799    -21.4862     23.1048     49.3647
  1264.0000     27.0618    -21.4003     23.1907     48.5196
  1264.2500     27.1443    -21.3054     23.3250     47.4183
  1264.5000     27.2452    -21.2910     23.5063     45.1224
  1264.7500     27.3912    -21.4175     23.7186     43.5438
  1265.0000     27.6002    -21.6978     23.9357     41.8690
  1265.2500     27.8525    -22.0854     24.1297     41.4781
  1265.5000     28.1007    -22.4947     24.2778     41.8381
  1265.7500     28.3084    -22.8542     24.3647     42.3100
  1266.0000     28.4661    -23.1517     24.3851     42.5577
  1266.2500     28.5826    -23.4296     24.3474     42.1494
  1266.5000     28.6650    -23.7467     24.2711     40.8774
  1266.7500     28.7158    -24.1530     24.1755     40.0477
  1267.0000     28.7563    -24.6876     24.0658     39.7488
  1267.2500     28.8260    -25.3737     23.9329     40.5249
  1267.5000     28.9386    -26.2129     23.7660     43.2573
  1267.7500     29.0530    -27.2020     23.5662     45.9462
  1268.0000     29.1021    -28.3648     23.3458     50.5986
  1268.2500     29.0516    -29.7630     23.1177     53.5912
  1268.5000     28.9107    -31.4790     22.8877     57.3966
  1268.7500     28.6804    -33.6064     22.6554     59.6364
  1269.0000     28.3118    -36.2479     22.4159     63.1868
  1269.2500     27.7323    -39.4429     22.1556     65.7635
  1269.5000     26.8900    -42.9920     21.8460     69.3430
  1269.7500     25.7699    -46.2989     21.4487     71.1560
  1270.0000     24.4256    -48.4346     20.9315     73.0483
  1270.2500     23.0031    -48.5063     20.2853     74.1654
  1270.5000     21.6598    -46.1432     19.5322     76.4601
  1270.7500     20.4646    -41.7318     18.7204     78.7167
  1271.0000     19.4400    -36.2039     17.9100     83.2012
  1271.2500     18.6279    -30.5648     17.1580     86.6042
  1271.5000     18.0072    -25.5253     16.5059     91.4182
  1271.7500     17.4376    -21.4134     15.9744     93.8836
  1272.0000     16.8146    -18.2746     15.5648     95.9848
  1272.2500     16.2155    -15.9986     15.2636     96.5454
  1272.5000     15.7996    -14.4022     15.0483     97.1413
  1272.7500     15.6328    -13.2814     14.8927     97.7761
  1273.0000     15.6524    -12.4577     14.7712     98.6952
  1273.2500     15.7510    -11.8048     14.6619     98.6948
  1273.5000     15.8605    -11.2470     14.5500     97.2097
  1273.7500     15.9596    -10.7413     14.4314     95.3881
  1274.0000     16.0367    -10.2644     14.3153     92.0833
  1274.2500     16.0888     -9.8101     14.2231     89.8565
  1274.5000     16.1472     -9.3909     14.1830     86.9268
  1274.7500     16.2828     -9.0253     14.2222     85.4675
  1275.0000     16.5699     -8.7180     14.3608     84.1651
  1275.2500     17.0181     -8.4551     14.6087     83.6847
  1275.5000     17.5422     -8.2215     14.9644     82.7759
  1275.7500     18.0254     -8.0143     15.4134     81.6141
  1276.0000     18.4176     -7.8320     15.9276     78.6968
  1276.2500     18.7503     -7.6587     16.4665     76.0028
  1276.5000     19.0610     -7.4701     16.9848     71.2396
  1276.7500     19.3615     -7.2556     17.4436     68.0555
  1277.0000     19.6806     -7.0286     17.8208     64.3293
  1277.2500     20.0734     -6.8168     18.1130     62.9969
  1277.5000     20.5781     -6.6473     18.3314     62.7467
  1277.7500     21.1748     -6.5368     18.4948     63.4057
  1278.0000     21.7729     -6.4894     18.6256     64.9824
  1278.2500     22.2494     -6.4992     18.7452     66.1664
  1278.5000     22.5095     -6.5519     18.8666     67.8749
  1278.7500     22.5287     -6.6186     18.9870     68.8607
  1279.0000     22.3541     -6.6533     19.0837     70.0511
  1279.2500     22.0643     -6.6105     19.1203     70.7394
  1279.5000     21.7255     -6.4792     19.0639     71.8880
  1279.7500     21.3763     -6.3007     18.9022     72.8359
  1280.0000     21.0293     -6.1423     18.6512     74.5736
  1280.2500     20.6699     -6.0437     18.3469     75.9871
  1280.5000     20.2697     -5.9933     18.0275     78.5744
  1280.7500     19.8215     -5.9612     17.7208     80.4822
  1281.0000     19.3495     -5.9402     17.4414     83.1707
  1281.2500     18.8821     -5.9396     17.1950     84.7984
  1281.5000     18.4396     -5.9541     16.9828     87.5029
  1281.7500     18.0371     -5.9570     16.8009     89.6927
  1282.0000     17.6830     -5.9210     16.6384     92.8853
  1282.2500     17.3599     -5.8381     16.4778     94.1348
  1282.5000     17.0212     -5.7219     16.3022     93.9243
  1282.7500     16.6466     -5.5918     16.1019     92.7602
  1283.0000     16.2889     -5.4553     15.8766     90.7434
  1283.2500     16.0406     -5.3082     15.6308     89.6110
  1283.5000     15.9706     -5.1526     15.3681     88.0878
  1283.7500     16.0766     -5.0090     15.0887     87.0985
  1284.0000     16.2711     -4.9103     14.7894     85.9799
  1284.2500     16.4315     -4.8858     14.4667     85.6676
  1284.5000     16.4706     -4.9535     14.1194     85.6257
  1284.7500     16.3426     -5.1271     13.7530     85.6441
  1285.0000     16.0343     -5.4279     13.3805     85.9750
  1285.2500     15.5911     -5.8888     13.0210     87.0119
  1285.5000     15.1067     -6.5454     12.6958     90.9442
  1285.7500     14.6564     -7.4215     12.4234     95.3691
  1286.0000     14.2570     -8.5088     12.2143    103.7865
  1286.2500     13.8781     -9.7234     12.0678    109.3963
