~Version Information
VERS.                      2.0: CWLS Log ASCII Standard - VERSION 2.0
WRAP.                       NO: One line per depth step
~Well Information Block
STRT.FT                 0.7500: 
STOP.FT              2144.0000: 
STEP.FT                 0.2500: 
NULL.                -999.2500: 
COMP.          Petrogulf Corporation: COMPANY
WELL.            Montoya 1-44R: WELL
FLD.           Purgatorie River: FIELD
LOC.           658' FSL & 1052' FWL: LOCATION
CNTY.               Las Animas: COUNTY
SRVC.                         : SERVICE COMPANY
DATE.          Tue Nov 30 08:31:55 2004: LOG DATE
UWI.           05 071 08239 00: UNIQUE WELL ID
STAT.                 Colorado: STATE
~Curve Information Block
DEPT.FT            0 000 00 00: Depth
TT3.usec                      : CBL 3' Travel Time
AMP3.mV                       : CBL 3' Amplitude
GR.GAPI                       : Gamma Ray
CCL.                          : Casing Collar Locator
~Parameter Information Block
~A  Depth       TT3         AMP3         GR         CCL     
# ...
   704.2500    602.1312     15.4793    103.0436      0.0000
   704.5000    717.9871     15.0151    103.6298      0.0000
   704.7500    813.0725     14.7834    104.1572      0.0000
   705.0000    867.7168     14.6992    104.3265      0.0000
   705.2500    882.7801     14.7078    103.8762      0.0000
   705.5000    872.4138     14.7718    102.7101     -3.0000
   705.7500    849.8632     14.8381    100.9111      3.0000
   706.0000    819.3723     14.8621     98.5612      3.0000
   706.2500    777.9463     14.8644     95.6014      0.0000
   706.5000    722.4787     14.9566     92.0079      0.0000
   706.7500    654.8982     15.2813     88.1555      0.0000
   707.0000    582.8484     15.8643     84.9691      0.0000
   707.2500    519.9354     16.5195     83.6067      0.0000
   707.5000    485.1198     16.9684     84.8279      0.0000
   707.7500    494.6630     17.0637     88.4902      0.0000
   708.0000    548.9982     16.8675     93.5439      0.0000
   708.2500    628.4361     16.5496     98.6032      0.0000
   708.5000    704.8884     16.2665    102.7581      0.0000
   708.7500    759.2670     16.1005    106.0886      0.0000
   709.0000    788.7735     16.0509    109.4765      0.0000
   709.2500    801.0327     16.0657    113.8232      0.0000
   709.5000    804.8530     16.0845    119.2983      0.0000
   709.7500    805.6370     16.0654    125.1829      0.0000
   710.0000    805.6417     15.9944    130.3638      0.0000
   710.2500    805.5577     15.8868    134.0421      0.0000
   710.5000    805.5702     15.7691    136.1733      0.0000
   710.7500    805.7368     15.6501    137.3779      0.0000
   711.0000    805.9920     15.5145    138.4530      0.0000
   711.2500    806.1718     15.3458    139.8669      0.0000
   711.5000    806.1223     15.1502    141.5788      0.0000
   711.7500    805.8196     14.9550    143.2278      0.0000
   712.0000    805.3696     14.7875    144.4818      0.0000
   712.2500    804.9167     14.6572    145.3200      0.0000
   712.5000    804.5687     14.5468    146.1502      0.0000
   712.7500    804.3787     14.4204    147.7080      0.0000
   713.0000    804.3455     14.2506    150.6908      0.0000
   713.2500    804.4147     14.0464    155.2965      0.0000
   713.5000    804.4962     13.8473    160.9828      0.0000
   713.7500    804.4769     13.6785    166.6732      0.0000
   714.0000    804.1647     13.5201    171.2160      0.0000
   714.2500    803.1649     13.3308    173.7927      0.0000
   714.5000    800.8742     13.0963    174.1207      0.0000
   714.7500    796.9033     12.8433    172.4565      0.0000
   715.0000    791.7627     12.6097    169.4282      0.0000
   715.2500    786.9415     12.4127    165.7841      0.0000
   715.5000    783.8457     12.2442    162.2320      0.0000
   715.7500    782.6248     12.0870    159.4191      0.0000
   716.0000    782.3995     11.9339    157.9210      0.0000
   716.2500    782.6547     11.7932    158.0650      0.0000
   716.5000    784.0005     11.6789    159.6822      0.0000
   716.7500    787.2823     11.5956    162.0392      0.0000
   717.0000    792.0806     11.5338    164.0428      0.0000
   717.2500    796.4473     11.4796    164.6315      0.0000
   717.5000    798.2314     11.4301    163.1509      0.0000
   717.7500    796.6735     11.3951    159.5634      0.0000
   718.0000    793.0800     11.3829    154.4175      0.0000
   718.2500    790.1618     11.3865    148.6079      0.0000
   718.5000    790.1965     11.3914    143.0640      0.0000
   718.7500    793.3304     11.3972    138.5374      0.0000
   719.0000    797.7307     11.4185    135.5368      0.0000
   719.2500    801.3849     11.4571    134.3158      0.0000
   719.5000    803.4969     11.4842    134.7580      0.0000
   719.7500    804.3896     11.4729    136.2182      0.0000
   720.0000    804.6928     11.4497    137.6168      0.0000
   720.2500    804.8098     11.4915    137.9468      0.0000
   720.5000    804.8509     11.6494    136.9032      0.0000
   720.7500    804.7808     11.8828    135.0962      0.0000
   721.0000    804.5720     12.0771    133.6367      0.0000
   721.2500    804.2747     12.1262    133.4028      0.0000
   721.5000    803.9886     12.0031    134.5225      0.0000
   721.7500    803.7833     11.7711    136.3712      0.0000
   722.0000    803.6484     11.5405    137.9919      0.0000
   722.2500    803.5302     11.4056    138.6444      0.0000
   722.5000    803.3966     11.4029    138.1336      0.0000
   722.7500    803.2435     11.5241    136.7930      0.0000
   723.0000    803.0618     11.7626    135.1923      0.0000
   723.2500    802.8403     12.1304    133.7861      0.0000
   723.5000    802.6019     12.6232    132.6941      0.0000
   723.7500    802.4189     13.1844    131.7220      0.0000
   724.0000    802.3842     13.7262    130.5674      0.0000
   724.2500    802.5553     14.1889    129.0584      0.0000
   724.5000    802.9154     14.5775    127.2840      0.0000
   724.7500    803.3831     14.9386    125.5152      0.0000
   725.0000    803.8590     15.3038    124.0275      0.0000
   725.2500    804.2649     15.6600    122.9255      0.0000
   725.5000    804.5561     15.9556    122.1050      0.0000
   725.7500    804.7172     16.1244    121.3586      0.0000
   726.0000    804.7584     16.1186    120.5719      0.0000
   726.2500    804.7133     15.9445    119.8636      0.0000
   726.5000    804.6312     15.6642    119.5529      0.0000
   726.7500    804.5576     15.3449    119.9347      0.0000
   727.0000    804.5079     15.0087    121.0406      0.0000
   727.2500    804.4593     14.6362    122.5615      0.0000
   727.5000    804.3771     14.2157    123.9974      0.0000
   727.7500    804.2531     13.7775    124.9572      0.0000
   728.0000    804.0785     13.3793    125.3683      0.0000
   728.2500    803.7324     13.0642    125.4611      0.0000
   728.5000    802.8643     12.8323    125.5619      0.0000
   728.7500    801.0136     12.6492    125.8808      0.0000
   729.0000    798.1271     12.4755    126.3863      0.0000
   729.2500    795.0668     12.2950    126.7862      0.0000
   729.5000    793.2754     12.1249    126.5627      0.0000
   729.7500    793.5779     12.0033    125.1072      0.0000
   730.0000    795.4357     11.9622    122.0207      0.0000
   730.2500    797.5696     12.0074    117.4282      0.0000
   730.5000    799.0870     12.1179    112.0563      0.0000
   730.7500    799.8608     12.2679    106.8967      0.0000
   731.0000    800.1711     12.4609    102.6705      0.0000
   731.2500    800.3170     12.7406     99.5046      0.0000
   731.5000    800.4738     13.1499     97.0630      0.0000
   731.7500    800.6871     13.6702     94.9395      0.0000
   732.0000    800.9326     14.2201     92.9110      0.0000
   732.2500    801.2475     14.7232     90.8710      0.0000
   732.5000    801.8157     15.1671     88.7228      0.0000
   732.7500    802.9494     15.5840     86.5090      0.0000
   733.0000    804.9261     15.9812     84.6362      0.0000
   733.2500    807.6220     16.3028     83.8614      0.0000
   733.5000    810.1699     16.4645     84.8969      0.0000
   733.7500    811.3338     16.4324     87.9275      0.0000
   734.0000    810.6561     16.2595     92.3994      0.0000
   734.2500    809.1349     16.0368     97.1957      0.0000
   734.5000    808.4088     15.8166    101.0304      0.0000
   734.7500    809.2198     15.5936    102.8476      0.0000
   735.0000    810.7147     15.3481    102.1175      0.0000
   735.2500    811.2535     15.0814     98.9854      0.0000
   735.5000    809.9628     14.8098     94.2080      0.0000
   735.7500    807.4670     14.5452     88.8461      0.0000
   736.0000    805.1014     14.2873     83.8364      0.0000
   736.2500    803.6990     14.0277     79.6862      0.0000
   736.5000    803.2385     13.7639     76.5078      0.0000
   736.7500    803.2910     13.5169     74.3641      0.0000
   737.0000    803.4476     13.3208     73.6218      0.0000
   737.2500    803.3940     13.1825     74.9434      0.0000
   737.5000    802.8001     13.0562     78.8713      0.0000
