~Version Information
VERS.                      2.0: CWLS Log ASCII Standard - VERSION 2.0
WRAP.                       NO: One line per depth step
~Well Information Block
STRT.FT                15.0000: 
STOP.FT              1869.0000: 
STEP.FT                 0.2500: 
NULL.                -999.2500: 
COMP.          Pioneer Natural Resources: COMPANY
WELL.          Victory 12-14 Tr: WELL
FLD.           Purgatoire River: FIELD
LOC.           2522' FNL & 276' FWL: LOCATION
PROV.                 Colorado: PROVINCE
CNTY.               Las Animas: COUNTRY
SRVC.                Patterson: SERVICE COMPANY
DATE.          Fri Jul 22 14:39:41 2005: LOG DATE
UWI.           05 071 08433 00: UNIQUE WELL ID
~Curve Information Block
DEPT.FT            0 000 00 00: Depth
GR.GAPI                       : Gamma Ray
CCL.                          : Casing Collar Locator
TT3.usec                      : CBL 3' Travel Time
AMP3.mV                       : CBL 3' Amplitude
~Parameter Information Block
~A  Depth        GR         CCL         TT3         AMP3    
# ...
   484.0000     71.5719      0.0000    788.2991     13.9692
   484.2500     73.3881      0.0000    774.9968     13.0680
   484.5000     74.3292      0.0000    783.9855     12.3750
   484.7500     74.4299      0.0000    813.6448     11.8489
   485.0000     74.2764      0.0000    849.7795     11.4760
   485.2500     74.4125      0.0000    876.4755     11.2262
   485.5000     75.2300      3.0000    886.2738     11.0439
   485.7500     77.0651      0.0000    880.0880     10.8938
   486.0000     79.8683      0.0000    860.8551     10.8149
   486.2500     82.7789      0.0000    830.5879     10.9456
   486.5000     84.5049      0.0000    794.4035     11.4601
   486.7500     84.3793      0.0000    765.3793     12.4074
   487.0000     82.9241      0.0000    759.8290     13.6112
   487.2500     81.3062      0.0000    783.9810     14.7837
   487.5000     80.3887      0.0000    827.8611     15.7277
   487.7500     80.3082      0.0000    875.0248     16.3969
   488.0000     80.7087      0.0000    915.1551     16.8235
   488.2500     81.1933      0.0000    945.8726     17.0662
   488.5000     81.4908      0.0000    967.6604     17.2070
   488.7500     81.1667      0.0000    981.2462     17.3296
   489.0000     79.4729      0.0000    988.0314     17.4776
   489.2500     75.9698      0.0000    989.8087     17.6400
   489.5000     71.3692      0.0000    987.1739     17.7824
   489.7500     67.3936      0.0000    978.6583     17.8872
   490.0000     65.5696      0.0000    961.8336     17.9699
   490.2500     66.1564      0.0000    936.2518     18.0630
   490.5000     68.1550      0.0000    905.6743     18.1882
   490.7500     70.1042      0.0000    876.8019     18.3455
   491.0000     70.9149      0.0000    855.1187     18.5238
   491.2500     70.4509      0.0000    841.9645     18.7143
   491.5000     69.6110      0.0000    835.2515     18.9087
   491.7500     69.4812      0.0000    832.0758     19.0980
   492.0000     70.1193      0.0000    830.4590     19.2878
   492.2500     70.5203      0.0000    829.5675     19.5105
   492.5000     69.9534      0.0000    829.3359     19.8024
   492.7500     68.9442      0.0000    830.2174     20.1620
   493.0000     68.6628      0.0000    833.0146     20.5360
   493.2500     69.5722      0.0000    838.2824     20.8479
   493.5000     70.9509      0.0000    845.2039     21.0371
   493.7500     71.6224      0.0000    851.1689     21.0776
   494.0000     70.8895      0.0000    853.5269     20.9712
   494.2500     68.8183      0.0000    852.3859     20.7334
   494.5000     66.0434      0.0000    850.9692     20.3908
   494.7500     63.5529      0.0000    852.5345     19.9891
   495.0000     62.4670      0.0000    857.3590     19.5908
   495.2500     63.5014      0.0000    863.1188     19.2481
   495.5000     66.2757      0.0000    867.6046     18.9730
   495.7500     69.2807      0.0000    870.7245     18.7389
   496.0000     70.9255      0.0000    874.5124     18.5136
   496.2500     70.7533      0.0000    881.5774     18.2862
   496.5000     69.6347      0.0000    892.4650     18.0613
   496.7500     68.9366      0.0000    903.4256     17.8376
   497.0000     69.5860      0.0000    907.6100     17.6061
   497.2500     71.6495      0.0000    900.2744     17.3695
   497.5000     74.3948      0.0000    883.2772     17.1532
   497.7500     76.6608      0.0000    863.7312     16.9877
   498.0000     77.4053      0.0000    848.2750     16.8783
   498.2500     76.2287      0.0000    839.1382     16.7964
   498.5000     73.6246      0.0000    834.8599     16.7054
   498.7500     70.8134      0.0000    833.0659     16.5948
   499.0000     69.1521      0.0000    832.1661     16.4831
   499.2500     69.3088      0.0000    831.5128     16.3901
   499.5000     70.7974      0.0000    830.9638     16.3157
   499.7500     72.3659      0.0000    830.5349     16.2476
   500.0000     72.8995      0.0000    830.2358     16.1831
   500.2500     72.0328      0.0000    830.0530     16.1326
   500.5000     70.0982      0.0000    829.9744     16.0992
   500.7500     67.5873      0.0000    830.0043     16.0631
   501.0000     64.7548      0.0000    830.1315     15.9918
   501.2500     61.9107      0.0000    830.2595     15.8674
   501.5000     59.9275      0.0000    830.1204     15.7019
   501.7500     59.9174      0.0000    829.1650     15.5315
   502.0000     62.2320      0.0000    826.5743     15.4022
   502.2500     66.0331      0.0000    821.7368     15.3559
   502.5000     69.8580      0.0000    815.2200     15.4126
   502.7500     72.5202      0.0000    809.3423     15.5548
   503.0000     73.6825      0.0000    807.2003     15.7290
   503.2500     73.8044      0.0000    810.5284     15.8715
   503.5000     73.5400      0.0000    818.3477     15.9415
   503.7500     73.1606      0.0000    827.6409     15.9389
   504.0000     72.5091      0.0000    835.1587     15.8989
   504.2500     71.3360      0.0000    838.8504     15.8678
   504.5000     69.6348      0.0000    838.5049     15.8740
   504.7500     67.8785      0.0000    835.7729     15.9117
   505.0000     67.0393      0.0000    833.8605     15.9506
   505.2500     68.0686      0.0000    836.6956     15.9595
   505.5000     70.9890      0.0000    846.8868     15.9245
   505.7500     74.6143      0.0000    862.9122     15.8508
   506.0000     77.5573      0.0000    878.5656     15.7584
   506.2500     79.5098      0.0000    886.5907     15.6817
   506.5000     81.2454      0.0000    883.7938     15.6595
   506.7500     83.3128      0.0000    873.3550     15.7114
   507.0000     84.9765      0.0000    863.1155     15.8198
   507.2500     84.7133      0.0000    861.5058     15.9404
   507.5000     81.8260      0.0000    873.2933     16.0266
   507.7500     77.4078      0.0000    896.6814     16.0455
   508.0000     73.5745      0.0000    923.0380     15.9880
   508.2500     71.7419      0.0000    940.5213     15.8806
   508.5000     71.6616      0.0000    940.5217     15.7797
   508.7500     72.0379      0.0000    922.7220     15.7387
   509.0000     71.9667      0.0000    894.9584     15.7738
   509.2500     71.7060      0.0000    867.8458     15.8635
   509.5000     72.1129      0.0000    848.4789     15.9743
   509.7500     73.5753      0.0000    838.0395     16.0832
   510.0000     75.6896      0.0000    834.0273     16.1833
   510.2500     77.8925      0.0000    833.7549     16.2754
   510.5000     80.2914      0.0000    836.1360     16.3561
   510.7500     83.8497      0.0000    841.3422     16.4167
   511.0000     89.6818      0.0000    849.3383     16.4550
   511.2500     98.0327      0.0000    858.5781     16.4870
   511.5000    107.9213      0.0000    866.1480     16.5381
   511.7500    117.7676      0.0000    869.6445     16.6208
   512.0000    126.1295      0.0000    869.1710     16.7263
   512.2500    131.7962      0.0000    867.2554     16.8370
   512.5000    133.8521      0.0000    866.5745     16.9439
   512.7500    132.2140      0.0000    868.0009     17.0502
   513.0000    127.8498      0.0000    870.7438     17.1651
   513.2500    122.2774      0.0000    873.4335     17.2920
   513.5000    116.9805      0.0000    874.6862     17.4207
   513.7500    112.9807      0.0000    873.7528     17.5318
   514.0000    110.4848      0.0000    871.7737     17.6110
   514.2500    108.9120      0.0000    871.9951     17.6581
   514.5000    107.3596      0.0000    877.3650     17.6828
   514.7500    105.1002      0.0000    887.2170     17.6982
   515.0000    101.8795      0.0000    896.6536     17.7163
   515.2500     97.8953      0.0000    900.0273     17.7465
   515.5000     93.4620      0.0000    895.5938     17.7950
   515.7500     88.7665      0.0000    886.6151     17.8619
   516.0000     83.9196      0.0000    877.9536     17.9406
   516.2500     78.9897      0.0000    872.2270     18.0185
   516.5000     73.9859      0.0000    869.0253     18.0847
   516.7500     69.0935      0.0000    866.4749     18.1341
   517.0000     64.8739      0.0000    862.8503     18.1618
   517.2500     61.9644      0.0000    857.2836     18.1597
