~Version Information
 VERS.                                  2.0 : CWLS LAS VERSION
 WRAP.                                   NO : WRAPING MODE
 SWARE .                 MController 2.5.0J : SOFTWARE VERSION
~Well Information
 WELL.                       Vision 31-11Tr : WELL
 COMP.    Pioneer Natural Resources USA Inc : COMPANY
 FLD.                      Purgatoire River : FIELD
 LOC.                 NW/NE SEC11 T32S R66W : LOCATION
 DATE.                             10/07/05 : DATE(S) LOGGED
 SRVC.       Blanco Geological Services LLC : SERVICE COMPANY
 STAT.                             Colorado : STATE
 CNTY.                           Las Animas : COUNTY
 CTRY.                                  USA : COUNTRY
 API.                       05-071-08305-00 : API NUMBER
 STRT.FT                             408.00 : START DEPTH
 STOP.FT                            1824.00 : STOP DEPTH
 STEP.FT                               1.00 : DEPTH INCREMENT
 NULL.                                -9999 : NULL VALUE
~Curve information
 DEPTH.FT                                   :
 ROP.MIN/FT                                 :
 GAS.UNITS                                  :
~ASCII Log data
       408.0     -9999.00          0.4 
       409.0         3.28          1.4 
       410.0         1.17          1.1 
       411.0        11.48          1.5 
       412.0         2.75          1.2 
       413.0         1.02          1.9 
       414.0         0.23          1.3 
       415.0         0.97          0.9 
       416.0         0.20          0.5 
       417.0         0.80          0.7 
       418.0         1.02          0.5 
       419.0         1.03          0.9 
       420.0         0.20          0.8 
       421.0         0.77          0.7 
       422.0         0.27          0.7 
       423.0         0.80          0.9 
       424.0         0.22          1.1 
       425.0         0.73          1.2 
       426.0         0.23          1.0 
       427.0         0.73          1.5 
       428.0         0.20          1.3 
       429.0         0.77          1.7 
       430.0         0.23          2.3 
       431.0         0.78          1.7 
       432.0         1.07          2.1 
       433.0         0.10          1.9 
       434.0         5.30          3.4 
       435.0         0.33         48.3 
       436.0         1.50         57.0 
       437.0         1.13          4.8 
       438.0         0.10          2.1 
       439.0         0.28          1.8 
       440.0         0.17          1.7 
       441.0         0.13          1.7 
       442.0         0.10          1.8 
       443.0         0.37          1.8 
       444.0         0.07          1.8 
       445.0         0.13          1.8 
       446.0         0.23          1.5 
       447.0         0.33          2.1 
       448.0         0.17          2.0 
       449.0         0.10          2.5 
       450.0         0.27          2.5 
       451.0         0.27          2.2 
       452.0         0.13          2.2 
       453.0         0.27          2.8 
       454.0         0.23          2.8 
       455.0         0.32          3.3 
       456.0         0.17          3.4 
       457.0         0.07          3.4 
       458.0         0.27          3.9 
       459.0         0.27          3.8 
       460.0         0.27          3.6 
       461.0         0.27          3.6 
       462.0         0.10          3.6 
       463.0         0.23          3.7 
       464.0         0.17          4.1 
       465.0         0.17          3.6 
       466.0         0.17          3.6 
       467.0         0.17          3.5 
       468.0         0.13          3.5 
       469.0         0.13          3.9 
       470.0         0.10          3.9 
       471.0         0.27          3.5 
       472.0         0.28          3.5 
       473.0         0.27          3.7 
       474.0         0.27          3.9 
       475.0         0.20          4.1 
       476.0         0.27          4.2 
       477.0         0.30          4.2 
       478.0         0.27          4.3 
       479.0         0.27          4.2 
       480.0         0.27          4.4 
       481.0         0.27          4.3 
       482.0         0.20          4.3 
       483.0         0.27          4.2 
       484.0         0.13          3.9 
       485.0         0.13          3.9 
       486.0         0.13          3.9 
       487.0         0.15          3.8 
       488.0         0.17          3.9 
       489.0         0.17          4.0 
       490.0         0.13          3.5 
       491.0         0.17          3.7 
       492.0         0.17          4.0 
       493.0         0.17          3.5 
       494.0         0.13          3.9 
       495.0         0.17          3.9 
       496.0         0.13          3.6 
       497.0         0.13          3.6 
       498.0         0.23          3.7 
       499.0         0.13          3.8 
       500.0         0.20          3.8 
       501.0         0.10          4.0 
       502.0         0.13          3.7 
       503.0         0.30          4.0 
       504.0         0.13          3.8 
       505.0         0.27          4.0 
       506.0         1.15          4.2 
       507.0         0.27          4.4 
       508.0         0.27          4.3 
       509.0         0.13          4.3 
       510.0         0.17          3.9 
       511.0         0.17          4.3 
       512.0         0.17          4.1 
       513.0         0.17          4.3 
       514.0         0.13          4.0 
       515.0         0.47          4.0 
       516.0         0.13          3.9 
       517.0         0.13          3.9 
       518.0         0.13          4.2 
       519.0         0.18          4.4 
       520.0         0.17          4.4 
       521.0         0.13          4.3 
       522.0         0.13          4.3 
       523.0         0.13          4.3 
       524.0         0.13          4.3 
       525.0         0.10          4.5 
       526.0         0.10          4.5 
       527.0         0.13          4.2 
       528.0         0.13          4.5 
       529.0         0.13          4.5 
       530.0         0.13          4.3 
       531.0         1.27          4.6 
       532.0         0.37          4.5 
       533.0         0.55          4.3 
       534.0         0.53          4.6 
       535.0         0.30          4.3 
       536.0         1.27          4.6 
       537.0         0.30          4.4 
       538.0         0.62          4.4 
       539.0         0.53          4.1 
       540.0         0.47          4.3 
       541.0         0.50          4.3 
       542.0         0.53          4.5 
       543.0         0.60          4.5 
       544.0         0.67          4.3 
       545.0         0.72          4.1 
       546.0         0.67          4.0 
       547.0         0.50          4.1 
       548.0         0.63          4.2 
       549.0         0.63          4.2 
       550.0         0.28          4.1 
       551.0         0.47          4.3 
       552.0         0.27          4.1 
       553.0         0.53          4.2 
       554.0         0.30          4.2 
       555.0         0.27          4.2 
       556.0         0.27          3.9 
       557.0         0.47          4.0 
       558.0         0.70          4.0 
       559.0         0.55          4.1 
       560.0         0.27          3.8 
       561.0         0.37          4.3 
       562.0         0.17          4.2 
       563.0         0.20          4.3 
       564.0         0.53          4.7 
       565.0         0.77          4.5 
       566.0         9.05          6.5 
       567.0         0.13          4.8 
       568.0         0.13          4.8 
       569.0         0.37          4.8 
       570.0         0.33          4.9 
       571.0         0.37          6.9 
       572.0         0.35          7.6 
       573.0         0.23          7.3 
       574.0         0.17          6.7 
       575.0         0.20          6.3 
       576.0         0.23          5.4 
       577.0         0.17          5.4 
       578.0         0.13          5.1 
       579.0         0.17          4.6 
       580.0         0.23          4.6 
       581.0         0.20          4.6 
       582.0         0.20          4.7 
       583.0         0.23          4.3 
       584.0         0.20          4.7 
       585.0         0.20          4.4 
       586.0         0.23          4.8 
       587.0         0.20          4.8 
       588.0         0.25          4.8 
       589.0         0.23          5.1 
       590.0         0.20          5.1 
       591.0         0.20          5.5 
       592.0         0.23          5.5 
       593.0         0.20          5.5 
       594.0         0.23          5.0 
       595.0         0.20          4.9 
       596.0         1.33          5.2 
       597.0         0.43          5.1 
       598.0         0.32          4.9 
       599.0         0.27          5.4 
       600.0         0.27          5.0 
       601.0         0.23          4.8 
       602.0         0.20          5.1 
       603.0         0.17          4.7 
       604.0         0.20          4.8 
       605.0         0.20          5.2 
       606.0         0.17          5.2 
       607.0         0.17          4.6 
