~Version Information
VERS.                      2.0: CWLS Log ASCII Standard - VERSION 2.0
WRAP.                       NO: One line per depth step
~Well Information Block
STRT.FT               453.5000: 
STOP.FT              1386.0000: 
STEP.FT                 0.1000: 
NULL.                -999.2500: 
COMP.          Petrogulf Corporation: COMPANY
WELL.          Great Plains 22-22R: WELL
FLD.           Purgatoire River: FIELD
LOC.           2042' FNL & 1657' FWL--: LOCATION
PROV.                 Colorado: PROVINCE
CNTY.               Las Animas: COUNTRY
SRVC.                Patterson: SERVICE COMPANY
DATE.          Fri Sep 09 14:42:42 2005: LOG DATE
UWI.           05 071 08028 00: UNIQUE WELL ID
~Curve Information Block
DEPT.FT            0 000 00 00: Depth
DCAL.in                       : CDL Caliper
RHOB.g/cc                     : CDL Bulk Density
RHOC.g/cc                     : CDL Density Correction
DPOR.pu                       : CDL Density Porosity
NPOR.pu                       : Neutron Porosity
GR.GAPI                       : Gamma Ray
~Parameter Information Block
~A  Depth       DCAL        RHOB        RHOC        DPOR        NPOR         GR     
# ...
   827.9000      8.1376      2.5816      0.0000      4.1452     25.0858    118.4798
   828.0000      8.1295      2.5885      0.0349      3.7299     25.3553    121.9855
   828.1000      8.1295      2.5988      0.0485      3.1030     25.5430    119.4810
   828.2000      8.1295      2.5992      0.0385      3.0799     25.7133    114.2186
   828.3000      8.1323      2.5859      0.0214      3.8820     25.7107    113.5730
   828.4000      8.1323      2.5711     -0.0053      4.7817     25.3922    115.4837
   828.5000      8.1366      2.5710      0.0092      4.7874     25.2497    115.7407
   828.6000      8.1366      2.5864      0.0232      3.8568     25.4912    114.8986
   828.7000      8.1366      2.6031      0.0379      2.8396     25.5636    114.0156
   828.8000      8.1408      2.6085      0.0600      2.5164     25.2974    114.7291
   828.9000      8.1408      2.6028      0.0026      2.8628     24.8854    117.5059
   829.0000      8.1442      2.5977      0.0561      3.1688     24.7111    119.7559
   829.1000      8.1442      2.5970      0.0415      3.2111     25.1206    123.8834
   829.2000      8.1442      2.5965      0.0273      3.2452     25.6566    132.4266
   829.3000      8.1457      2.5959      0.0040      3.2770     25.8031    137.2182
   829.4000      8.1457      2.5949      0.0354      3.3424     25.8388    133.3907
   829.5000      8.1469      2.5857      0.0350      3.8963     26.0224    125.8911
   829.6000      8.1469      2.5662      0.0179      5.0770     26.0328    118.8147
   829.7000      8.1469      2.5504     -0.0165      6.0368     25.6772    114.6884
   829.8000      8.1445      2.5521      0.0248      5.9362     25.2913    118.5387
   829.9000      8.1445      2.5669      0.0170      5.0387     25.0948    129.9408
   830.0000      8.1429      2.5821      0.0072      4.1174     25.0721    137.7183
   830.1000      8.1429      2.5868      0.0131      3.8294     25.1505    133.6221
   830.2000      8.1429      2.5790      0.0008      4.3035     25.0151    124.6962
   830.3000      8.1442      2.5710     -0.0056      4.7908     24.9620    121.8647
   830.4000      8.1442      2.5729     -0.0008      4.6711     25.6519    124.6405
   830.5000      8.1439      2.5779      0.0031      4.3711     26.7440    127.2995
   830.6000      8.1439      2.5719      0.0463      4.7345     27.4757    130.0656
   830.7000      8.1439      2.5553     -0.0118      5.7413     27.6364    131.9992
   830.8000      8.1444      2.5428     -0.0121      6.4945     27.4719    130.8385
   830.9000      8.1444      2.5394     -0.0125      6.7039     27.1693    132.2944
   831.0000      8.1489      2.5451      0.0007      6.3566     27.0152    138.4876
   831.1000      8.1489      2.5607      0.0258      5.4107     27.5714    139.9464
   831.2000      8.1489      2.5738      0.0266      4.6176     28.4648    136.1890
   831.3000      8.1563      2.5733      0.0120      4.6474     28.5162    137.8379
   831.4000      8.1563      2.5623      0.0273      5.3129     27.8248    143.8487
   831.5000      8.1624      2.5469      0.0211      6.2507     27.3311    142.6213
   831.6000      8.1624      2.5375     -0.0305      6.8195     26.9944    133.4962
   831.7000      8.1624      2.5460     -0.0146      6.3018     26.4296    126.3908
   831.8000      8.1630      2.5687      0.0151      4.9287     25.7666    128.0096
   831.9000      8.1630      2.5892      0.0182      3.6841     25.3484    138.0439
   832.0000      8.1592      2.5944      0.0171      3.3685     25.2473    147.0401
   832.1000      8.1592      2.5909      0.0135      3.5808     25.3572    142.9511
   832.2000      8.1592      2.6034     -0.0015      2.8217     25.6598    128.5792
   832.3000      8.1545      2.6371      0.0507      0.7843     25.8489    120.2718
   832.4000      8.1545      2.6632      0.0848     -0.8002     25.3206    121.5714
   832.5000      8.1475      2.6660      0.0333     -0.9686     24.4418    123.5482
   832.6000      8.1475      2.6633      0.0446     -0.8044     24.2429    123.4869
   832.7000      8.1475      2.6650      0.0914     -0.9072     24.3443    119.4440
   832.8000      8.1354      2.6634      0.0307     -0.8094     24.0655    108.6359
   832.9000      8.1354      2.6580      0.0173     -0.4873     23.8737     97.3699
   833.0000      8.1185      2.6443      0.0361      0.3458     24.0983     92.8425
   833.1000      8.1185      2.6185     -0.0385      1.9113     24.4403     92.3454
   833.2000      8.1185      2.5967     -0.0573      3.2306     24.4023     91.9353
   833.3000      8.0916      2.5893     -0.0424      3.6815     23.8329     94.3466
   833.4000      8.0916      2.5922     -0.0505      3.5024     23.0886     99.6901
   833.5000      8.0562      2.5969      0.0239      3.2182     22.3268    101.3872
   833.6000      8.0562      2.5939     -0.0067      3.3999     21.4615     96.9171
   833.7000      8.0562      2.5889      0.0241      3.7053     20.9848     91.2261
   833.8000      8.0235      2.5958      0.0191      3.2833     21.6565     90.1633
   833.9000      8.0235      2.6141      0.0839      2.1731     23.2511     93.3531
   834.0000      8.0000      2.6345      0.0548      0.9386     24.6068     96.0410
   834.1000      8.0000      2.6595      0.0385     -0.5742     24.9308     95.7752
   834.2000      8.0000      2.6880      0.0506     -2.3045     24.6637     94.3525
   834.3000      7.9842      2.7066      0.0488     -3.4296     24.5049     96.1134
   834.4000      7.9842      2.7063      0.0850     -3.4091     24.3708     99.4032
   834.5000      7.9712      2.6909      0.0132     -2.4771     24.0712     98.1960
   834.6000      7.9712      2.6653     -0.0041     -0.9299     23.8047     93.4723
   834.7000      7.9712      2.6327     -0.0520      1.0498     23.8972     90.2676
   834.8000      7.9611      2.6173     -0.1278      1.9800     24.1945     87.7961
   834.9000      7.9611      2.6331     -0.0295      1.0217     24.1470     85.0328
   835.0000      7.9511      2.6504     -0.0404     -0.0255     23.9028     87.0286
   835.1000      7.9511      2.6498     -0.0760      0.0128     23.9484     93.8685
   835.2000      7.9511      2.6415     -0.0041      0.5151     24.1398     96.9922
   835.3000      7.9429      2.6300      0.0122      1.2134     24.0996     93.2269
   835.4000      7.9429      2.6193     -0.0061      1.8579     23.8026     88.7964
   835.5000      7.9392      2.6210     -0.0114      1.7595     23.6038     88.3217
   835.6000      7.9392      2.6366      0.0064      0.8125     23.5433     91.2225
   835.7000      7.9392      2.6515      0.0623     -0.0909     23.2211     95.0323
   835.8000      7.9369      2.6512      0.0233     -0.0748     22.6726     97.3205
   835.9000      7.9369      2.6385      0.0294      0.6949     22.3811     99.0051
   836.0000      7.9351      2.6274      0.0194      1.3720     22.3237    100.2166
   836.1000      7.9351      2.6294      0.0177      1.2477     22.0741     96.7292
   836.2000      7.9351      2.6467      0.0237      0.1998     21.3243     90.6080
   836.3000      7.9357      2.6630      0.0886     -0.7883     20.2349     85.6194
   836.4000      7.9357      2.6550      0.0539     -0.3045     19.4059     79.2995
   836.5000      7.9312      2.6320      0.0005      1.0890     19.2436     72.8668
   836.6000      7.9312      2.6204      0.0214      1.7946     19.4513     69.6825
   836.7000      7.9312      2.6235      0.0211      1.6084     19.3388     69.6970
   836.8000      7.9178      2.6350      0.0087      0.9092     18.7149     71.3636
   836.9000      7.9178      2.6497      0.0442      0.0186     17.8434     73.1998
   837.0000      7.9112      2.6597      0.0254     -0.5904     17.1451     75.3148
   837.1000      7.9112      2.6652      0.0153     -0.9234     16.9995     76.3345
   837.2000      7.9112      2.6694      0.0350     -1.1763     17.0521     74.5340
   837.3000      7.9254      2.6697      0.0511     -1.1915     16.6763     69.7629
   837.4000      7.9254      2.6636      0.0299     -0.8241     16.1252     62.6276
