~Version Information
VERS.                      2.0: CWLS Log ASCII Standard - VERSION 2.0
WRAP.                       NO: One line per depth step
~Well Information Block
STRT.FT               -12.5000: 
STOP.FT              1647.5000: 
STEP.FT                 0.2500: 
NULL.                -999.2500: 
COMP.          Pioneer Natural Resources: COMPANY
WELL.            Harlee L 34-9: WELL
FLD.           Purgatorie River`: FIELD
LOC.           600' FSL & 2125' FEL----: LOCATION
PROV.                       CO: PROVINCE
CNTY.               Las Animas: COUNTRY
SRVC.                Patterson: SERVICE COMPANY
DATE.          Sat Feb 12 09:31:33 2005: LOG DATE
UWI.           05 071 08009 00: UNIQUE WELL ID
~Curve Information Block
DEPT.FT            0 000 00 00: Depth
CCL.                          : Casing Collar Locator
TT3.usec                      : CBL 3' Travel Time
AMP3.mV                       : CBL 3' Amplitude
AMP5.mV                       : CBL 5' Amplitude
GR.GAPI                       : Gamma Ray
~Parameter Information Block
~A  Depth       CCL         TT3         AMP3        AMP5         GR     
# ...
  1275.5000      0.0000    667.0558      1.8509      0.3192    140.8808
  1275.7500      2.3364    662.3827      1.8340      0.1665    141.4841
  1276.0000      0.0000    654.0024      1.8204      0.2429    143.3233
  1276.2500      0.0000    642.1110      1.8117      0.2811    146.8883
  1276.5000      0.0000    630.0825      1.8153      0.2047    151.5767
  1276.7500      0.0000    623.4600      1.8397      0.3574    156.2326
  1277.0000      0.0000    625.2341      1.8914      0.2429    159.5724
  1277.2500      0.0000    632.9842      1.9701      0.2047    160.4209
  1277.5000      0.0000    641.5822      2.0637      0.2429    158.5371
  1277.7500      0.0000    647.7935      2.1512      0.2429    155.2133
  1278.0000      0.0000    651.7320      2.2133      0.3192    152.1978
  1278.2500      0.0000    655.1853      2.2422      0.3574    149.9917
  1278.5000      0.0000    659.6002      2.2427      0.3956    147.9112
  1278.7500      0.0000    665.1046      2.2278      0.3574    145.8341
  1279.0000      0.0000    670.5182      2.2123      0.2811    145.0464
  1279.2500      0.0000    674.1541      2.2047      0.1283    147.0015
  1279.5000      0.0000    674.9537      2.2036      0.3192    151.6509
  1279.7500      0.0000    673.0454      2.2016      0.2429    157.0820
  1280.0000      0.0000    669.3776      2.1939      0.3956    160.6531
  1280.2500      0.0000    664.9786      2.1831      0.2811    160.7041
  1280.5000      0.0000    660.6386      2.1745      0.1283    157.4693
  1280.7500      0.0000    657.0217      2.1689      0.2047    152.5683
  1281.0000      0.0000    654.6885      2.1603      0.3192    147.7803
  1281.2500      0.0000    653.9464      2.1420      0.3574    143.8658
  1281.5000      0.0000    654.7594      2.1121      0.3192    139.9132
  1281.7500      0.0000    656.6690      2.0751      0.4720    134.1393
  1282.0000      0.0000    658.7534      2.0379      0.3956    126.0630
  1282.2500      0.0000    660.0491      2.0070      0.3574    117.6878
  1282.5000      0.0000    660.4483      1.9866      0.0901    111.9689
  1282.7500      0.0000    661.1181      1.9775      0.2047    110.2124
  1283.0000      0.0000    663.6744      1.9771      0.2047    111.2374
  1283.2500      0.0000    668.8344      1.9820      0.2429    112.9468
  1283.5000      0.0000    675.8045      1.9889      0.3192    114.4457
  1283.7500      0.0000    682.6260      1.9947      0.4720    116.4610
  1284.0000      0.0000    686.8467      1.9967      0.2811    119.8490
  1284.2500      0.0000    686.4448      1.9948      0.2047    123.9693
  1284.5000      0.0000    681.1658      1.9920      0.2811    126.8207
  1284.7500      0.0000    673.2126      1.9917      0.3574    126.7663
  1285.0000      0.0000    665.9470      1.9952      0.3574    124.0272
  1285.2500      0.0000    661.4279      2.0007      0.3192    120.4880
  1285.5000      0.0000    659.0934      2.0058      0.2047    118.0368
  1285.7500      0.0000    656.5714      2.0093      0.2811    117.0118
  1286.0000      0.0000    651.5894      2.0144      0.2429    116.1343
  1286.2500      0.0000    643.5028      2.0279      0.3192    113.7847
  1286.5000      0.0000    633.8221      2.0546      0.3192    109.4471
  1286.7500      0.0000    625.7635      2.0908      0.0901    104.2605
  1287.0000      0.0000    622.7241      2.1265      0.2429    100.2648
  1287.2500      0.0000    625.8955      2.1526      0.3192     98.7845
  1287.5000      0.0000    632.5857      2.1663      0.3574     99.3926
  1287.7500      0.0000    636.8771      2.1701      0.3574    100.5634
  1288.0000      0.0000    632.4315      2.1676      0.4338    101.1485
  1288.2500      0.0000    615.8502      2.1616      0.2811    100.9165
  1288.5000      0.0000    589.4690      2.1543      0.1665     99.9670
  1288.7500      0.0000    561.8121      2.1470      0.3192     98.1812
  1289.0000      0.0000    543.2864      2.1395      0.2811     95.4708
  1289.2500      0.0000    539.1061      2.1311      0.3574     92.3971
  1289.5000      0.0000    546.3011      2.1220      0.4338     90.2945
  1289.7500      0.0000    557.4855      2.1124      0.2811     90.5547
  1290.0000      0.0000    566.3326      2.1017      0.2429     93.5587
  1290.2500      0.0000    570.4114      2.0898      0.2047     98.1244
  1290.5000      0.0000    571.2490      2.0790      0.2811    102.0027
  1290.7500      0.0000    571.7491      2.0723      0.3192    103.2859
  1291.0000      0.0000    572.2852      2.0706      0.3192    101.7824
  1291.2500      0.0000    569.7435      2.0725      0.3956     99.1373
  1291.5000      0.0000    560.7267      2.0745      0.1283     97.4902
  1291.7500      0.0000    544.8215      2.0749      0.3192     97.9286
  1292.0000      0.0000    525.2576      2.0751      0.2429    100.0276
  1292.2500      0.0000    507.4987      2.0793      0.2811    102.5870
  1292.5000      0.0000    496.9034      2.0909      0.3574    104.5980
  1292.7500      0.0000    496.3047      2.1077      0.3956    105.4927
  1293.0000      0.0000    504.4330      2.1229      0.2811    104.7490
  1293.2500      0.0000    515.9069      2.1296      0.2811    101.7548
  1293.5000      0.0000    524.2766      2.1263      0.2811     96.3058
  1293.7500      0.0000    527.1678      2.1172      0.3192     89.1636
  1294.0000      0.0000    527.8588      2.1082      0.3574     82.0698
  1294.2500      0.0000    530.9744      2.1015      0.3192     77.1670
  1294.5000      0.0000    538.7342      2.0956      0.2811     75.8536
  1294.7500      0.0000    552.4622      2.0884      0.1665     77.4871
  1295.0000      0.0000    573.9172      2.0807      0.2047     79.3643
  1295.2500      0.0000    602.1041      2.0760      0.2429     78.7969
  1295.5000      0.0000    631.0485      2.0758      0.2811     75.4297
  1295.7500      0.0000    653.5375      2.0777      0.2811     71.2243
  1296.0000      0.0000    666.4999      2.0775      0.3574     68.3518
  1296.2500      0.0000    671.9514      2.0723      0.2429     67.4446
  1296.5000      0.0000    673.9085      2.0622      0.2811     67.5411
  1296.7500      0.0000    675.1344      2.0470      0.3192     67.2390
  1297.0000      0.0000    676.0400      2.0249      0.2429     65.9005
  1297.2500      0.0000    675.4789      1.9936      0.3192     63.9673
  1297.5000      0.0000    672.2012      1.9538      0.2811     62.2921
  1297.7500      0.0000    665.7482      1.9106      0.2047     61.2917
  1298.0000      0.0000    656.3766      1.8720      0.2047     60.6818
  1298.2500      0.0000    644.0489      1.8437      0.2811     59.7958
  1298.5000      0.0000    627.7238      1.8262      0.2811     58.0520
  1298.7500      2.8961    606.6678      1.8156      0.2811     55.3315
  1299.0000     -3.1570    583.5087      1.8086      0.3192     52.1607
  1299.2500      1.9540    565.3379      1.8049      0.3192     49.4916
  1299.5000      0.0000    559.7803      1.8064      0.2811     48.2197
  1299.7500      0.0000    568.5534      1.8151      0.1665     48.8767
  1300.0000      0.0000    584.9326      1.8343      0.3192     51.4964
  1300.2500      0.0000    598.2307      1.8685      0.2429     55.4630
  1300.5000      0.0000    601.3962      1.9177      0.2811     59.6691
  1300.7500      0.0000    595.0565      1.9725      0.1283     63.0975
  1301.0000      0.0000    585.6913      2.0183      0.2429     65.2620
  1301.2500      0.0000    580.6378      2.0461      0.3192     66.1761
  1301.5000      0.0000    583.5921      2.0565      0.2429     66.0786
  1301.7500      0.0000    593.3997      2.0554      0.3192     65.1783
  1302.0000      0.0000    606.5156      2.0499      0.3192     63.6571
  1302.2500      0.0000    619.9106      2.0462      0.2429     61.9172
  1302.5000      0.0000    631.7912      2.0477      0.2429     60.6051
  1302.7500      0.0000    641.0482      2.0526      0.0901     60.2415
  1303.0000      0.0000    647.2682      2.0565      0.3192     60.9052
  1303.2500      0.0000    650.9922      2.0559      0.3574     62.1802
