~Version Information
VERS.                      2.0: CWLS Log ASCII Standard - VERSION 2.0
WRAP.                       NO: One line per depth step
~Well Information Block
STRT.FT               819.0000: 
STOP.FT              2497.0000: 
STEP.FT                 0.2500: 
NULL.                -999.2500: 
COMP.          Petrogulf Corporation: COMPANY
WELL.             State 16-21V: WELL
FLD.           Purgatorie River: FIELD
LOC.           1738' FWL & 332' FNL: LOCATION
PROV.                 Colorado: PROVINCE
CNTY.               Las Animas: COUNTRY
SRVC.          Patterson Wireline: SERVICE COMPANY
DATE.          Sun Jul 13 13:45:48 2003: LOG DATE
UWI.              05-071-07884: UNIQUE WELL ID 05 071 08829 00
~Curve Information Block
DEPT.FT            0 000 00 00: Depth
DCAL.in                       : CDL Caliper
RHOB.g/cc                     : CDL Bulk Density
RHOC.g/cc                     : CDL Density Correction
DPOR.pu                       : CDL Density Porosity
GR.GAPI                       : Gamma Ray
NPOR.pu                       : Neutron Porosity
~Parameter Information Block
~A  Depth       DCAL        RHOB        RHOC        DPOR         GR         NPOR    
# ...
  1515.0000      8.1471      2.4564      0.0980     11.7354    135.5523     27.9793
  1515.2500      8.1547      2.4273      0.1087     13.4959    138.0564     28.3041
  1515.5000      8.1781      2.3843      0.1333     16.1012    139.1990     28.9467
  1515.7500      8.2258      2.3601      0.1519     17.5723    137.6938     29.3907
  1516.0000      8.3096      2.3368      0.1717     18.9819    132.4043     29.9188
  1516.2500      8.3918      2.3330      0.1742     19.2131    127.5847     30.0646
  1516.5000      8.3885      2.3470      0.1616     18.3622    120.0077     29.7050
  1516.7500      8.2832      2.3688      0.1472     17.0453    115.5543     28.9298
  1517.0000      8.1785      2.4148      0.1266     14.2523    110.2279     26.8739
  1517.2500      8.1262      2.4500      0.1164     12.1186    107.0929     25.0005
  1517.5000      8.0998      2.5013      0.1057      9.0121    101.6543     21.8394
  1517.7500      8.0843      2.5304      0.0994      7.2464     97.0709     19.8083
  1518.0000      8.0767      2.5621      0.0890      5.3250     88.9555     17.3202
  1518.2500      8.0671      2.5739      0.0818      4.6099     83.2765     16.1831
  1518.5000      8.0511      2.5767      0.0714      4.4445     75.7236     15.4046
  1518.7500      8.0380      2.5686      0.0636      4.9322     72.2385     15.5723
  1519.0000      8.0307      2.5438      0.0491      6.4373     70.8064     16.9004
  1519.2500      8.0266      2.5214      0.0400      7.7929     72.9308     18.4265
  1519.5000      8.0311      2.4861      0.0360      9.9352     80.6634     21.3108
  1519.7500      8.0556      2.4658      0.0427     11.1641     88.1011     23.3188
  1520.0000      8.1130      2.4465      0.0603     12.3332    100.4965     25.9098
  1520.2500      8.1825      2.4429      0.0699     12.5501    108.1872     27.1129
  1520.5000      8.2185      2.4512      0.0726     12.0469    117.0567     27.9498
  1520.7500      8.2206      2.4640      0.0672     11.2697    120.6942     27.9057
  1521.0000      8.2223      2.4893      0.0544      9.7373    122.6982     27.1791
  1521.2500      8.2147      2.5071      0.0467      8.6624    121.9530     26.4262
  1521.5000      8.1673      2.5304      0.0398      7.2514    118.1309     25.1844
  1521.7500      8.1192      2.5419      0.0386      6.5506    114.1504     24.4525
  1522.0000      8.0872      2.5524      0.0414      5.9177    107.6271     23.7448
  1522.2500      8.0639      2.5552      0.0460      5.7479    104.4983     23.5947
  1522.5000      8.0464      2.5548      0.0556      5.7704    104.0179     23.8007
  1522.7500      8.0372      2.5525      0.0623      5.9066    106.5544     24.1586
  1523.0000      8.0335      2.5476      0.0704      6.2063    112.2595     24.9213
  1523.2500      8.0323      2.5439      0.0735      6.4323    115.7945     25.5059
  1523.5000      8.0342      2.5388      0.0749      6.7424    120.0138     26.3254
  1523.7500      8.0372      2.5366      0.0750      6.8743    122.5021     26.7552
  1524.0000      8.0408      2.5372      0.0779      6.8390    125.5646     27.1980
  1524.2500      8.0432      2.5411      0.0836      6.5980    126.2274     27.3660
  1524.5000      8.0454      2.5529      0.0978      5.8838    123.8097     27.3625
  1524.7500      8.0515      2.5637      0.1073      5.2280    120.1373     27.1125
  1525.0000      8.0644      2.5810      0.1134      4.1804    113.3087     26.3131
  1525.2500      8.0793      2.5909      0.1084      3.5847    108.9464     25.5795
  1525.5000      8.0814      2.5997      0.0883      3.0455    103.7161     24.4609
  1525.7500      8.0602      2.6009      0.0706      2.9746    101.3449     23.8535
  1526.0000      8.0421      2.5960      0.0467      3.2700     99.7120     23.2567
  1526.2500      8.0347      2.5895      0.0356      3.6687     99.9568     23.0554
  1526.5000      8.0326      2.5768      0.0269      4.4342    101.9814     22.9997
  1526.7500      8.0382      2.5677      0.0251      4.9884    103.9596     23.1198
  1527.0000      8.0479      2.5544      0.0265      5.7955    106.9396     23.5333
  1527.2500      8.0394      2.5466      0.0302      6.2695    108.6705     23.9217
  1527.5000      8.0054      2.5379      0.0408      6.7920    111.2306     24.4910
  1527.7500      7.9737      2.5351      0.0518      6.9627    113.2410     24.7169
  1528.0000      7.9530      2.5360      0.0729      6.9092    116.5100     24.6106
  1528.2500      7.9348      2.5396      0.0870      6.6900    118.2388     24.1933
  1528.5000      7.9170      2.5477      0.1009      6.1991    119.0376     23.1684
  1528.7500      7.9082      2.5536      0.1028      5.8412    118.0375     22.3970
  1529.0000      7.9192      2.5618      0.0969      5.3442    114.4538     21.4228
  1529.2500      7.9388      2.5667      0.0923      5.0500    111.3137     20.9891
  1529.5000      7.9451      2.5733      0.0931      4.6510    107.1402     20.6864
  1529.7500      7.9405      2.5771      0.0992      4.4158    105.5370     20.7389
  1530.0000      7.9316      2.5815      0.1095      4.1498    105.3415     21.2894
  1530.2500      7.9138      2.5830      0.1127      4.0577    106.4223     21.9680
  1530.5000      7.9063      2.5831      0.1107      4.0573    109.3475     23.2264
  1530.7500      7.9242      2.5819      0.1069      4.1262    112.2394     24.0135
  1531.0000      7.9545      2.5795      0.1009      4.2719    118.3342     24.8329
  1531.2500      7.9757      2.5779      0.0963      4.3680    123.0597     25.0954
  1531.5000      7.9858      2.5759      0.0868      4.4910    128.5685     25.1719
  1531.7500      7.9971      2.5747      0.0792      4.5640    129.7822     25.1099
  1532.0000      8.0139      2.5726      0.0689      4.6904    128.0295     24.9560
  1532.2500      8.0234      2.5706      0.0644      4.8146    125.9568     24.8311
  1532.5000      8.0147      2.5655      0.0611      5.1209    124.1747     24.6170
  1532.7500      8.0033      2.5603      0.0601      5.4384    124.5521     24.4676
  1533.0000      7.9995      2.5492      0.0586      6.1104    126.9285     24.2771
  1533.2500      7.9996      2.5399      0.0574      6.6705    128.8091     24.2108
  1533.5000      8.0007      2.5250      0.0579      7.5778    130.2714     24.2432
  1533.7500      8.0038      2.5158      0.0621      8.1361    129.5181     24.3132
  1534.0000      8.0065      2.5059      0.0760      8.7344    125.3744     24.2984
  1534.2500      8.0058      2.5032      0.0874      8.8989    121.1407     24.0959
  1534.5000      8.0120      2.5057      0.0984      8.7438    114.3955     23.4614
  1534.7500      8.0261      2.5115      0.0979      8.3929    110.4571     22.8735
  1535.0000      8.0246      2.5247      0.0869      7.5925    105.2211     21.8286
  1535.2500      8.0036      2.5353      0.0776      6.9529    101.4286     21.0397
  1535.5000      7.9918      2.5515      0.0681      5.9725     94.5153     19.7992
  1535.7500      7.9930      2.5613      0.0660      5.3776     89.3964     19.0555
  1536.0000      7.9893      2.5730      0.0676      4.6652     82.1999     18.2901
  1536.2500      7.9715      2.5785      0.0704      4.3363     78.4462     18.0543
  1536.5000      7.9498      2.5832      0.0755      4.0484     75.3327     18.0050
  1536.7500      7.9447      2.5848      0.0793      3.9515     75.2126     18.1019
  1537.0000      7.9579      2.5868      0.0865      3.8314     77.8249     18.4190
  1537.2500      7.9750      2.5891      0.0935      3.6931     81.0743     18.7288
  1537.5000      7.9868      2.5953      0.1090      3.3180     87.2284     19.1484
  1537.7500      7.9922      2.6010      0.1210      2.9671     91.2549     19.2378
  1538.0000      7.9890      2.6101      0.1332      2.4197     95.2044     18.9948
  1538.2500      7.9791      2.6145      0.1321      2.1492     95.8094     18.6929
  1538.5000      7.9728      2.6165      0.1155      2.0310     94.8471     18.3659
  1538.7500      7.9780      2.6143      0.0995      2.1639     94.6779     18.4048
