~Version Information
VERS.                      2.0: CWLS Log ASCII Standard - VERSION 2.0
WRAP.                       NO: One line per depth step
~Well Information Block
STRT.FT                -7.5000: 
STOP.FT              2339.2500: 
STEP.FT                 0.2500: 
NULL.                -999.2500: 
COMP.          Pioneer Natural Resources: COMPANY
WELL.            Harrier 44-33: WELL
FLD.           Purgatorie River: FIELD
LOC.           456' FSL & 930' FEL--: LOCATION
PROV.                       CO: PROVINCE
CNTY.               Las Animas: COUNTRY
SRVC.          Patterson Wireline: SERVICE COMPANY
DATE.          Wed Jun 29 11:08:51 2005: LOG DATE
UWI.           05 071 08398 00: UNIQUE WELL ID
~Curve Information Block
DEPT.FT            0 000 00 00: Depth
CCL.                          : Casing Collar Locator
TT3.usec                      : CBL 3' Travel Time
AMP3.mV                       : CBL 3' Amplitude
GR.GAPI                       : Gamma Ray
~Parameter Information Block
~A  Depth       CCL         TT3         AMP3         GR     
# ...
  2002.5000      0.0000    510.8107      5.8432     83.2801
  2002.7500      0.0000    548.1406      5.9809     91.4157
  2003.0000      0.0000    567.3403      6.0893     98.1245
  2003.2500      0.0000    568.6295      6.1626    101.6083
  2003.5000      0.0000    556.4528      6.2523    102.1115
  2003.7500      0.0000    535.5999      6.3795    101.6374
  2004.0000      0.0000    509.5251      6.4911    102.4619
  2004.2500      0.0000    481.7275      6.5048    105.3595
  2004.5000      0.0000    458.1541      6.3652    108.9195
  2004.7500      0.0000    446.1437      6.0688    110.7744
  2005.0000      0.0000    449.5933      5.6772    109.7005
  2005.2500      0.0000    466.1401      5.3012    106.5109
  2005.5000      0.0000    489.9763      5.0350    103.1213
  2005.7500      0.0000    516.2379      4.9002    100.9430
  2006.0000      0.0000    542.1407      4.8626     99.8727
  2006.2500      0.0000    566.0580      4.8825     98.5351
  2006.5000      0.0000    587.6389      4.9307     95.7861
  2006.7500      0.0000    607.6628      4.9910     92.1680
  2007.0000      0.0000    626.0328      5.0782     89.4539
  2007.2500      0.0000    640.9600      5.2261     88.5869
  2007.5000      0.0000    651.1828      5.4340     88.6514
  2007.7500      0.0000    657.0235      5.6440     88.2187
  2008.0000      0.0000    657.5869      5.7837     87.2286
  2008.2500      0.0000    649.1202      5.8213     87.0614
  2008.5000      0.0000    629.0250      5.7886     88.9946
  2008.7500      0.0000    600.8282      5.7594     92.8759
  2009.0000      0.0000    572.8878      5.7899     97.1933
  2009.2500      0.0000    552.1748      5.8744    100.3418
  2009.5000      0.0000    540.3464      5.9695    101.9190
  2009.7500      0.0000    535.0185      6.0402    102.7245
  2010.0000      0.0000    533.0142      6.0593    103.4048
  2010.2500      0.0000    532.3113      5.9893    103.3471
  2010.5000      0.0000    532.4495      5.8071    101.2121
  2010.7500      0.0000    534.4063      5.5446     96.4699
  2011.0000      0.0000    540.1208      5.2840     90.1268
  2011.2500      0.0000    551.1512      5.1077     84.0470
  2011.5000      0.0000    566.8519      5.0602     79.7932
  2011.7500      0.0000    584.0444      5.1537     77.7930
  2012.0000      0.0000    599.3356      5.3811     77.1337
  2012.2500      0.0000    611.8235      5.6981     76.4191
  2012.5000      0.0000    623.0439      6.0053     75.2759
  2012.7500      0.0000    634.6053      6.1854     74.7608
  2013.0000      0.0000    646.7475      6.1727     75.9289
  2013.2500      0.0000    659.0509      5.9911     78.3346
  2013.5000      0.0000    671.3197      5.7371     80.3970
  2013.7500      0.0000    683.2416      5.5248     80.9490
  2014.0000      0.0000    693.7767      5.4250     79.8496
  2014.2500      0.0000    701.1702      5.4354     77.3778
  2014.5000      0.0000    703.4611      5.4969     73.8607
  2014.7500      0.0000    700.0006      5.5431     69.9290
  2015.0000      0.0000    693.4882      5.5503     66.4302
  2015.2500      0.0000    689.2317      5.5449     63.8131
  2015.5000      0.0000    690.1038      5.5607     61.9218
  2015.7500      0.0000    693.1871      5.6051     60.4613
  2016.0000      0.0000    694.1530      5.6692     59.3383
  2016.2500      0.0000    694.2417      5.7398     58.4984
  2016.5000      0.0000    699.6697      5.7874     57.7805
  2016.7500      0.0000    714.1901      5.7716     57.1839
  2017.0000      0.0000    734.6545      5.6767     57.1601
  2017.2500      0.0000    753.4314      5.5384     58.3339
  2017.5000      0.0000    763.0488      5.4311     60.7036
  2017.7500      0.0000    759.2654      5.4248     63.2166
  2018.0000      0.0000    742.6137      5.5428     64.4881
  2018.2500      0.0000    718.4986      5.7433     64.0921
  2018.5000      0.0000    694.9920      5.9318     62.9659
  2018.7500      0.0000    678.9465      6.0054     62.4344
  2019.0000      0.0000    672.9297      5.9142     62.9201
  2019.2500      0.0000    674.7288      5.6954     63.5812
  2019.5000      0.0000    679.0964      5.4453     63.0813
  2019.7500      0.0000    680.6031      5.2457     60.7945
  2020.0000      0.0000    676.3538      5.1147     57.5166
  2020.2500      0.0000    667.1164      5.0318     55.0349
  2020.5000      0.0000    656.1354      4.9948     54.8276
  2020.7500      0.0000    646.7997      5.0238     57.0691
  2021.0000      0.0000    641.1595      5.1091     60.7835
  2021.2500      0.0000    639.9061      5.1932     64.6786
  2021.5000      0.0000    642.6622      5.2318     67.6196
  2021.7500      0.0000    647.7806      5.2548     68.6618
  2022.0000      0.0000    652.2072      5.3414     67.3727
  2022.2500      0.0000    652.0772      5.5413     64.3002
  2022.5000      0.0000    644.2238      5.8315     60.7288
  2022.7500      0.0000    628.6164      6.1321     57.8016
  2023.0000      0.0000    610.1016      6.3557     55.9642
  2023.2500      0.0000    596.3901      6.4464     54.9239
  2023.5000      0.0000    592.7000      6.3912     53.7931
  2023.7500      0.0000    598.3610      6.2156     51.6861
  2024.0000      0.0000    608.8948      5.9775     48.6984
  2024.2500      0.0000    620.4297      5.7422     46.0628
  2024.5000      0.0000    631.4764      5.5438     45.0217
  2024.7500      0.0000    641.7393      5.3786     45.7655
  2025.0000      0.0000    651.0407      5.2358     47.5402
  2025.2500      0.0000    659.5821      5.1125     49.4240
  2025.5000      0.0000    667.7496      4.9946     50.8714
  2025.7500      0.0000    674.5128      4.8614     51.8051
  2026.0000      0.0000    676.5956      4.7261     52.3641
  2026.2500      0.0000    670.9070      4.6529     52.4875
  2026.5000      0.0000    658.3962      4.7140     51.7975
  2026.7500      0.0000    644.4106      4.9243     50.1693
  2027.0000      0.0000    634.5783      5.2130     48.4924
  2027.2500      0.0000    631.1697      5.4659     48.4238
  2027.5000      0.0000    634.0729      5.6003     51.0342
  2027.7500      0.0000    644.2164      5.6053     55.9574
  2028.0000      0.0000    663.9944      5.5325     62.0948
  2028.2500      0.0000    693.1302      5.4714     68.6693
  2028.5000      0.0000    724.7723      5.5040     75.2437
  2028.7500      0.0000    747.2033      5.6393     81.2492
  2029.0000      0.0000    750.1278      5.7864     86.1179
  2029.2500      0.0000    730.0842      5.8197     89.7621
  2029.5000      0.0000    692.1354      5.6806     92.5281
  2029.7500      0.0000    648.3543      5.4221     94.5923
  2030.0000      0.0000    613.2935      5.1634     95.5175
  2030.2500      0.0000    597.1819      5.0070     94.5667
  2030.5000      0.0000    601.1025      4.9927     91.5585
  2030.7500      0.0000    618.4974      5.1091     87.2875
  2031.0000      0.0000    641.3227      5.3100     82.9193
  2031.2500      0.0000    664.8796      5.5158     79.0406
  2031.5000      0.0000    688.1481      5.6392     75.5269
  2031.7500      0.0000    710.8199      5.6434     72.3492
  2032.0000      0.0000    729.8070      5.5684     70.0723
  2032.2500      0.0000    738.4968      5.4837     69.2328
  2032.5000      0.0000    731.0344      5.4233     69.5078
  2032.7500      0.0000    708.6261      5.3716     69.8049
  2033.0000      0.0000    680.6457      5.3069     68.9446
  2033.2500      0.0000    658.0596      5.2557     66.1499
  2033.5000      0.0000    645.9377      5.2862     61.3386
  2033.7500      0.0000    643.2119      5.4271     55.3266
  2034.0000      0.0000    648.3226      5.6084     49.5551
  2034.2500      0.0000    661.6136      5.7056     45.2682
  2034.5000      0.0000    681.1212      5.6339     42.8106
  2034.7500      0.0000    699.5147      5.3950     41.6830
  2035.0000      0.0000    708.4409      5.0690     41.2477
  2035.2500      0.0000    704.8106      4.7823     41.3717
  2035.5000      0.0000    690.9568      4.6463     42.4371
  2035.7500      0.0000    670.1570      4.6824     44.7614
