~Version Information
VERS.                      2.0: CWLS Log ASCII Standard - VERSION 2.0
WRAP.                       NO: One line per depth step
~Well Information Block
STRT.FT               298.0000: 
STOP.FT              1302.0000: 
STEP.FT                 0.1000: 
NULL.                -999.2500: 
COMP.          Pioneer Natural Resources: COMPANY
WELL.          Bouncer 41-27 Tr: WELL
FLD.           Purgatoire River: FIELD
LOC.           292' FNL & 222' FEL: LOCATION
PROV.                 Colorado: PROVINCE
CNTY.               Las Animas: COUNTRY
SRVC.                Patterson: SERVICE COMPANY
DATE.          Mon Feb 07 12:55:19 2005: LOG DATE
UWI.           05 071 08291 00: UNIQUE WELL ID
~Curve Information Block
DEPT.FT            0 000 00 00: Depth
DCAL.in                       : CDL Caliper
RHOB.g/cc                     : CDL Bulk Density
RHOC.g/cc                     : CDL Density Correction
DPOR.pu                       : CDL Density Porosity
GR.GAPI                       : Gamma Ray
NPOR.pu                       : Neutron Porosity
~Parameter Information Block
~A  Depth       DCAL        RHOB        RHOC        DPOR         GR         NPOR    
# ...
   365.2000      7.9713      2.5708      0.0349      4.8027    122.4533     29.6320
   365.3000      7.9664      2.6048      0.0611      2.7398    124.4419     29.8975
   365.4000      7.9664      2.6537      0.1145     -0.2261    125.2023     30.2116
   365.5000      7.9688      2.6814      0.1654     -1.9055    124.0676     30.5835
   365.6000      7.9688      2.6659      0.1481     -0.9665    122.4217     30.9149
   365.7000      7.9688      2.6274      0.0963      1.3726    122.0862     31.0305
   365.8000      7.9657      2.5934      0.1133      3.4312    121.8779     30.7506
   365.9000      7.9657      2.5777      0.0489      4.3828    119.0521     29.9461
   366.0000      7.9679      2.5862      0.0089      3.8657    116.4515     29.0643
   366.1000      7.9679      2.6058      0.0699      2.6770    119.4083     28.7327
   366.2000      7.9679      2.6176      0.0804      1.9610    125.4296     28.8922
   366.3000      7.9816      2.6316      0.0592      1.1142    129.4221     29.1616
   366.4000      7.9816      2.6637      0.0862     -0.8299    131.5823     29.1808
   366.5000      7.9901      2.7042      0.1388     -3.2845    130.5447     28.9513
   366.6000      7.9901      2.7252      0.1919     -4.5601    121.5163     28.7731
   366.7000      7.9901      2.7131      0.1453     -3.8260    110.5985     28.7108
   366.8000      7.9835      2.6825      0.1080     -1.9678    108.4841     28.5685
   366.9000      7.9835      2.6553      0.1059     -0.3227    111.9413     28.2087
   367.0000      7.9573      2.6460      0.0592      0.2413    112.4651     27.8621
   367.1000      7.9573      2.6574      0.0146     -0.4513    110.1953     28.0144
   367.2000      7.9573      2.6820      0.0375     -1.9364    107.6492     28.6254
   367.3000      7.9542      2.7041      0.0475     -3.2761    105.1047     29.0018
   367.4000      7.9542      2.7143      0.0085     -3.8954    105.4715     28.8233
   367.5000      7.9564      2.7185      0.0669     -4.1534    109.0993     28.5268
   367.6000      7.9564      2.7250      0.0573     -4.5425    110.6583     28.5701
   367.7000      7.9564      2.7301      0.1089     -4.8560    109.1998     28.8264
   367.8000      7.9560      2.7186      0.1425     -4.1547    109.0134     28.7708
   367.9000      7.9560      2.6856      0.0398     -2.1593    111.1983     28.2035
   368.0000      7.9577      2.6484     -0.0111      0.0977    113.2960     27.5271
   368.1000      7.9577      2.6151     -0.0024      2.1148    112.5798     27.1707
   368.2000      7.9577      2.5836     -0.0363      4.0231    109.3328     27.2595
   368.3000      7.9622      2.5652     -0.0484      5.1410    105.5274     27.8201
   368.4000      7.9622      2.5737      0.0074      4.6263    103.1431     28.6004
   368.5000      7.9672      2.6042      0.0868      2.7746    104.2234     29.2808
   368.6000      7.9672      2.6298      0.1528      1.2241    106.9762     29.6825
   368.7000      7.9672      2.6273      0.1292      1.3732    107.0377     29.7981
   368.8000      7.9683      2.6028      0.0832      2.8619    104.4342     29.9922
   368.9000      7.9683      2.5767      0.0709      4.4434    100.5774     30.3763
   369.0000      7.9588      2.5582      0.1117      5.5640     97.2799     30.4513
   369.1000      7.9588      2.5488      0.0595      6.1306     98.9640     29.9575
   369.2000      7.9588      2.5516      0.0963      5.9618    104.6375     29.3696
   369.3000      7.9580      2.5611      0.0378      5.3866    108.5273     29.2459
   369.4000      7.9580      2.5661      0.0395      5.0849    107.9736     29.7368
   369.5000      7.9588      2.5569      0.0746      5.6433    103.5349     30.3434
   369.6000      7.9588      2.5357      0.0500      6.9252     98.9536     30.2617
   369.7000      7.9588      2.5176      0.0001      8.0245     99.3872     29.3992
   369.8000      7.9596      2.5139      0.0285      8.2477    104.3081     28.4044
   369.9000      7.9596      2.5227      0.0423      7.7150    107.2613     27.6097
   370.0000      7.9488      2.5370      0.0418      6.8480    106.0711     27.0534
   370.1000      7.9488      2.5539      0.0311      5.8260    103.7164     26.8891
   370.2000      7.9488      2.5738      0.0448      4.6167    102.8532     26.8765
   370.3000      7.9546      2.5970      0.0616      3.2113    103.8455     26.6097
   370.4000      7.9546      2.6162      0.1550      2.0513    105.3157     26.2208
   370.5000      7.9562      2.6227      0.1195      1.6536    107.6550     26.1021
   370.6000      7.9562      2.6117      0.1425      2.3222    110.6228     26.5549
   370.7000      7.9562      2.5830      0.0771      4.0622    112.8064     27.5784
   370.8000      7.9348      2.5569      0.0573      5.6421    116.4001     28.6457
   370.9000      7.9348      2.5466      0.0468      6.2648    121.2337     29.2268
   371.0000      7.9352      2.5276      0.0788      7.4184    120.4439     29.2069
   371.1000      7.9352      2.4765      0.0277     10.5170    112.6619     28.8086
   371.2000      7.9352      2.4080      0.0367     14.6666    105.9684     28.5246
   371.3000      7.9396      2.3458      0.0429     18.4358    106.8270     28.5773
   371.4000      7.9396      2.3086      0.0049     20.6909    111.0403     28.6300
   371.5000      7.9298      2.3201     -0.0462     19.9924    110.6512     28.6202
   371.6000      7.9298      2.3923      0.0308     15.6191    105.5732     28.7238
   371.7000      7.9298      2.5067      0.0945      8.6853    101.6948     28.4982
   371.8000      7.8836      2.6260      0.2161      1.4530    103.4032     27.7435
   371.9000      7.8836      2.7151      0.3042     -3.9445    108.7657     27.0354
   372.0000      7.8785      2.7597      0.3818     -6.6506    109.8756     26.7758
   372.1000      7.8785      2.7715      0.3152     -7.3611    104.2940     26.6891
   372.2000      7.8785      2.7606      0.2729     -6.7043    101.1285     26.2287
   372.3000      7.8749      2.7235      0.2191     -4.4525    106.3168     25.5878
   372.4000      7.8749      2.6751      0.0557     -1.5242    115.1879     25.3158
   372.5000      7.9400      2.6411      0.0539      0.5391    122.4231     25.3639
   372.6000      7.9400      2.6110      0.0227      2.3643    123.5531     25.6402
   372.7000      7.9400      2.5773     -0.0236      4.4047    118.7064     26.2139
   372.8000      8.0013      2.5677      0.0412      4.9890    116.3198     27.0369
   372.9000      8.0013      2.5912      0.0977      3.5636    120.0160     27.9728
   373.0000      8.0351      2.6149      0.1190      2.1252    124.3672     28.6598
   373.1000      8.0351      2.6200      0.0861      1.8180    125.2456     28.9669
   373.2000      8.0351      2.6242      0.1158      1.5630    123.6440     29.1373
   373.3000      8.0306      2.6293      0.1569      1.2527    121.1575     29.2504
   373.4000      8.0306      2.6139      0.0722      2.1869    118.4351     29.4635
   373.5000      8.0416      2.5691      0.0468      4.9057    114.3496     29.9933
   373.6000      8.0416      2.5145     -0.0425      8.2100    108.6671     30.5111
   373.7000      8.0416      2.4942     -0.0528      9.4399    103.7160     30.4808
   373.8000      8.0559      2.5273     -0.0297      7.4344     99.5017     29.9352
   373.9000      8.0559      2.5744      0.0462      4.5832     96.8125     29.2080
   374.0000      8.0634      2.5907      0.0003      3.5942     97.2677     28.5124
   374.1000      8.0634      2.5797      0.0347      4.2592     98.7888     27.8779
   374.2000      8.0634      2.5604      0.0362      5.4316    100.6470     27.4263
   374.3000      8.0699      2.5388     -0.0042      6.7393    103.3174     27.1381
   374.4000      8.0699      2.5249     -0.0261      7.5822    104.5224     26.8030
   374.5000      8.0696      2.5322     -0.0146      7.1378    106.7790     26.7527
   374.6000      8.0696      2.5591      0.0081      5.5088    114.3072     27.0672
   374.7000      8.0696      2.5842     -0.0019      3.9866    124.2385     27.3300
