~Version Information
 VERS.                                  2.0 : CWLS LAS VERSION
 WRAP.                                   NO : WRAPING MODE
 SWARE .                 MController 2.5.0E : SOFTWARE VERSION
~Well Information
 WELL.                        Rimrock 14-29 : WELL
 COMP.             Evergreen Operating Corp : COMPANY
 FLD.                      Purgatorie River : FIELD
 LOC.                SW SW Sec 29 T32S R65W : LOCATION
 DATE.                              9/20/04 : DATE(S) LOGGED
 SRVC.       Blanco Geological Services LLC : SERVICE COMPANY
 STAT.                                   CO : STATE
 CNTY.                           Las Animas : COUNTY
 CTRY.                                  USA : COUNTRY
 API.                       05-071-08136-00 : API NUMBER
 STRT.FT                             517.00 : START DEPTH
 STOP.FT                            1705.00 : STOP DEPTH
 STEP.FT                               1.00 : DEPTH INCREMENT
 NULL.                                -9999 : NULL VALUE
~Curve information
 DEPTH.FT                                   :
 ROP.MIN/FT                                 :
 GAS.UNITS                                  :
~ASCII Log data
# ...
     1117.00        0.200          2.0 
     1118.00        0.200          2.0 
     1119.00        0.167          2.0 
     1120.00        0.200          2.1 
     1121.00        0.167          2.2 
     1122.00        0.200          2.1 
     1123.00        0.167          2.1 
     1124.00        0.200          2.0 
     1125.00        0.183          2.1 
     1126.00        0.200          2.4 
     1127.00        0.200          2.0 
     1128.00        0.200          2.1 
     1129.00        0.233          2.2 
     1130.00        0.200          2.1 
     1131.00        0.300          2.1 
     1132.00        0.233          2.2 
     1133.00        0.167          2.3 
     1134.00        0.233          2.0 
     1135.00        0.133          2.0 
     1136.00        1.950          2.0 
     1137.00        0.200          1.5 
     1138.00        0.267          1.5 
     1139.00        0.200          1.6 
     1140.00        0.233          1.7 
     1141.00        0.200          1.5 
     1142.00        0.167          1.6 
     1143.00        0.167          1.3 
     1144.00        0.200          1.3 
     1145.00        0.167          1.6 
     1146.00        0.233          1.4 
     1147.00        0.167          1.2 
     1148.00        0.200          1.8 
     1149.00        0.217          1.7 
     1150.00        0.200          1.5 
     1151.00        0.200          1.2 
     1152.00        0.133          1.0 
     1153.00        0.100          3.3 
     1154.00        0.133         10.6 
     1155.00        0.133         20.7 
     1156.00        0.133         29.2 
     1157.00        0.167         34.9 
     1158.00        0.133         35.9 
     1159.00        0.167         35.3 
     1160.00        0.167         30.0 
     1161.00        0.233         22.9 
     1162.00        0.267         14.6 
     1163.00        0.167          8.8 
     1164.00        0.167          6.4 
     1165.00        0.133          5.1 
     1166.00        1.250          4.0 
     1167.00        0.300          1.6 
     1168.00        0.267          3.2 
     1169.00        0.267          6.2 
     1170.00        0.267         12.0 
     1171.00        0.300         18.5 
     1172.00        0.300         20.6 
     1173.00        0.300         19.5 
     1174.00        0.333         15.4 
     1175.00        0.200         11.4 
     1176.00        0.167          8.8 
     1177.00        0.183          7.4 
     1178.00        0.200          6.2 
     1179.00        0.167          4.7 
     1180.00        0.200          4.4 
     1181.00        0.200          4.0 
     1182.00        0.167          3.6 
     1183.00        0.200          3.2 
     1184.00        0.167          2.9 
     1185.00        0.167          2.7 
     1186.00        0.200          2.8 
     1187.00        0.167          2.6 
     1188.00        0.200          2.5 
     1189.00        0.167          2.4 
     1190.00        0.167          2.5 
     1191.00        0.200          2.8 
     1192.00        0.167          2.9 
     1193.00        0.200          2.6 
     1194.00        0.167          2.7 
     1195.00        0.183          2.9 
     1196.00        2.167          7.8 
     1197.00        0.267         12.8 
     1198.00        0.233         19.3 
     1199.00        0.267         26.7 
     1200.00        0.267         30.3 
     1201.00        0.283         30.2 
     1202.00        0.200         27.0 
     1203.00        0.200         22.2 
     1204.00        0.233         18.0 
     1205.00        0.167         14.4 
     1206.00        0.200         12.0 
     1207.00        0.200          9.2 
     1208.00        0.200          7.6 
     1209.00        0.200          6.2 
     1210.00        0.200          5.2 
     1211.00        0.167          4.7 
     1212.00        0.167          4.2 
     1213.00        0.167          4.1 
     1214.00        0.167          4.2 
     1215.00        0.167          3.9 
     1216.00        0.133          3.8 
     1217.00        0.133          3.5 
     1218.00        0.167          3.5 
     1219.00        0.150          3.2 
     1220.00        0.167          2.9 
     1221.00        0.167          2.8 
     1222.00        0.167          2.4 
     1223.00        0.200          2.3 
     1224.00        0.167          1.9 
     1225.00        0.200          1.6 
     1226.00        1.667          2.7 
     1227.00        0.300          5.4 
     1228.00        0.350         11.0 
     1229.00        0.300         17.3 
     1230.00        0.267         19.1 
     1231.00        0.233         19.2 
     1232.00        0.233         18.3 
     1233.00        0.233         16.1 
     1234.00        0.233         14.3 
     1235.00        0.200         11.6 
     1236.00        0.233         10.2 
     1237.00        0.233          8.2 
     1238.00        0.200          7.0 
     1239.00        0.167          6.1 
     1240.00        0.167          5.4 
     1241.00        0.200          4.5 
     1242.00        0.183          4.1 
     1243.00        0.167          4.0 
     1244.00        0.200          3.9 
     1245.00        0.200          3.6 
     1246.00        0.200          3.4 
     1247.00        0.167          3.3 
     1248.00        0.200          3.1 
     1249.00        0.200          3.3 
     1250.00        0.167          3.2 
     1251.00        0.167          3.2 
     1252.00        0.200          3.0 
     1253.00        0.167          3.1 
     1254.00        0.167          2.8 
     1255.00        0.167          2.9 
     1256.00        1.517          2.5 
     1257.00        0.200          2.9 
     1258.00        0.367          7.3 
     1259.00        0.200         10.9 
     1260.00        0.267         17.0 
     1261.00        0.233         18.6 
     1262.00        0.233         20.1 
     1263.00        0.200         19.8 
     1264.00        0.233         19.1 
     1265.00        0.167         16.7 
     1266.00        0.200         14.7 
     1267.00        0.167         12.6 
     1268.00        0.167         10.5 
     1269.00        0.183          9.6 
     1270.00        0.167          8.6 
     1271.00        0.167          7.7 
     1272.00        0.167          7.3 
     1273.00        0.167          6.9 
     1274.00        0.200          6.6 
     1275.00        0.200          6.4 
     1276.00        0.200          6.7 
     1277.00        0.167          6.5 
     1278.00        0.167          6.3 
     1279.00        0.200          6.1 
     1280.00        0.167          6.2 
     1281.00        0.200          5.2 
     1282.00        0.200          5.2 
     1283.00        0.233          4.8 
     1284.00        0.233          4.2 
     1285.00        0.167          4.3 
     1286.00        1.483          3.4 
     1287.00        0.267          3.5 
     1288.00        0.300          5.1 
     1289.00        0.233          8.4 
     1290.00        0.300         14.5 
     1291.00        0.200         18.5 
     1292.00        0.167         21.2 
     1293.00        0.200         22.4 
     1294.00        0.233         22.1 
     1295.00        0.217         21.3 
     1296.00        0.167         19.8 
     1297.00        0.200         18.6 
     1298.00        0.200         17.6 
     1299.00        0.200         14.6 
     1300.00        0.167         12.6 
     1301.00        0.167         10.9 
     1302.00        0.167          9.6 
     1303.00        0.167          8.0 
     1304.00        0.200          7.3 
     1305.00        0.200          6.7 
     1306.00        0.167          5.5 
     1307.00        0.200          5.1 
     1308.00        0.167          4.7 
     1309.00        0.200          5.0 
     1310.00        0.133          4.4 
     1311.00        0.167          4.4 
     1312.00        0.167          4.4 
     1313.00        0.167          4.5 
     1314.00        0.183          4.3 
     1315.00        0.167          4.1 
     1316.00        1.600          4.2 
