~Version Information
VERS.                      2.0: CWLS Log ASCII Standard - VERSION 2.0
WRAP.                       NO: One line per depth step
~Well Information Block
STRT.FT                -8.8000: 
STOP.FT              2006.2000: 
STEP.FT                 0.1000: 
NULL.                -999.2500: 
COMP.          Petrogulf Corporation: COMPANY
WELL.             J & P 12-33V: WELL
FLD.           Purgatorie River: FIELD
LOC.           2005' FSL & 1928' FEL: LOCATION
CNTY.               Las Animas: COUNTY
SRVC.                         : SERVICE COMPANY
DATE.          Fri Jul 29 13:37:28 2005: LOG DATE
UWI.                          : UNIQUE WELL ID
STAT.                 Colorado: STATE
~Curve Information Block
DEPT.FT            0 000 00 00: Depth
GR.GAPI                       : Gamma Ray
CCL.                          : Casing Collar Locator
TT3.usec                      : CBL 3' Travel Time
AMP3.mV                       : CBL 3' Amplitude
~Parameter Information Block
~A  Depth        GR         CCL         TT3         AMP3    
# ...
   795.2000     98.3795      0.0000    256.1163     80.0835
   795.3000     98.6595      0.0000    256.1151     80.1546
   795.4000     98.6595      0.0000    256.1151     80.1546
   795.5000     98.7145      0.0000    256.1244     80.1480
   795.6000     98.7145      0.0000    256.1244     80.1480
   795.7000     98.7145      0.0000    256.1244     80.1480
   795.8000     97.5650      0.0000    256.1540     79.9964
   795.9000     97.5650      0.0000    256.1540     79.9964
   796.0000     94.6121      0.0000    256.1862     79.8549
   796.1000     94.6121      0.0000    256.1862     79.8549
   796.2000     94.6121      0.0000    256.1862     79.8549
   796.3000     90.4427      0.0000    256.2002     79.8848
   796.4000     90.4427      0.0000    256.2002     79.8848
   796.5000     86.4251      0.0000    256.2047     79.9955
   796.6000     86.4251      0.0000    256.2047     79.9955
   796.7000     86.4251      0.0000    256.2047     79.9955
   796.8000     83.5162      0.0000    256.2104     80.0190
   796.9000     83.5162      0.0000    256.2104     80.0190
   797.0000     81.7306      0.0000    256.1948     79.9591
   797.1000     81.7306      0.0000    256.1948     79.9591
   797.2000     81.7306      0.0000    256.1948     79.9591
   797.3000     80.5720      0.0000    256.1470     79.9035
   797.4000     80.5720      0.0000    256.1470     79.9035
   797.5000     79.5883      0.0000    256.1039     79.8785
   797.6000     79.5883      0.0000    256.1039     79.8785
   797.7000     79.5883      0.0000    256.1039     79.8785
   797.8000     78.6757      0.0000    256.0880     79.9073
   797.9000     78.6757      0.0000    256.0880     79.9073
   798.0000     78.3596      0.0000    256.0819     80.0180
   798.1000     78.3596      0.0000    256.0819     80.0180
   798.2000     78.3596      0.0000    256.0819     80.0180
   798.3000     79.8088      0.0000    256.0774     80.1265
   798.4000     79.8088      0.0000    256.0774     80.1265
   798.5000     83.9583      0.0000    256.0840     80.1232
   798.6000     83.9583      0.0000    256.0840     80.1232
   798.7000     83.9583      0.0000    256.0840     80.1232
   798.8000     90.2735      0.0000    256.0981     80.0796
   798.9000     90.2735      0.0000    256.0981     80.0796
   799.0000     96.7319      0.0000    256.1102     80.1213
   799.1000     96.7319      0.0000    256.1102     80.1213
   799.2000     96.7319      0.0000    256.1102     80.1213
   799.3000    101.3502      0.0000    256.1231     80.2024
   799.4000    101.3502      0.0000    256.1231     80.2024
   799.5000    103.5631      0.0000    256.1348     80.2253
   799.6000    103.5631      0.0000    256.1348     80.2253
   799.7000    103.5631      0.0000    256.1348     80.2253
   799.8000    104.1318      0.0000    256.1335     80.2003
   799.9000    104.1318      0.0000    256.1335     80.2003
   800.0000    104.2289      0.0000    256.1212     80.1677
   800.1000    104.2289      0.0000    256.1212     80.1677
   800.2000    104.2289      0.0000    256.1212     80.1677
   800.3000    104.8222      0.0000    256.1130     80.1125
   800.4000    104.8222      0.0000    256.1130     80.1125
   800.5000    106.3985      0.0000    256.1152     79.9754
   800.6000    106.3985      0.0000    256.1152     79.9754
   800.7000    106.3985      0.0000    256.1152     79.9754
   800.8000    108.6559      0.0000    256.1255     79.7295
   800.9000    108.6559      0.0000    256.1255     79.7295
   801.0000    110.4081      0.0000    256.1433     79.4349
   801.1000    110.4081      0.0000    256.1433     79.4349
   801.2000    110.4081      0.0000    256.1433     79.4349
   801.3000    110.2552      0.0000    256.1636     79.1881
   801.4000    110.2552      0.0000    256.1636     79.1881
   801.5000    107.7934      0.0000    256.1709     79.0394
   801.6000    107.7934      0.0000    256.1709     79.0394
   801.7000    107.7934      0.0000    256.1709     79.0394
   801.8000    104.1822      0.0000    256.1586     78.9173
   801.9000    104.1822      0.0000    256.1586     78.9173
   802.0000    101.2700      0.0000    256.1613     78.4601
   802.1000    101.2700      0.0000    256.1613     78.4601
   802.2000    101.2700      0.0000    256.1613     78.4601
   802.3000    100.1806      0.0000    256.2805     76.8720
   802.4000    100.1806      0.0000    256.2805     76.8720
   802.5000    100.8503      0.0000    256.6936     73.4602
   802.6000    100.8503      0.0000    256.6936     73.4602
   802.7000    100.8503      0.0000    256.6936     73.4602
   802.8000    102.6187      0.0000    257.5914     68.9194
   802.9000    102.6187      0.0000    257.5914     68.9194
   803.0000    104.7571      0.0000    258.9987     65.0983
   803.1000    104.7571      0.0000    258.9987     65.0983
   803.2000    104.7571      0.0000    258.9987     65.0983
   803.3000    106.5443      0.0000    260.6274     62.5818
   803.4000    106.5443      0.0000    260.6274     62.5818
   803.5000    107.3495      0.0000    262.0103     60.5051
   803.6000    107.3495      0.0000    262.0103     60.5051
   803.7000    107.3495      0.0000    262.0103     60.5051
   803.8000    106.8091      0.0000    262.8623     58.8015
   803.9000    106.8091      0.0000    262.8623     58.8015
   804.0000    104.8384      0.0000    263.2536     57.9801
   804.1000    104.8384      0.0000    263.2536     57.9801
   804.2000    104.8384      0.0000    263.2536     57.9801
   804.3000    101.6770      0.0000    263.4127     57.8289
   804.4000    101.6770      0.0000    263.4127     57.8289
   804.5000     98.0975      0.0000    263.4988     57.8153
   804.6000     98.0975     -2.0000    263.4988     57.8153
   804.7000     98.0975     -2.0000    263.4988     57.8153
   804.8000     95.1418      2.0000    263.5726     57.7029
   804.9000     95.1418     -2.0000    263.5726     57.7029
   805.0000     93.2601      0.0000    263.6339     57.5061
   805.1000     93.2601      0.0000    263.6339     57.5061
   805.2000     93.2601      0.0000    263.6339     57.5061
   805.3000     91.9923      0.0000    263.5901     57.5002
   805.4000     91.9923      0.0000    263.5901     57.5002
   805.5000     90.8853      0.0000    263.1899     58.4935
   805.6000     90.8853      0.0000    263.1899     58.4935
   805.7000     90.8853      0.0000    263.1899     58.4935
   805.8000     90.4439      0.0000    262.0949     61.2456
   805.9000     90.4439      0.0000    262.0949     61.2456
   806.0000     91.5983      0.0000    260.2596     65.1746
   806.1000     91.5983      0.0000    260.2596     65.1746
   806.2000     91.5983      0.0000    260.2596     65.1746
   806.3000     94.1773      0.0000    258.2612     69.1724
   806.4000     94.1773      0.0000    258.2612     69.1724
   806.5000     96.4136      0.0000    256.8584     73.1125
   806.6000     96.4136      0.0000    256.8584     73.1125
   806.7000     96.4136      0.0000    256.8584     73.1125
   806.8000     96.3004      0.0000    256.2425     76.7000
   806.9000     96.3004      0.0000    256.2425     76.7000
   807.0000     93.2187      0.0000    256.0944     79.0185
   807.1000     93.2187      0.0000    256.0944     79.0185
   807.2000     93.2187      0.0000    256.0944     79.0185
   807.3000     88.2211      0.0000    256.1031     79.9245
   807.4000     88.2211      0.0000    256.1031     79.9245
   807.5000     83.1756      0.0000    256.1348     80.0909
   807.6000     83.1756      0.0000    256.1348     80.0909
   807.7000     83.1756      0.0000    256.1348     80.0909
   807.8000     79.9221      0.0000    256.1527     80.0856
   807.9000     79.9221      0.0000    256.1527     80.0856
   808.0000     79.7660      0.0000    256.1582     80.1140
   808.1000     79.7660      0.0000    256.1582     80.1140
   808.2000     79.7660      0.0000    256.1582     80.1140
   808.3000     82.9866      0.0000    256.1551     80.2079
   808.4000     82.9866      0.0000    256.1551     80.2079
   808.5000     88.5370      0.0000    256.1402     80.3321
