~Version Information
VERS.                      2.0: CWLS Log ASCII Standard - VERSION 2.0
WRAP.                       NO: One line per depth step
~Well Information Block
STRT.FT               682.0000: 
STOP.FT              2190.5000: 
STEP.FT                 0.1000: 
NULL.                -999.2500: 
COMP.          Pioneer Natural Resources: COMPANY
WELL.               King 22-13: WELL
FLD.           Purgatoire River: FIELD
LOC.           2419' FNL & 1806' FWL----: LOCATION
PROV.                 Colorado: PROVINCE
CNTY.               Las Animas: COUNTRY
SRVC.                Patterson: SERVICE COMPANY
DATE.          Fri Apr 01 07:38:12 2005: LOG DATE
UWI.           05 071 08318 00: UNIQUE WELL ID
~Curve Information Block
DEPT.FT            0 000 00 00: Depth
DCAL.in                       : CDL Caliper
RHOB.g/cc                     : CDL Bulk Density
RHOC.g/cc                     : CDL Density Correction
DPOR.pu                       : CDL Density Porosity
NPOR.pu                       : Neutron Porosity
GR.GAPI                       : Gamma Ray
~Parameter Information Block
~A  Depth       DCAL        RHOB        RHOC        DPOR        NPOR         GR     
# ...
  1075.6000      8.2895      2.0496      0.1954     36.3874     30.0577     85.0083
  1075.7000      8.2895      2.1753      0.2328     28.7680     28.8784     91.4202
  1075.8000      8.2799      2.2725      0.2172     22.8805     27.9448     97.3555
  1075.9000      8.2799      2.3456      0.2205     18.4512     26.8439    103.5933
  1076.0000      8.2141      2.4039      0.1646     14.9153     25.6983    109.8919
  1076.1000      8.2141      2.4500      0.0723     12.1205     25.0884    114.7603
  1076.2000      8.2141      2.4835      0.0409     10.0928     25.4708    116.3610
  1076.3000      8.1605      2.5003      0.0642      9.0736     26.4997    112.8109
  1076.4000      8.1605      2.5011      0.0347      9.0217     27.2885    108.1471
  1076.5000      8.1422      2.4990      0.0066      9.1518     27.3785    107.8623
  1076.6000      8.1422      2.5030      0.0045      8.9106     27.3265    111.0942
  1076.7000      8.1422      2.5093      0.0172      8.5283     27.8673    117.3574
  1076.8000      8.1367      2.5092      0.0221      8.5362     28.4847    123.7639
  1076.9000      8.1367      2.4962      0.0481      9.3202     28.3731    124.0072
  1077.0000      8.1351      2.4771      0.0110     10.4801     28.0586    121.0809
  1077.1000      8.1351      2.4674      0.0016     11.0637     28.3674    123.4228
  1077.2000      8.1351      2.4745     -0.0057     10.6374     28.7751    130.8156
  1077.3000      8.1378      2.4915      0.0386      9.6080     28.6429    139.4324
  1077.4000      8.1378      2.5021      0.0414      8.9653     28.1447    145.4958
  1077.5000      8.1396      2.4986      0.0592      9.1740     27.6578    143.8488
  1077.6000      8.1396      2.4941      0.0408      9.4484     27.5691    135.3818
  1077.7000      8.1396      2.5022      0.0623      8.9559     27.9829    128.9594
  1077.8000      8.1346      2.5151      0.0645      8.1744     28.5945    125.7580
  1077.9000      8.1346      2.5195      0.0988      7.9070     29.0351    119.8234
  1078.0000      8.1286      2.5177      0.0658      8.0157     28.8483    115.1452
  1078.1000      8.1286      2.5202      0.0231      7.8654     27.6648    117.6637
  1078.2000      8.1286      2.5262      0.0549      7.5001     26.1731    122.0394
  1078.3000      8.1277      2.5296      0.0126      7.2987     25.4646    121.3745
  1078.4000      8.1277      2.5371      0.0001      6.8408     25.5267    117.5751
  1078.5000      8.1320      2.5540      0.0278      5.8175     25.7199    117.8037
  1078.6000      8.1320      2.5737      0.0456      4.6270     25.6579    126.0686
  1078.7000      8.1320      2.5893      0.1021      3.6804     25.4360    136.3144
  1078.8000      8.1385      2.5958      0.0430      3.2871     25.3514    137.3057
  1078.9000      8.1385      2.5876      0.0904      3.7831     25.3534    125.6594
  1079.0000      8.1450      2.5719     -0.0263      4.7359     25.1760    109.5684
  1079.1000      8.1450      2.5642      0.0316      5.1992     25.0224     98.4866
  1079.2000      8.1450      2.5588      0.0318      5.5290     25.2977     96.4986
  1079.3000      8.1498      2.5508      0.0384      6.0128     25.6384    102.6651
  1079.4000      8.1498      2.5535      0.0140      5.8462     25.7193    115.7838
  1079.5000      8.1528      2.5644      0.0538      5.1887     26.0562    132.2459
  1079.6000      8.1528      2.5653      0.0183      5.1316     26.7092    143.0742
  1079.7000      8.1528      2.5591      0.0189      5.5084     27.2157    142.9375
  1079.8000      8.1594      2.5606      0.0602      5.4181     27.4798    137.4958
  1079.9000      8.1594      2.5679      0.0555      4.9753     27.5446    135.6888
  1080.0000      8.1723      2.5740      0.0189      4.6087     27.5827    135.5623
  1080.1000      8.1723      2.5787      0.0821      4.3199     27.8402    128.8070
  1080.2000      8.1723      2.5846      0.0332      3.9611     28.1993    118.2641
  1080.3000      8.1803      2.5923      0.1052      3.4944     28.0018    114.7266
  1080.4000      8.1803      2.5970      0.0504      3.2127     27.0021    119.1991
  1080.5000      8.1784      2.6023      0.0476      2.8911     26.1666    123.1828
  1080.6000      8.1784      2.6165      0.0317      2.0304     26.3800    122.7888
  1080.7000      8.1784      2.6369      0.0679      0.7947     27.0343    119.8672
  1080.8000      8.1686      2.6596      0.0298     -0.5805     27.1322    116.1895
  1080.9000      8.1686      2.6901      0.0434     -2.4299     26.7416    114.7000
  1081.0000      8.1565      2.7199      0.0648     -4.2368     26.4045    115.6356
  1081.1000      8.1565      2.7217      0.1199     -4.3428     26.4326    114.3905
  1081.2000      8.1565      2.6902      0.0406     -2.4338     26.6818    109.7220
  1081.3000      8.1463      2.6578      0.0171     -0.4714     26.8048    105.9090
  1081.4000      8.1463      2.6469     -0.0059      0.1859     26.7236    104.2797
  1081.5000      8.1348      2.6354      0.0708      0.8831     26.7365    104.6604
  1081.6000      8.1348      2.6005     -0.0040      2.9973     26.9226    106.9996
  1081.7000      8.1348      2.5650     -0.0324      5.1509     27.0084    107.7780
  1081.8000      8.1262      2.5509      0.0364      6.0031     26.9046    107.8448
  1081.9000      8.1262      2.5414      0.0779      6.5789     26.6777    109.9306
  1082.0000      8.1205      2.5188      0.0463      7.9486     26.4003    112.4286
  1082.1000      8.1205      2.4973      0.0080      9.2516     26.1547    113.8455
  1082.2000      8.1205      2.5030     -0.0165      8.9113     25.9608    114.9513
  1082.3000      8.1136      2.5286      0.0603      7.3557     25.9032    117.9352
  1082.4000      8.1136      2.5396      0.0644      6.6881     25.9842    124.3880
  1082.5000      8.1086      2.5329      0.0068      7.0954     25.9397    131.8943
  1082.6000      8.1086      2.5315      0.0594      7.1814     25.8315    134.0354
  1082.7000      8.1086      2.5369      0.0574      6.8547     25.9650    126.3680
  1082.8000      8.1105      2.5352      0.0352      6.9587     26.0710    114.5228
  1082.9000      8.1105      2.5239      0.0293      7.6421     26.0177    106.7089
  1083.0000      8.1176      2.5136      0.0211      8.2651     26.1854    102.7717
  1083.1000      8.1176      2.5119      0.0307      8.3679     26.5056    100.5748
  1083.2000      8.1176      2.5207      0.0157      7.8367     27.0205    101.4314
  1083.3000      8.1228      2.5333      0.0662      7.0706     27.8316    105.7608
  1083.4000      8.1228      2.5338      0.0256      7.0401     28.0198    109.8219
  1083.5000      8.1249      2.5186      0.0172      7.9658     27.0543    111.6557
  1083.6000      8.1249      2.5010      0.0063      9.0318     25.8519    114.4207
  1083.7000      8.1249      2.5012     -0.0359      9.0203     25.4288    116.5713
  1083.8000      8.1257      2.5230      0.0449      7.6943     25.4062    113.0333
  1083.9000      8.1257      2.5469      0.0286      6.2458     24.8710    105.3919
  1084.0000      8.1246      2.5616      0.0260      5.3605     24.0068     98.3216
  1084.1000      8.1246      2.5708      0.0260      4.8023     23.5817     94.7563
  1084.2000      8.1246      2.5850     -0.0040      3.9384     23.8003     97.5337
  1084.3000      8.1237      2.6149      0.0276      2.1275     24.1962    104.8897
  1084.4000      8.1237      2.6554      0.0789     -0.3274     24.1074    106.2152
  1084.5000      8.1252      2.6872      0.1103     -2.2534     23.7736     96.0627
  1084.6000      8.1252      2.7032      0.0580     -3.2216     24.0056     82.5551
  1084.7000      8.1252      2.7148      0.0453     -3.9277     24.4948     73.4207
  1084.8000      8.1260      2.7304      0.0637     -4.8724     24.7218     67.6442
  1084.9000      8.1260      2.7562      0.0145     -6.4391     25.2002     63.4543
  1085.0000      8.1227      2.7964      0.0210     -8.8728     25.9861     62.9847
  1085.1000      8.1227      2.8290      0.0503    -10.8455     26.6458     67.4628
