~Version Information
 VERS.                      2.0: CWLS Log ASCII Standard - VERSION 2.0
 WRAP.                       NO: One line per depth step
 ~Well Information Block
 STRT.FT               762.3000: 
 STOP.FT              2573.7000: 
 STEP.FT                 0.1000: 
 NULL.                -999.2500: 
 COMP.          Petrogulf Corporation: COMPANY
 WELL.               J&P 12-33V: WELL
 FLD.           Purgatorie River: FIELD
 LOC.           2005' FSL & 1928' FEL: LOCATION
 CNTY.               Las Animas: COUNTY
 SRVC.                         : SERVICE COMPANY
 DATE.          Sat Aug 28 11:34:36 2004: LOG DATE
 UWI.           05 071 08092 00: UNIQUE WELL ID
 STAT.                 Colorado: STATE
 PROV.                         :Province
 ~Curve Information Block
 DEPT.FT            0 000 00 00: Depth
 GR.GAPI                       : Gamma Ray
 DCAL.in                       : CDL Caliper
 DPOR.pu                       : CDL Density Porosity
 NPOR.pu                       : Neutron Porosity
 RHOB.g/cc                     : CDL Bulk Density
 RHOC.g/cc                     : CDL Density Correction
 ~Parameter Information Block
 ~A  Depth        GR         DCAL        DPOR        NPOR        RHOB        RHOC    
# ...
  1491.9000    155.0414      8.2013      9.4074     23.0857      2.4948      0.1031
  1492.0000    156.6471      8.2031      8.5589     23.4631      2.5088      0.1432
  1492.1000    159.3881      8.2031      7.7252     23.9043      2.5225      0.1503
  1492.2000    154.7305      8.2031      6.5426     24.0953      2.5420      0.2349
  1492.3000    140.7934      8.2012      5.4064     24.0033      2.5608      0.2280
  1492.4000    131.5418      8.2012      4.9333     23.9681      2.5686      0.2499
  1492.5000    136.5951      8.2012      5.3959     24.0273      2.5610      0.2350
  1492.6000    147.7328      8.2012      6.3705     24.1970      2.5449      0.1769
  1492.7000    152.2531      8.2012      6.5289     24.5609      2.5423      0.1422
  1492.8000    148.5362      8.2013      5.0050     25.0204      2.5674      0.1673
  1492.9000    141.8033      8.2013      2.6437     25.3253      2.6064      0.1620
  1493.0000    135.3241      8.2018      0.9467     25.2494      2.6344      0.1741
  1493.1000    128.6086      8.2018      0.3251     24.9380      2.6446      0.1344
  1493.2000    122.4961      8.2018      0.4167     24.6348      2.6431      0.1186
  1493.3000    118.8995      8.2008      1.2769     24.3666      2.6289      0.1189
  1493.4000    116.5809      8.2008      2.6626     24.1419      2.6061      0.0765
  1493.5000    116.0270      8.1887      3.8327     24.0760      2.5868      0.0761
  1493.6000    117.8732      8.1887      4.6857     24.1354      2.5727      0.0443
  1493.7000    120.6842      8.1887      5.2245     24.1079      2.5638     -0.0101
  1493.8000    124.8358      8.1757      5.2469     24.0095      2.5634      0.0307
  1493.9000    127.8436      8.1757      4.9231     23.8190      2.5688      0.0227
  1494.0000    123.1527      8.1851      4.6675     23.3947      2.5730      0.0583
  1494.1000    113.5457      8.1851      4.7106     22.8921      2.5723      0.0498
  1494.2000    109.6709      8.1851      4.7011     22.4900      2.5724      0.0128
  1494.3000    114.2681      8.2008      4.7816     22.2238      2.5711      0.0766
  1494.4000    121.9370      8.2008      5.8692     22.1202      2.5532      0.0589
  1494.5000    126.1149      8.2029      7.6185     21.9653      2.5243      0.0173
  1494.6000    127.4315      8.2029      8.7375     21.4021      2.5058     -0.0161
  1494.7000    131.6682      8.2029      8.7959     20.4784      2.5049      0.0195
  1494.8000    134.6130      8.2010      8.0791     19.6818      2.5167      0.0155
  1494.9000    128.8912      8.2010      7.2122     19.2392      2.5310      0.0375
  1495.0000    121.4045      8.2003      7.3342     19.1144      2.5290      0.0300
  1495.1000    119.4979      8.2003      8.9278     19.3624      2.5027      0.0115
  1495.2000    118.5006      8.2003     10.9772     19.9120      2.4689     -0.0180
  1495.3000    116.5997      8.2229     12.2400     20.4722      2.4480     -0.0327
  1495.4000    114.4654      8.2229     12.4754     20.7619      2.4442     -0.0194
  1495.5000    110.9393      8.2200     12.4038     20.8856      2.4453      0.0226
  1495.6000    107.0533      8.2200     12.5109     21.0469      2.4436     -0.0403
  1495.7000    102.5853      8.2200     11.9149     20.9847      2.4534      0.0030
  1495.8000     99.1865      8.2010      9.6791     20.5625      2.4903      0.0120
  1495.9000    100.3049      8.2010      6.6543     20.2696      2.5402      0.0418
  1496.0000    104.5074      8.1957      4.5690     20.4376      2.5746      0.0739
  1496.1000    108.2904      8.1957      4.1204     20.8527      2.5820      0.0807
  1496.2000    110.1644      8.1957      4.6556     21.2734      2.5732      0.0705
  1496.3000    109.5346      8.1937      5.2006     21.5305      2.5642      0.0906
  1496.4000    105.9798      8.1937      5.2622     21.3948      2.5632      0.0893
  1496.5000     99.6198      8.1766      4.7725     20.9316      2.5713      0.0584
  1496.6000     91.5436      8.1766      4.0132     20.3851      2.5838      0.0600
  1496.7000     82.3261      8.1766      3.5040     19.8343      2.5922      0.0881
  1496.8000     72.3475      8.1745      3.6298     19.4006      2.5901      0.0674
  1496.9000     64.3085      8.1745      4.6934     19.2892      2.5726      0.0724
  1497.0000     58.9194      8.1876      6.5734     19.4858      2.5415      0.0331
  1497.1000     56.0808      8.1876      8.3942     19.6391      2.5115      0.0451
  1497.2000     55.5244      8.1876      9.4489     19.3491      2.4941      0.0186
  1497.3000     56.9551      8.1796      9.3837     18.6815      2.4952      0.0133
  1497.4000     60.9230      8.1796      8.4206     18.0805      2.5111      0.0706
  1497.5000     65.6690      8.1780      7.4782     17.7410      2.5266      0.0609
  1497.6000     68.9222      8.1780      7.2143     17.4818      2.5310      0.0695
  1497.7000     68.7978      8.1780      7.9269     17.1894      2.5192      0.1005
  1497.8000     64.6790      8.1784      9.4664     16.9423      2.4938      0.0803
  1497.9000     58.2135      8.1784     11.1002     16.7376      2.4668      0.0457
  1498.0000     53.2028      8.1737     12.3198     16.5020      2.4467      0.0687
  1498.1000     51.8746      8.1737     12.8431     16.2084      2.4381      0.0248
  1498.2000     53.4577      8.1737     12.4016     15.9856      2.4454      0.0126
  1498.3000     56.6155      8.1716     11.7140     15.9361      2.4567      0.0759
  1498.4000     60.8654      8.1716     11.7239     15.8342      2.4566      0.0555
  1498.5000     65.7488      8.1665     11.9300     15.6050      2.4532      0.0044
  1498.6000     68.0927      8.1665     11.8022     15.4921      2.4553      0.0767
  1498.7000     66.9273      8.1665     11.9807     15.4402      2.4523      0.0535
  1498.8000     67.7376      8.1708     12.4009     15.2945      2.4454      0.0265
  1498.9000     71.8878      8.1708     12.4025     15.1428      2.4454      0.0546
  1499.0000     72.5930      8.2004     12.2702     14.9425      2.4475      0.0375
  1499.1000     70.1743      8.2004     12.4082     14.8187      2.4453      0.0671
  1499.2000     70.5214      8.2004     12.6663     15.0261      2.4410      0.0467
  1499.3000     72.6491      8.2063     12.7772     15.2854      2.4392      0.0390
  1499.4000     73.6017      8.2063     12.7049     15.3207      2.4404      0.0609
  1499.5000     70.7264      8.2045     12.8403     15.3552      2.4381      0.0755
  1499.6000     63.9829      8.2045     13.6784     15.5009      2.4243      0.0355
  1499.7000     59.4923      8.2045     14.9195     15.5750      2.4038      0.0353
  1499.8000     61.3992      8.2039     15.7763     15.5138      2.3897      0.0321
  1499.9000     65.3761      8.2039     15.9322     15.3920      2.3871      0.0187
  1500.0000     66.5707      8.1981     15.3429     15.1912      2.3968      0.0235
  1500.1000     67.5187      8.1981     14.1678     14.8941      2.4162      0.0217
  1500.2000     67.4264      8.1981     13.2585     14.5179      2.4312      0.0804
  1500.3000     63.3748      8.1901     13.2866     14.2108      2.4308      0.0388
  1500.4000     60.4808      8.1901     13.6944     13.9804      2.4240      0.0256
  1500.5000     63.0217      8.1888     13.8103     13.3566      2.4221      0.0477
  1500.6000     68.6588      8.1888     13.7032     12.3429      2.4239      0.0237
  1500.7000     72.3480      8.1888     13.6636     11.7388      2.4246      0.0380
  1500.8000     71.6541      8.1875     13.8754     12.2117      2.4211      0.0306
  1500.9000     71.4708      8.1875     13.9622     13.9285      2.4196     -0.0105
  1501.0000     74.4142      8.1943     13.7157     16.5507      2.4237      0.0425
  1501.1000     75.0639      8.1943     13.8219     19.4766      2.4219      0.0589
  1501.2000     71.8866      8.1943     14.3770     22.3474      2.4128      0.0155
  1501.3000     68.9987      8.1989     14.5234     25.0319      2.4104      0.0381
  1501.4000     66.3734      8.1989     13.8241     27.5324      2.4219      0.0375
