~Version Information
 VERS.                                  2.0 : CWLS LAS VERSION
 WRAP.                                   NO : WRAPING MODE
 SWARE .                 MController 2.5.0J : SOFTWARE VERSION
~Well Information
 WELL.                        Montoya 1-24V : WELL
 COMP.                       Petrogulf Corp : COMPANY
 FLD.                      Purgatoire River : FIELD
 LOC.                 SE/SW Sec 1 T33S R68W : LOCATION
 DATE.                          10/19-20/04 : DATE(S) LOGGED
 SRVC.       Blanco Geological Services LLC : SERVICE COMPANY
 STAT.                                   CO : STATE
 CNTY.                           Las Animas : COUNTY
 CTRY.                                  USA : COUNTRY
 API.                       05-071-08194-00 : API NUMBER
 STRT.FT                             116.00 : START DEPTH
 STOP.FT                            2700.00 : STOP DEPTH
 STEP.FT                               1.00 : DEPTH INCREMENT
 NULL.                                -9999 : NULL VALUE
~Curve information
 DEPTH.FT                                   :
 ROP.MIN/FT                                 :
 GAS.UNITS                                  :
~ASCII Log data
# ...
      1316.0         0.27         21.2 
      1317.0         0.33         14.3 
      1318.0         0.37         10.6 
      1319.0         0.33          6.3 
      1320.0         0.27          2.7 
      1321.0         0.30          2.0 
      1322.0         0.27          2.3 
      1323.0         0.23          2.3 
      1324.0         0.23          2.2 
      1325.0         0.22          1.4 
      1326.0         0.13          1.4 
      1327.0         0.13          1.7 
      1328.0         0.13          1.1 
      1329.0         0.17          0.9 
      1330.0         0.10          0.9 
      1331.0         0.17          0.7 
      1332.0         0.17          0.5 
      1333.0         0.10          0.2 
      1334.0         0.27          0.6 
      1335.0         0.23          0.4 
      1336.0         0.30          5.3 
      1337.0         0.27        186.6 
      1338.0         0.30       1431.7 
      1339.0         0.23       1864.0 
      1340.0         0.20       2174.3 
      1341.0         0.18       2118.7 
      1342.0         0.20       2118.7 
      1343.0         0.17       1889.9 
      1344.0         0.23       1750.1 
      1345.0         0.07       1443.8 
      1346.0         0.27        974.5 
      1347.0         0.10        916.6 
      1348.0         0.17        624.8 
      1349.0         0.37        551.7 
      1350.0         0.27         63.3 
      1351.0         0.32         30.6 
      1352.0         0.27         20.3 
      1353.0         0.37         12.7 
      1354.0         0.40          8.1 
      1355.0         0.23          5.4 
      1356.0         0.23          4.0 
      1357.0         0.17          2.5 
      1358.0         0.17          0.7 
      1359.0         0.17          0.7 
      1360.0         0.20          0.6 
      1361.0         0.20          0.8 
      1362.0         0.30          1.0 
      1363.0         0.23          0.8 
      1364.0         0.25       1764.9 
      1365.0         0.13       1624.4 
      1366.0         0.17       1624.4 
      1367.0         0.13       1581.0 
      1368.0         0.20       1473.2 
      1369.0         0.20       1465.1 
      1370.0         0.20       1103.9 
      1371.0         0.17        724.9 
      1372.0         0.20        541.9 
      1373.0         0.20        455.3 
      1374.0         0.23         91.3 
      1375.0         0.27         76.3 
      1376.0         0.40         22.5 
      1377.0         0.37          9.3 
      1378.0         0.27          6.0 
      1379.0         0.25          6.5 
      1380.0         0.27          7.5 
      1381.0         0.23          7.1 
      1382.0         0.23          6.1 
      1383.0         0.20          4.9 
      1384.0         0.23          3.4 
      1385.0         0.23          3.1 
      1386.0         0.20          0.8 
      1387.0         0.20          0.3 
      1388.0         0.20         -0.6 
      1389.0         0.23         -0.8 
      1390.0         0.20         -0.9 
      1391.0         0.17         -0.7 
      1392.0         0.20         -1.1 
      1393.0         0.20         -1.2 
      1394.0         0.17        183.3 
      1395.0         0.22        183.3 
      1396.0         0.20        455.9 
      1397.0         0.20       1938.1 
      1398.0         0.20       1938.1 
      1399.0         0.20       1975.2 
      1400.0         0.20       1951.6 
      1401.0         0.20       1931.0 
      1402.0         0.17       1696.9 
      1403.0         0.17       1358.3 
      1404.0         0.27       1189.1 
      1405.0         0.37        770.3 
      1406.0         0.40        440.0 
      1407.0         0.37         65.0 
      1408.0         0.33         17.5 
      1409.0         0.30          5.7 
      1410.0         0.33          2.0 
      1411.0         0.27          0.5 
      1412.0         0.27         -0.1 
      1413.0         0.25          0.1 
      1414.0         0.23          0.5 
      1415.0         0.23          0.3 
      1416.0         0.20         -0.3 
      1417.0         0.17         -0.3 
      1418.0         0.20         -0.7 
      1419.0         0.20         -0.5 
      1420.0         0.20         -0.3 
      1421.0         0.17          0.2 
      1422.0         0.20          0.5 
      1423.0         0.20          0.1 
      1424.0         0.20          0.0 
      1425.0         0.17       2288.1 
      1426.0         0.13        527.4 
      1427.0         0.13        479.9 
      1428.0         0.20         95.2 
      1429.0         0.20         76.4 
      1430.0         0.25         60.6 
      1431.0         0.20         30.9 
      1432.0         0.20         13.8 
      1433.0         0.27          8.7 
      1434.0         0.30          5.2 
      1435.0         0.27          6.1 
      1436.0         0.27          6.9 
      1437.0         0.20          5.8 
      1438.0         0.17          5.8 
      1439.0         0.20          4.8 
      1440.0         0.27          3.0 
      1441.0         0.28          2.5 
      1442.0         0.43          0.7 
      1443.0         0.33         -1.5 
      1444.0         0.20         -1.7 
      1445.0         0.27         -1.8 
      1446.0         0.23         -1.9 
      1447.0         0.17         -2.0 
      1448.0         0.20         -2.0 
      1449.0         0.27         -2.2 
      1450.0         0.27         -2.2 
      1451.0         0.23         -2.1 
      1452.0         0.27         -2.1 
      1453.0         0.23         -2.3 
      1454.0         0.18         -2.3 
      1455.0         0.23         -2.3 
      1456.0         0.30         -2.5 
      1457.0         0.23       1789.8 
      1458.0         0.43       1051.3 
      1459.0         0.20        991.7 
      1460.0         0.17        573.3 
      1461.0         0.17        440.0 
      1462.0         0.23        440.0 
      1463.0         0.27        119.0 
      1464.0         0.27        119.7 
      1465.0         0.27        105.5 
      1466.0         0.33         64.5 
      1467.0         0.33         31.4 
      1468.0         0.30         22.9 
      1469.0         0.27         14.1 
      1470.0         0.27          8.8 
      1471.0         0.28          5.2 
      1472.0         0.23          1.9 
      1473.0         0.20          0.9 
      1474.0         0.23         -0.2 
      1475.0         0.27         -0.8 
      1476.0         0.23         -1.5 
      1477.0         0.23         -1.6 
      1478.0         0.17         -2.1 
      1479.0         0.17         -2.3 
      1480.0         0.23         -2.3 
      1481.0         0.20         -2.2 
      1482.0         0.20         -1.9 
      1483.0         0.23       2279.4 
      1484.0         0.30        821.6 
      1485.0         0.17        662.5 
      1486.0         0.22        540.9 
      1487.0         0.17        502.5 
      1488.0         0.13        440.0 
      1489.0         0.10        440.0 
      1490.0         0.13         80.5 
      1491.0         0.13         74.6 
      1492.0         0.20         38.8 
      1493.0         0.17         27.5 
      1494.0         0.20         11.2 
      1495.0         0.23          9.9 
      1496.0         0.33          8.5 
      1497.0         0.40          9.6 
      1498.0         0.30          9.7 
      1499.0         0.28          7.4 
      1500.0         0.17          3.7 
      1501.0         0.27          3.3 
      1502.0         0.33          2.9 
      1503.0         0.30          1.6 
      1504.0         0.23          0.1 
      1505.0         0.13          0.0 
      1506.0         0.20         -1.5 
      1507.0         0.20         -1.9 
      1508.0         0.13         -1.9 
      1509.0         0.23         -2.1 
      1510.0         0.30         -2.3 
      1511.0         0.27         -2.4 
      1512.0         0.23         -2.4 
      1513.0         0.27         -2.6 
      1514.0         0.25         -3.0 
      1515.0         0.27         -2.8 
