~Version Information
VERS.                      2.0: CWLS Log ASCII Standard - VERSION 2.0
WRAP.                       NO: One line per depth step
~Well Information Block
STRT.FT               185.5000: 
STOP.FT              2039.2500: 
STEP.FT                 0.2500: 
NULL.                -999.2500: 
COMP.          Petrogulf Corporation: COMPANY
WELL.            Montoya 7-12R: WELL
FLD.           Purgatorie River: FIELD
LOC.           1769' FNL & 658' FWL--: LOCATION
PROV.                       CO: PROVINCE
CNTY.               Las Animas: COUNTRY
SRVC.                         : SERVICE COMPANY
DATE.          Wed Feb 09 09:05:42 2005: LOG DATE
UWI.         005 071 08240  : UNIQUE WELL ID
~Curve Information Block
DEPT.FT            0 000 00 00: Depth
CCL.                          : Casing Collar Locator
CCLRT.                        : CCLRT
TT3.usec                      : CBL 3' Travel Time
AMP3.mV                       : CBL 3' Amplitude
GR.GAPI                       : Gamma Ray
~Parameter Information Block
~A  Depth       CCL        CCLRT        TT3         AMP3         GR     
# ...
   661.5000      0.0000   -999.2500    743.0722      7.2074    101.8345
   661.7500      0.0000   -999.2500    737.9427      7.2291     96.1788
   662.0000      0.0000   -999.2500    734.0878      7.2685     88.8038
   662.2500      0.0000   -999.2500    727.7628      7.2988     80.4199
   662.5000      0.0000   -999.2500    710.9671      7.3303     73.0336
   662.7500      0.0000   -999.2500    678.5314      7.3952     68.2536
   663.0000      0.0000   -999.2500    637.5370      7.5126     66.5302
   663.2500      0.0000   -999.2500    607.8933      7.6682     67.5751
   663.5000      0.0000   -999.2500    607.9968      7.8340     70.8450
   663.7500      0.0000   -999.2500    638.0581      7.9990     75.5513
   664.0000      0.0000   -999.2500    680.4958      8.1634     80.8072
   664.2500      0.0000   -999.2500    716.0973      8.3116     86.2701
   664.5000      0.0000   -999.2500    736.0933      8.4128     92.5090
   664.7500      0.0000   -999.2500    740.8976      8.4499    100.3993
   665.0000      0.0000   -999.2500    734.6874      8.4342    110.0239
   665.2500      0.0000   -999.2500    723.8625      8.3896    119.9944
   665.5000      0.0000   -999.2500    716.3082      8.3295    127.7442
   665.7500      0.0000   -999.2500    717.4822      8.2552    130.9218
   666.0000      0.0000   -999.2500    726.8019      8.1725    128.9657
   666.2500      0.0000   -999.2500    739.2013      8.1012    123.3343
   666.5000      0.0000   -999.2500    750.0787      8.0569    116.2725
   666.7500      0.0000   -999.2500    758.0072      8.0243    109.7370
   667.0000      0.0000   -999.2500    763.3738      7.9581    105.2857
   667.2500      0.0000   -999.2500    765.9789      7.8201    104.2550
   667.5000      0.0000   -999.2500    764.6285      7.6108    107.6233
   667.7500      0.0000   -999.2500    758.9916      7.3623    115.4413
   668.0000      0.0000   -999.2500    751.4330      7.1099    126.0878
   668.2500      0.0000   -999.2500    746.1209      6.8724    136.5702
   668.5000      0.0000   -999.2500    745.7845      6.6447    144.3011
   668.7500      0.0000   -999.2500    749.2961      6.4000    148.5646
   669.0000      0.0000   -999.2500    752.2696      6.1084    149.9815
   669.2500      0.0000   -999.2500    749.9634      5.7655    148.9283
   669.5000      0.0000   -999.2500    740.4186      5.4016    144.9635
   669.7500      0.0000   -999.2500    725.7220      5.0619    137.7318
   670.0000      0.0000   -999.2500    710.1932      4.7798    128.0298
   670.2500      0.0000   -999.2500    696.5417      4.5690    117.6843
   670.5000      0.0000   -999.2500    683.8162      4.4303    108.2076
   670.7500      0.0000   -999.2500    669.8526      4.3541     99.7851
   671.0000      0.0000   -999.2500    655.3697      4.3159     91.8676
   671.2500      0.0000   -999.2500    643.3417      4.2798     84.5364
   671.5000      0.0000   -999.2500    633.3440      4.2157     78.7164
   671.7500      0.0000   -999.2500    620.3719      4.1158     75.0827
   672.0000      0.0000   -999.2500    603.1183      3.9980     73.3907
   672.2500      0.0000   -999.2500    590.5814      3.8928     72.9780
   672.5000      0.0000   -999.2500    594.9661      3.8255     73.4588
   672.7500      0.0000   -999.2500    618.3345      3.8090     74.9069
   673.0000      0.0000   -999.2500    650.2589      3.8474     77.7371
   673.2500      0.0000   -999.2500    678.2449      3.9385     82.5902
   673.5000      0.0000   -999.2500    696.9536      4.0722     90.1568
   673.7500      0.0000   -999.2500    707.8137      4.2329    100.7634
   674.0000      0.0000   -999.2500    713.8632      4.4039    113.7533
   674.2500      0.0000   -999.2500    716.7534      4.5720    127.1547
   674.5000      0.0000   -999.2500    717.0442      4.7339    138.3027
   674.7500      0.0000   -999.2500    715.3621      4.9023    145.4897
   675.0000      0.0000   -999.2500    712.8298      5.1008    149.6379
   675.2500      0.0000   -999.2500    710.9268      5.3485    154.1516
   675.5000      0.0000   -999.2500    711.2239      5.6500    162.0223
   675.7500      0.0000   -999.2500    714.7933      6.0011    172.5109
   676.0000      0.0000   -999.2500    721.3683      6.3994    181.4014
   676.2500      0.0000   -999.2500    729.3716      6.8410    185.0694
   676.5000      0.0000   -999.2500    737.0518      7.3041    183.7144
   676.7500      0.0000   -999.2500    743.2201      7.7461    180.2458
   677.0000      0.0000   -999.2500    747.0424      8.1200    176.9362
   677.2500      0.0000   -999.2500    747.9854      8.3936    173.8966
   677.5000      0.0000   -999.2500    746.4113      8.5573    170.1737
   677.7500      0.0000   -999.2500    743.9019      8.6277    165.5827
   678.0000      0.0000   -999.2500    742.4318      8.6464    161.2728
   678.2500      0.0000   -999.2500    743.0287      8.6628    158.3253
   678.5000      0.0000   -999.2500    745.4013      8.7104    156.0302
   678.7500      0.0000   -999.2500    748.5380      8.8045    152.5768
   679.0000      0.0000   -999.2500    751.0531      8.9611    147.7085
   679.2500      0.0000   -999.2500    751.5359      9.1899    143.6019
   679.5000      0.0000   -999.2500    749.5455      9.4620    142.7029
   679.7500      0.0000   -999.2500    746.1431      9.7079    145.4737
   680.0000      0.0000   -999.2500    742.9123      9.8684    150.3152
   680.2500      0.0000   -999.2500    740.7009      9.9325    155.0077
   680.5000      0.0000   -999.2500    739.4967      9.9169    158.1918
   680.7500      0.0000   -999.2500    738.9933      9.8270    159.8606
   681.0000      0.0000   -999.2500    738.9155      9.6584    160.6007
   681.2500      0.0000   -999.2500    739.0013      9.4293    160.6037
   681.5000      0.0000   -999.2500    739.0022      9.1952    159.6678
   681.7500      0.0000   -999.2500    738.7318      9.0231    157.8728
   682.0000      0.0000   -999.2500    737.7834      8.9502    155.6618
   682.2500      0.0000   -999.2500    734.6100      8.9726    153.3190
   682.5000      0.0000   -999.2500    725.3475      9.0751    150.9891
   682.7500      0.0000   -999.2500    704.2316      9.2567    149.2194
   683.0000      0.0000   -999.2500    668.0103      9.5167    148.6220
   683.2500      0.0000   -999.2500    622.4186      9.8317    148.8172
   683.5000      0.0000   -999.2500    581.4018     10.1750    148.3562
   683.7500      0.0000   -999.2500    553.9526     10.5641    145.8874
   684.0000      0.0000   -999.2500    532.2106     11.0731    141.1166
   684.2500      0.0000   -999.2500    499.3061     11.7778    134.9273
   684.5000      0.0000   -999.2500    449.6394     12.6726    129.0093
   684.7500      0.0000   -999.2500    395.3222     13.6339    125.3123
   685.0000      0.0000   -999.2500    352.5191     14.4791    125.3230
   685.2500      0.0000   -999.2500    327.5160     15.0839    129.2666
   685.5000      0.0000   -999.2500    316.4678     15.4516    135.9661
   685.7500      0.0000   -999.2500    312.7749     15.6678    143.8194
   686.0000      0.0000   -999.2500    311.9340     15.8023    151.7976
   686.2500      0.0000   -999.2500    311.9919     15.8675    159.0327
   686.5000      0.0000   -999.2500    312.4216     15.8519    163.8632
   686.7500      0.0000   -999.2500    313.5943     15.7578    164.3560
   687.0000      0.0000   -999.2500    317.3590     15.5850    160.0287
   687.2500      0.0000   -999.2500    328.1330     15.2998    152.6719
   687.5000      0.0000   -999.2500    352.2787     14.8613    145.3987
   687.7500      0.0000   -999.2500    392.7458     14.2979    140.8586
   688.0000      0.0000   -999.2500    440.7773     13.7393    139.8034
   688.2500      0.0000   -999.2500    475.5125     13.3454    140.9628
   688.5000      0.0000   -999.2500    479.4175     13.1925    142.4907
   688.7500      0.0000   -999.2500    457.4788     13.2135    143.5637
   689.0000      0.0000   -999.2500    437.5854     13.2341    144.2055
   689.2500      0.0000   -999.2500    449.0614     13.0833    144.0388
