~Version Information
 VERS.                      2.0: CWLS Log ASCII Standard - VERSION 2.0
 WRAP.                       NO: One line per depth step
 ~Well Information Block
 STRT.FT               887.5000: 
 STOP.FT              2605.5000: 
 STEP.FT                 0.2500: 
 NULL.                -999.2500: 
 COMP.          Petrogulf Corporation: COMPANY
 WELL.               YWAM 7-23V: WELL
 FLD.           Purgatorie River: FIELD
 LOC.           230' FSL & 225' FWL: LOCATION
 CNTY.               Las Animas: COUNTY
 SRVC.                         : SERVICE COMPANY
 DATE.          Sat Oct 30 08:34:45 2004: LOG DATE
 UWI.           05 071 08227 00: UNIQUE WELL ID
 STAT.                 Colorado: STATE
 PROV.                         :Province
 ~Curve Information Block
 DEPT.FT            0 000 00 00: Depth
 SP.mV                         : DIL Spontaneous Potential
 RILD.Ohm-m                    : DIL Deep Resistivity
 RILM.Ohm-m                    : DIL Medium Resistivity
 RLL3.Ohm-m                    : DIL Shallow Resistivity
 GR.GAPI                       : Gamma Ray
 ~Parameter Information Block
 ~A  Depth        SP         RILD        RILM        RLL3         GR     
# ...
  1027.5000   2000.0000     15.1965     13.2853   2000.0000    108.9807
  1027.7500   2000.0000     15.3334     13.2665   2000.0000    109.6511
  1028.0000   2000.0000     15.5417     13.3321   2000.0000    111.8916
  1028.2500   2000.0000     15.8176     13.4842   2000.0000    114.0979
  1028.5000   2000.0000     16.1581     13.7259   2000.0000    117.7984
  1028.7500   2000.0000     16.5612     14.0615   2000.0000    119.8060
  1029.0000   2000.0000     17.0268     14.4953   2000.0000    120.7766
  1029.2500   2000.0000     17.5562     15.0309   2000.0000    119.6427
  1029.5000   2000.0000     18.1526     15.6710   2000.0000    115.7648
  1029.7500   2000.0000     18.8200     16.4178   2000.0000    112.5599
  1030.0000   2000.0000     19.5617     17.2732   2000.0000    108.2301
  1030.2500   2000.0000     20.3789     18.2404   2000.0000    106.1062
  1030.5000   2000.0000     21.2660     19.3245   2000.0000    104.2219
  1030.7500   2000.0000     22.2088     20.5317   2000.0000    103.7370
  1031.0000   2000.0000     23.1806     21.8663   2000.0000    103.6685
  1031.2500   2000.0000     24.1403     23.3255   2000.0000    103.4559
  1031.5000   2000.0000     25.0346     24.8900   2000.0000    101.7381
  1031.7500   2000.0000     25.8038     26.5138   2000.0000     99.5708
  1032.0000   2000.0000     26.3923     28.1148   2000.0000     96.1403
  1032.2500   2000.0000     26.7609     29.5724   2000.0000     94.6944
  1032.5000   2000.0000     26.8961     30.7407   2000.0000     94.0762
  1032.7500   2000.0000     26.8124     31.4771   2000.0000     94.1062
  1033.0000   2000.0000     26.5454     31.6807   2000.0000     93.8998
  1033.2500   2000.0000     26.1418     31.3267   2000.0000     93.5565
  1033.5000   2000.0000     25.6486     30.4726   2000.0000     93.1183
  1033.7500   2000.0000     25.1056     29.2412   2000.0000     93.0754
  1034.0000   2000.0000     24.5445     27.7819   2000.0000     93.6849
  1034.2500   2000.0000     23.9885     26.2406   2000.0000     94.8057
  1034.5000   2000.0000     23.4561     24.7367   2000.0000     98.1478
  1034.7500   2000.0000     22.9632     23.3582   2000.0000    101.7694
  1035.0000   2000.0000     22.5249     22.1619   2000.0000    109.3543
  1035.2500   2000.0000     22.1549     21.1816   2000.0000    115.4259
  1035.5000   2000.0000     21.8649     20.4329   2000.0000    124.3897
  1035.7500   2000.0000     21.6636     19.9203   2000.0000    128.9876
  1036.0000   2000.0000     21.5552     19.6399   2000.0000    132.1920
  1036.2500   2000.0000     21.5388     19.5829   2000.0000    131.8015
  1036.5000   2000.0000     21.6079     19.7360   2000.0000    128.6851
  1036.7500   2000.0000     21.7509     20.0825   2000.0000    125.7828
  1037.0000   2000.0000     21.9503     20.6017   2000.0000    120.8813
  1037.2500   2000.0000     22.1829     21.2679   2000.0000    117.3475
  1037.5000   2000.0000     22.4204     22.0494   2000.0000    112.1811
  1037.7500   2000.0000     22.6309     22.9060   2000.0000    109.4139
  1038.0000   2000.0000     22.7808     23.7857   2000.0000    106.9976
  1038.2500   2000.0000     22.8393     24.6210   2000.0000    106.4717
  1038.5000   2000.0000     22.7830     25.3281   2000.0000    106.5688
  1038.7500   2000.0000     22.6000     25.8132   2000.0000    106.8134
  1039.0000   2000.0000     22.2928     25.9883   2000.0000    107.2660
  1039.2500   2000.0000     21.8772     25.7960   2000.0000    107.8222
  1039.5000   2000.0000     21.3787     25.2317   2000.0000    109.5271
  1039.7500   2000.0000     20.8275     24.3502   2000.0000    111.4045
  1040.0000   2000.0000     20.2528     23.2515   2000.0000    115.3514
  1040.2500   2000.0000     19.6788     22.0528   2000.0000    118.7699
  1040.5000   2000.0000     19.1234     20.8596   2000.0000    125.2296
  1040.7500   2000.0000     18.5974     19.7504   2000.0000    130.2714
  1041.0000   2000.0000     18.1056     18.7722   2000.0000    137.7216
  1041.2500   2000.0000     17.6483     17.9444   2000.0000    141.4494
  1041.5000   2000.0000     17.2239     17.2657   2000.0000    143.4407
  1041.7500   2000.0000     16.8303     16.7218   2000.0000    142.1550
  1042.0000   2000.0000     16.4668     16.2904   2000.0000    137.6788
  1042.2500   2000.0000     16.1351     15.9451   2000.0000    134.3422
  1042.5000   2000.0000     15.8389     15.6594   2000.0000    130.7998
  1042.7500   2000.0000     15.5835     15.4089   2000.0000    129.9887
  1043.0000   2000.0000     15.3742     15.1735   2000.0000    130.9305
  1043.2500   2000.0000     15.2146     14.9398   2000.0000    132.4036
  1043.5000   2000.0000     15.1064     14.7008   2000.0000    134.7309
  1043.7500   2000.0000     15.0483     14.4566   2000.0000    135.9463
  1044.0000   2000.0000     15.0364     14.2135   2000.0000    137.1692
  1044.2500   2000.0000     15.0655     13.9820   2000.0000    137.7879
  1044.5000   2000.0000     15.1304     13.7757   2000.0000    138.9742
  1044.7500   2000.0000     15.2271     13.6096   2000.0000    140.1748
  1045.0000   2000.0000     15.3541     13.4989   2000.0000    142.4257
  1045.2500   2000.0000     15.5125     13.4580   2000.0000    143.7899
  1045.5000   2000.0000     15.7063     13.4999   2000.0000    144.9212
  1045.7500   2000.0000     15.9416     13.6361   2000.0000    145.0305
  1046.0000   2000.0000     16.2255     13.8764   2000.0000    144.6707
  1046.2500   2000.0000     16.5653     14.2289   2000.0000    144.2681
  1046.5000   2000.0000     16.9683     14.6999   2000.0000    143.2090
  1046.7500   2000.0000     17.4405     15.2945   2000.0000    141.8178
  1047.0000   2000.0000     17.9865     16.0163   2000.0000    137.9249
  1047.2500   2000.0000     18.6089     16.8676   2000.0000    133.8193
  1047.5000   2000.0000     19.3077     17.8496   2000.0000    125.5033
  1047.7500   2000.0000     20.0789     18.9626   2000.0000    118.9860
  1048.0000   2000.0000     20.9147     20.2054   2000.0000    108.8634
  1048.2500   2000.0000     21.8028     21.5757   2000.0000    102.4244
  1048.5000   2000.0000     22.7281     23.0683   2000.0000     93.6668
  1048.7500   2000.0000     23.6738     24.6742   2000.0000     88.5326
  1049.0000   2000.0000     24.6242     26.3770   2000.0000     82.4480
  1049.2500   2000.0000     25.5651     28.1497   2000.0000     80.1316
  1049.5000   2000.0000     26.4843     29.9501   2000.0000     80.2748
  1049.7500   2000.0000     27.3677     31.7173   2000.0000     82.7837
  1050.0000   2000.0000     28.1963     33.3689   2000.0000     88.9869
  1050.2500   2000.0000     28.9432     34.8069   2000.0000     93.7348
  1050.5000   2000.0000     29.5747     35.9299   2000.0000    100.3078
  1050.7500   2000.0000     30.0542     36.6520   2000.0000    103.8237
  1051.0000   2000.0000     30.3513     36.9254   2000.0000    107.3820
  1051.2500   2000.0000     30.4497     36.7545   2000.0000    108.5394
  1051.5000   2000.0000     30.3538     36.1978   2000.0000    108.8783
  1051.7500   2000.0000     30.0865     35.3503   2000.0000    108.7481
  1052.0000   2000.0000     29.6840     34.3202   2000.0000    108.8382
  1052.2500   2000.0000     29.1860     33.2041   2000.0000    109.1787
  1052.5000   2000.0000     28.6303     32.0742   2000.0000    110.0151
  1052.7500   2000.0000     28.0473     30.9729   2000.0000    110.8342
  1053.0000   2000.0000     27.4598     29.9172   2000.0000    112.2772
  1053.2500   2000.0000     26.8844     28.9081   2000.0000    112.9223
  1053.5000   2000.0000     26.3338     27.9408   2000.0000    112.6978
  1053.7500   2000.0000     25.8188     27.0130   2000.0000    111.9166
  1054.0000   2000.0000     25.3483     26.1314   2000.0000    111.0993
  1054.2500   2000.0000     24.9295     25.3101   2000.0000    111.6461
  1054.5000   2000.0000     24.5670     24.5687   2000.0000    114.8026
  1054.7500   2000.0000     24.2608     23.9268   2000.0000    118.2913
  1055.0000   2000.0000     24.0058     23.3994   2000.0000    124.6529
  1055.2500   2000.0000     23.7911     22.9934   2000.0000    128.9469
