~Version Information
VERS.                      2.0: CWLS Log ASCII Standard - VERSION 2.0
WRAP.                       NO: One line per depth step
~Well Information Block
STRT.FT                -6.5000: 
STOP.FT              1719.0000: 
STEP.FT                 0.5000: 
NULL.                -999.2500: 
COMP.          Pioneer Natural Resources: COMPANY
WELL.             Tami J 23-18: WELL
FLD.           Purgatorie River: FIELD
LOC.           2250' FSL & 2400' FWL: LOCATION
PROV.                 Colorado: PROVINCE
CNTY.               Las Animas: COUNTRY
SRVC.          Patterson Wireline: SERVICE COMPANY
DATE.          Fri Dec 17 13:50:12 2004: LOG DATE
UWI.           05-071-08073-00: UNIQUE WELL ID
~Curve Information Block
DEPT.FT            0 000 00 00: Depth
CCL.                          : Casing Collar Locator
TT3.usec                      : CBL 3' Travel Time
AMP3.mV                       : CBL 3' Amplitude
GR.GAPI                       : Gamma Ray
~Parameter Information Block
~A  Depth       CCL         TT3         AMP3         GR     
# ...
   529.5000      0.0000    760.9471      6.3750    115.7137
   530.0000      0.0000    763.8663      6.4755    122.3020
   530.5000      0.0000    760.1837      6.4870    116.0677
   531.0000      0.0000    769.0256      6.4249    106.9778
   531.5000      0.0000    791.6480      6.5248    103.7120
   532.0000      0.0000    800.6925      6.5537    102.8847
   532.5000      0.0000    778.8656      6.5645    109.6983
   533.0000      0.0000    752.1305      6.6772    113.6062
   533.5000      0.0000    748.4023      6.6529    106.5793
   534.0000      0.0000    772.9153      6.7131    102.1625
   534.5000      0.0000    803.7075      6.9992    108.4036
   535.0000      0.0000    820.3884      7.3954    120.6362
   535.5000      0.0000    825.6920      7.7868    126.0042
   536.0000      0.0000    816.5547      7.9268    125.5389
   536.5000      0.0000    803.6600      7.9124    125.2566
   537.0000      0.0000    798.6158      7.8242    121.3122
   537.5000      0.0000    788.9579      7.6228    111.1164
   538.0000      0.0000    773.0295      7.4177    101.3818
   538.5000      0.0000    777.6154      7.2312     94.3425
   539.0000      0.0000    797.5660      7.1158     85.9979
   539.5000      0.0000    815.2771      7.0262     84.1750
   540.0000      0.0000    822.7506      6.9309     91.8618
   540.5000      0.0000    799.4102      6.7737     89.4097
   541.0000      0.0000    758.7125      6.6719     77.0851
   541.5000      0.0000    745.2848      6.2557     71.2571
   542.0000      0.0000    757.8961      5.6803     72.5968
   542.5000     -5.0000    771.5544      5.4808     74.8426
   543.0000      0.0000    786.7343      5.4134     71.9809
   543.5000      0.0000    787.1592      5.4653     65.7635
   544.0000      0.0000    782.8555      5.7289     63.4895
   544.5000      0.0000    784.9077      6.1213     64.4369
   545.0000      0.0000    791.8349      6.4746     65.0032
   545.5000      0.0000    801.4317      6.6398     63.0279
   546.0000      0.0000    806.0189      6.6575     60.1023
   546.5000      0.0000    794.7860      6.6462     57.5699
   547.0000      0.0000    773.3967      6.5968     60.9511
   547.5000      0.0000    764.2253      6.4605     67.9693
   548.0000      0.0000    784.7687      6.3375     71.4516
   548.5000      0.0000    817.1732      6.3121     69.3500
   549.0000      0.0000    830.3576      6.2981     68.5366
   549.5000      0.0000    826.8040      6.2765     72.1787
   550.0000      0.0000    815.3616      6.2752     74.0989
   550.5000      0.0000    784.8916      6.3017     71.2953
   551.0000      0.0000    767.9313      6.3087     67.9583
   551.5000      0.0000    783.0313      6.3187     65.1997
   552.0000      0.0000    784.1318      6.3103     60.8956
   552.5000      0.0000    750.2919      6.2888     57.1856
   553.0000      0.0000    716.7225      6.2307     55.8506
   553.5000      0.0000    704.9937      6.1392     55.7182
   554.0000      0.0000    702.8862      6.0628     53.0401
   554.5000      0.0000    702.3148      6.0046     50.0662
   555.0000      0.0000    701.8419      5.9405     52.2140
   555.5000      0.0000    701.4165      5.8767     57.6025
   556.0000      0.0000    701.3045      5.7662     60.2945
   556.5000      0.0000    701.2145      5.6535     58.6550
   557.0000      0.0000    701.0363      5.5770     58.5965
   557.5000      0.0000    701.1786      5.5416     61.3315
   558.0000      0.0000    701.5507      5.5069     62.3747
   558.5000      0.0000    701.7200      5.4439     60.7558
   559.0000      0.0000    701.4421      5.3730     58.1734
   559.5000      0.0000    701.0555      5.3258     55.7392
   560.0000      0.0000    701.2656      5.3772     55.4454
   560.5000      0.0000    702.5649      5.4772     57.2728
   561.0000      0.0000    709.7338      5.5031     60.4749
   561.5000      0.0000    725.4659      5.4448     61.7081
   562.0000      0.0000    738.2419      5.4518     61.0946
   562.5000      0.0000    742.1355      5.5022     58.6227
   563.0000      0.0000    742.2184      5.4919     56.6885
   563.5000      0.0000    741.8762      5.4253     58.4632
   564.0000      0.0000    741.8939      5.3654     59.5289
   564.5000      0.0000    741.9107      5.3819     55.5256
   565.0000      0.0000    739.9307      5.4195     53.4005
   565.5000      0.0000    735.4739      5.4193     54.4164
   566.0000      0.0000    735.3610      5.4166     53.6147
   566.5000      0.0000    739.7548      5.4048     53.3790
   567.0000      0.0000    741.8975      5.4087     54.3174
   567.5000      0.0000    741.7057      5.4505     59.5703
   568.0000      0.0000    740.9046      5.5198     67.9001
   568.5000      0.0000    740.3874      5.5956     70.0871
   569.0000      0.0000    740.8196      5.6628     72.8258
   569.5000      0.0000    740.9391      5.6972     90.8624
   570.0000      0.0000    736.3689      5.6275    118.6999
   570.5000      0.0000    722.9775      5.5090    142.4220
   571.0000      0.0000    699.4974      5.4191    152.4915
   571.5000      0.0000    676.0430      5.3694    152.2235
   572.0000      0.0000    667.1378      5.3688    153.2481
   572.5000      0.0000    677.4468      5.4379    148.9025
   573.0000      0.0000    715.0151      5.5355    144.1441
   573.5000      0.0000    760.3434      5.5573    151.2536
   574.0000      0.0000    775.5309      5.4710    156.4054
   574.5000      0.0000    764.0821      5.2680    144.9720
   575.0000      0.0000    750.9537      5.0135    124.8540
   575.5000      0.0000    745.3171      4.8061    108.8394
   576.0000      0.0000    741.9595      4.7116     97.5194
   576.5000      0.0000    737.1713      4.6364     89.7412
   577.0000      0.0000    736.1535      4.4509     89.3228
   577.5000      0.0000    739.4390      4.2594     89.8558
   578.0000      0.0000    742.5265      4.2440     77.4416
   578.5000      0.0000    750.2339      4.4455     64.5614
   579.0000      0.0000    761.4670      4.7371     66.7094
   579.5000      0.0000    756.3417      4.8240     75.8955
   580.0000      0.0000    737.0000      4.7667     87.3502
   580.5000      0.0000    723.7999      4.8311     96.5154
   581.0000      0.0000    724.1177      5.0882    101.0204
   581.5000      0.0000    727.8190      5.4608    105.1467
   582.0000      0.0000    712.7938      5.7117    109.8244
   582.5000      0.0000    695.0675      5.5768    113.9058
   583.0000      0.0000    700.6757      5.1710    116.3023
   583.5000      0.0000    711.5081      4.8307    102.6066
   584.0000      0.0000    714.3621      4.6691     76.2859
   584.5000      0.0000    718.4224      4.5247     58.8980
   585.0000      0.0000    732.3011      4.2303     49.5143
   585.5000      0.0000    752.0580      4.0022     44.7969
   586.0000      0.0000    777.9015      4.0057     51.8696
   586.5000      0.0000    783.5009      4.1846     65.5845
   587.0000      0.0000    759.6290      4.5374     83.7750
   587.5000      0.0000    759.4869      4.8801    107.4840
   588.0000      0.0000    782.6981      4.9875    125.8787
   588.5000      0.0000    791.6774      5.0753    141.4531
   589.0000      0.0000    790.8776      5.2540    155.9168
   589.5000      0.0000    781.0027      5.4496    156.9128
   590.0000      0.0000    751.7620      5.6506    144.9404
   590.5000      0.0000    732.0114      5.9772    133.2758
   591.0000      0.0000    735.3199      6.3862    122.3472
   591.5000      0.0000    740.5657      6.7798    108.3236
   592.0000      0.0000    741.5020      7.1110     99.3791
   592.5000      0.0000    741.2350      7.3112    104.1646
   593.0000      0.0000    741.2089      7.2884    114.4350
   593.5000      0.0000    741.2379      7.1222    129.7432
   594.0000      0.0000    741.3084      6.9906    145.7159
   594.5000      0.0000    742.8062      6.9297    141.1313
   595.0000      0.0000    746.4446      6.8742    123.1603
   595.5000      0.0000    745.8062      6.8113    108.3924
   596.0000      0.0000    738.9808      6.7772     98.6621
