~Version Information
VERS.                      2.0: CWLS Log ASCII Standard - VERSION 2.0
WRAP.                       NO: One line per depth step
~Well Information Block
STRT.FT               860.0000: 
STOP.FT              2733.7000: 
STEP.FT                 0.1000: 
NULL.                -999.2500: 
COMP.          Pioneer Natural Resources: COMPANY
WELL.          Beacon 11-18 Tr: WELL
FLD.           Purgatoire River: FIELD
LOC.           409' FNL & 203' FWL: LOCATION
PROV.                 Colorado: PROVINCE
CNTY.               Las Animas: COUNTRY
SRVC.                Patterson: SERVICE COMPANY
DATE.          Mon Jan 17 07:36:09 2005: LOG DATE
UWI.           05 071 08251 00: UNIQUE WELL ID
~Curve Information Block
DEPT.FT            0 000 00 00: Depth
DCAL.in                       : CDL Caliper
RHOB.g/cc                     : CDL Bulk Density
RHOC.g/cc                     : CDL Density Correction
DPOR.pu                       : CDL Density Porosity
NPOR.pu                       : Neutron Porosity
GR.GAPI                       : Gamma Ray
~Parameter Information Block
~A  Depth       DCAL        RHOB        RHOC        DPOR        NPOR         GR     
# ...
  1724.0000      8.1073      2.6950      0.1454     -2.7281     24.1117    127.0608
  1724.1000      8.1073      2.7502      0.1932     -6.0730     23.8322    117.0433
  1724.2000      8.1073      2.7623      0.1896     -6.8051     23.7929    108.8538
  1724.3000      8.1093      2.7421      0.1234     -5.5848     24.0797    106.8678
  1724.4000      8.1093      2.7200      0.0965     -4.2424     24.4506    110.7012
  1724.5000      8.1102      2.7105      0.0697     -3.6653     24.9640    113.9615
  1724.6000      8.1102      2.7133      0.0543     -3.8386     25.5774    114.0188
  1724.7000      8.1102      2.7158      0.0711     -3.9865     26.0643    112.5227
  1724.8000      8.1109      2.6987      0.0241     -2.9503     26.3834    110.0686
  1724.9000      8.1109      2.6655      0.0079     -0.9409     26.7178    105.9660
  1725.0000      8.1092      2.6414      0.0118      0.5226     27.2614    100.0199
  1725.1000      8.1092      2.6359      0.0356      0.8534     27.7890     95.5114
  1725.2000      8.1092      2.6412      0.0537      0.5341     28.0690     96.4087
  1725.3000      8.1061      2.6473      0.0785      0.1617     28.3704    100.4656
  1725.4000      8.1061      2.6409      0.0516      0.5493     28.7334    101.6350
  1725.5000      8.1022      2.6175      0.0271      1.9713     28.8998     99.6372
  1725.6000      8.1022      2.5833      0.0331      4.0426     28.9921     98.7415
  1725.7000      8.1022      2.5424      0.0823      6.5201     29.0998    100.8416
  1725.8000      8.0915      2.5048      0.0388      8.7988     28.9398    105.0835
  1725.9000      8.0915      2.4808      0.0658     10.2551     28.4345    109.4719
  1726.0000      8.0795      2.4626      0.0620     11.3605     28.0977    112.1480
  1726.1000      8.0795      2.4448      0.0638     12.4356     28.1633    111.3603
  1726.2000      8.0795      2.4369      0.0665     12.9174     28.0604    107.9151
  1726.3000      8.0706      2.4389      0.0901     12.7911     27.6870    107.0037
  1726.4000      8.0706      2.4474      0.0554     12.2782     27.3353    110.3610
  1726.5000      8.0555      2.4716      0.0861     10.8136     26.8930    113.6902
  1726.6000      8.0555      2.5140      0.1186      8.2395     26.3628    113.5125
  1726.7000      8.0555      2.5578      0.1806      5.5883     25.9574    113.0781
  1726.8000      8.0442      2.5861      0.1928      3.8734     25.6073    115.6956
  1726.9000      8.0442      2.6039      0.1497      2.7924     25.2206    118.8375
  1727.0000      8.0538      2.6234      0.2010      1.6100     24.8343    119.9694
  1727.1000      8.0538      2.6384      0.1987      0.7006     24.5130    119.0798
  1727.2000      8.0538      2.6344      0.1922      0.9445     24.4710    117.3072
  1727.3000      8.0643      2.6095      0.1252      2.4562     24.7511    114.9304
  1727.4000      8.0643      2.5820      0.0964      4.1188     25.1497    112.1997
  1727.5000      8.0678      2.5758      0.0728      4.4951     25.5985    109.7080
  1727.6000      8.0678      2.5881      0.1512      3.7544     26.2018    107.8906
  1727.7000      8.0678      2.5971      0.0698      3.2057     26.8086    106.2295
  1727.8000      8.0712      2.6014      0.0440      2.9448     27.1605    103.9625
  1727.9000      8.0712      2.6044      0.0537      2.7648     27.3948    104.5180
  1728.0000      8.0733      2.6017      0.0490      2.9267     27.7027    109.3872
  1728.1000      8.0733      2.6026      0.0168      2.8702     27.9841    115.3817
  1728.2000      8.0733      2.6153      0.0846      2.1007     28.2865    117.7604
  1728.3000      8.0729      2.6323      0.0699      1.0726     28.7319    115.7187
  1728.4000      8.0729      2.6383      0.1294      0.7120     29.2452    113.3662
  1728.5000      8.0727      2.6236      0.0785      1.6002     29.7227    111.9335
  1728.6000      8.0727      2.6059      0.0494      2.6753     29.9925    110.1768
  1728.7000      8.0727      2.6049      0.0773      2.7352     29.9677    109.8796
  1728.8000      8.0739      2.6181      0.0537      1.9333     29.6287    112.7727
  1728.9000      8.0739      2.6360      0.0743      0.8498     28.9242    116.6483
  1729.0000      8.0744      2.6435      0.0802      0.3958     28.0945    120.1188
  1729.1000      8.0744      2.6255      0.0526      1.4826     27.6133    123.0851
  1729.2000      8.0744      2.5938      0.0202      3.4087     27.4561    124.0420
  1729.3000      8.0732      2.5766      0.0206      4.4459     27.0198    124.5351
  1729.4000      8.0732      2.5851      0.0444      3.9358     26.2650    124.8496
  1729.5000      8.0726      2.6025      0.1000      2.8789     25.7783    123.1741
  1729.6000      8.0726      2.6046      0.1081      2.7491     25.9725    123.3552
  1729.7000      8.0726      2.5836      0.0530      4.0249     26.6538    127.4945
  1729.8000      8.0740      2.5481      0.0825      6.1758     27.0231    130.5321
  1729.9000      8.0740      2.5143      0.0008      8.2239     26.7904    128.8723
  1730.0000      8.0740      2.5032      0.0163      8.8942     26.5505    123.5936
  1730.1000      8.0740      2.5233     -0.0030      7.6776     26.6630    117.0983
  1730.2000      8.0740      2.5669      0.0602      5.0383     26.9726    110.0824
  1730.3000      8.0720      2.6125      0.1118      2.2721     27.3639    102.7379
  1730.4000      8.0720      2.6369      0.0913      0.7956     27.8711     98.0186
  1730.5000      8.0711      2.6337      0.1057      0.9850     28.6529     96.6586
  1730.6000      8.0711      2.6118      0.0418      2.3168     29.8030     96.3549
  1730.7000      8.0711      2.5839      0.0439      4.0090     30.8580     96.7225
  1730.8000      8.0708      2.5548      0.0519      5.7716     31.3524     98.2502
  1730.9000      8.0708      2.5281      0.0201      7.3854     31.3998    100.9210
  1731.0000      8.0695      2.5167      0.0203      8.0787     31.1443    104.4332
  1731.1000      8.0695      2.5201      0.0382      7.8744     30.5009    107.0834
  1731.2000      8.0695      2.5270      0.0734      7.4536     29.5537    108.2104
  1731.3000      8.0711      2.5372      0.0902      6.8380     28.7078    112.9315
  1731.4000      8.0711      2.5506      0.1165      6.0215     28.3036    123.7456
  1731.5000      8.0790      2.5580      0.1142      5.5758     28.2417    133.3206
  1731.6000      8.0790      2.5515      0.0993      5.9680     28.0691    136.1298
  1731.7000      8.0790      2.5335      0.0766      7.0603     27.4872    134.9043
  1731.8000      8.0830      2.5152      0.0730      8.1680     26.8331    132.7760
  1731.9000      8.0830      2.5105      0.0392      8.4561     26.4761    128.7374
  1732.0000      8.0757      2.5248      0.0606      7.5896     26.3167    122.8559
  1732.1000      8.0757      2.5451      0.1138      6.3606     26.2351    118.6771
  1732.2000      8.0757      2.5565      0.0567      5.6693     26.3577    119.1210
  1732.3000      8.0709      2.5608      0.0753      5.4086     26.8129    122.9599
  1732.4000      8.0709      2.5612      0.0719      5.3813     27.2828    127.6260
  1732.5000      8.0715      2.5544      0.0899      5.7967     27.3232    131.0020
  1732.6000      8.0715      2.5343      0.0674      7.0130     27.0010    133.1747
  1732.7000      8.0715      2.5101      0.0383      8.4800     26.8040    136.3844
  1732.8000      8.0739      2.5021      0.0229      8.9655     27.0116    140.6853
  1732.9000      8.0739      2.5087      0.0686      8.5626     27.3068    143.5389
  1733.0000      8.0751      2.5109      0.0556      8.4298     27.1103    143.5860
  1733.1000      8.0751      2.5056      0.0439      8.7539     26.2868    140.6158
  1733.2000      8.0751      2.5067      0.0370      8.6830     25.3583    137.1725
  1733.3000      8.0739      2.5206      0.0349      7.8399     24.6813    137.4501
  1733.4000      8.0739      2.5381      0.0774      6.7837     24.2312    139.9821
  1733.5000      8.0733      2.5452      0.0778      6.3485     24.0504    139.9562
