~Version Information
VERS.                      2.0: CWLS Log ASCII Standard - VERSION 2.0
WRAP.                       NO: One line per depth step
~Well Information Block
STRT.FT               823.7000: 
STOP.FT              2444.0000: 
STEP.FT                 0.1000: 
NULL.                -999.2500: 
COMP.          Petrogulf Corporation: COMPANY
WELL.            Kraft 17-23 V: WELL
FLD.           Purgatorie River: FIELD
LOC.           1500' FSL & 1773' FWL: LOCATION
CNTY.               Las Animas: COUNTY
SRVC.                         : SERVICE COMPANY
DATE.          Thu Nov 20 07:09:00 2003: LOG DATE
UWI.                          : UNIQUE WELL ID
STAT.                 Colorado: STATE
~Curve Information Block
DEPT.FT            0 000 00 00: Depth
DCAL.in                       : CDL Caliper
RHOB.g/cc                     : CDL Bulk Density
RHOC.g/cc                     : CDL Density Correction
DPOR.pu                       : CDL Density Porosity
GR.GAPI                       : Gamma Ray
NPOR.pu                       : Neutron Porosity
~Parameter Information Block
~A  Depth       DCAL        RHOB        RHOC        DPOR         GR         NPOR    
# ...
  1898.9000      8.3479      2.6016      0.1682      2.9309    152.5280     27.4401
  1899.0000      8.2463      2.5939      0.0883      3.4008    152.2250     27.4335
  1899.1000      8.2463      2.5783      0.1193      4.3455    153.5817     27.4445
  1899.2000      8.2463      2.5630      0.0910      5.2722    155.2092     27.3481
  1899.3000      8.2216      2.5497      0.1230      6.0771    151.8315     27.1639
  1899.4000      8.2216      2.5364      0.0831      6.8856    144.9631     26.8461
  1899.5000      8.1793      2.5172      0.0601      8.0456    138.8712     26.3209
  1899.6000      8.1793      2.4814      0.0526     10.2176    133.9274     25.9480
  1899.7000      8.1793      2.4318     -0.0522     13.2262    134.7440     25.9906
  1899.8000      8.1201      2.4003     -0.0613     15.1316    142.0349     26.2355
  1899.9000      8.1201      2.4102     -0.0618     14.5335    146.5031     26.5822
  1900.0000      8.1283      2.4422      0.0552     12.5957    146.3631     27.1120
  1900.1000      8.1283      2.4635      0.0250     11.3057    148.0951     27.6147
  1900.2000      8.1283      2.4654      0.1130     11.1908    148.3596     27.8654
  1900.3000      8.1000      2.4561      0.0610     11.7492    144.0463     28.1579
  1900.4000      8.1000      2.4504      0.0528     12.0989    141.6471     28.6330
  1900.5000      8.0373      2.4596      0.0377     11.5398    140.9964     28.8187
  1900.6000      8.0373      2.4785      0.0900     10.3922    137.1877     28.6172
  1900.7000      8.0373      2.4967      0.0794      9.2879    131.5451     28.5000
  1900.8000      8.0695      2.5169      0.1184      8.0688    125.5582     28.5618
  1900.9000      8.0695      2.5370      0.1216      6.8458    116.9286     28.8259
  1901.0000      8.1298      2.5428      0.1387      6.4966    109.3190     29.4796
  1901.1000      8.1298      2.5259      0.1244      7.5215    107.8683     30.0239
  1901.2000      8.1298      2.4950      0.1273      9.3940    111.0958     30.0225
  1901.3000      8.1725      2.4682      0.1157     11.0166    113.5604     30.1818
  1901.4000      8.1725      2.4653      0.0969     11.1943    112.9082     30.8914
  1901.5000      8.2185      2.4908      0.1657      9.6497    113.0451     31.5164
  1901.6000      8.2185      2.5211      0.2289      7.8102    116.4127     31.7165
  1901.7000      8.2185      2.5301      0.2512      7.2659    123.4324     31.8569
  1901.8000      8.2120      2.5132      0.1854      8.2936    133.5393     32.1176
  1901.9000      8.2120      2.4657      0.2319     11.1672    140.0227     32.2418
  1902.0000      8.1566      2.3838      0.0435     16.1305    136.7739     32.2311
  1902.1000      8.1566      2.2859      0.0816     22.0644    128.4919     32.5679
  1902.2000      8.1566      2.1842      0.0674     28.2328    119.5667     33.4561
  1902.3000      8.1291      2.0752      0.0869     34.8366    106.6964     34.3072
  1902.4000      8.1291      1.9600      0.0873     41.8160     91.2749     34.6109
  1902.5000      8.1457      1.8434      0.0393     48.8871     81.4830     34.5831
  1902.6000      8.1457      1.7208      0.0601     56.3144     78.5751     34.4381
  1902.7000      8.1457      1.5887     -0.0003     64.3227     77.0027     34.2128
  1902.8000      8.1570      1.4760     -0.0936     71.1540     76.3254     34.2508
  1902.9000      8.1570      1.4293     -0.0786     73.9818     78.8199     34.5459
  1903.0000      8.2139      1.4539      0.0584     72.4882     83.0078     34.7276
  1903.1000      8.2139      1.5114      0.1088     69.0037     83.6193     34.4137
  1903.2000      8.2139      1.5722      0.0870     65.3238     77.9067     33.4069
  1903.3000      8.3412      1.6321      0.0997     61.6931     72.7710     32.0663
  1903.4000      8.3412      1.7063      0.1037     57.1923     77.9912     30.9776
  1903.5000      8.4822      1.8263      0.0363     49.9210     94.0798     30.4492
  1903.6000      8.4822      1.9904      0.1856     39.9728    108.2685     30.2076
  1903.7000      8.4822      2.1416      0.2534     30.8131    111.8143     29.6474
  1903.8000      8.5573      2.2513      0.2403     24.1662    113.0118     28.8469
  1903.9000      8.5573      2.3471      0.2767     18.3590    120.5375     28.2201
  1904.0000      8.4934      2.4404      0.2330     12.7021    130.0723     27.5571
  1904.1000      8.4934      2.5059      0.2218      8.7326    134.1341     26.6323
  1904.2000      8.4934      2.5288      0.1719      7.3472    131.5030     25.6335
  1904.3000      8.3348      2.5261      0.1693      7.5114    124.8304     24.7091
  1904.4000      8.3348      2.5212      0.1425      7.8033    119.8368     24.1072
  1904.5000      8.1850      2.5272      0.1259      7.4450    117.6150     23.9546
  1904.6000      8.1850      2.5421      0.1432      6.5382    112.8463     23.7412
  1904.7000      8.1850      2.5593      0.1473      5.4952    103.6409     23.1127
  1904.8000      8.1137      2.5789      0.1451      4.3066     95.9185     22.1078
  1904.9000      8.1137      2.5967      0.1917      3.2288     96.1797     20.8948
  1905.0000      8.0925      2.6042      0.1562      2.7756    105.5514     20.1367
  1905.1000      8.0925      2.6052      0.1207      2.7134    117.4171     20.3453
  1905.2000      8.0925      2.5993      0.1876      3.0726    117.5718     21.1677
  1905.3000      8.0692      2.5836      0.0481      4.0258    101.7444     21.8988
  1905.4000      8.0692      2.5707      0.0736      4.8091     85.6549     22.0203
  1905.5000      8.0507      2.5648      0.0699      5.1613     83.5204     21.6084
  1905.6000      8.0507      2.5580      0.0856      5.5743     90.3864     21.2248
  1905.7000      8.0507      2.5476      0.0325      6.2084     95.5594     21.3571
  1905.8000      8.0535      2.5390      0.0190      6.7261     95.6490     22.0019
  1905.9000      8.0535      2.5373      0.0284      6.8325     92.8978     22.6636
  1906.0000      8.0737      2.5461      0.0091      6.2945     93.1186     23.0512
  1906.1000      8.0737      2.5599      0.0810      5.4628     97.1352     23.4048
  1906.2000      8.0737      2.5616      0.0885      5.3547     97.4963     23.7582
  1906.3000      8.0759      2.5514      0.0991      5.9775     92.6168     23.7826
  1906.4000      8.0759      2.5418      0.1332      6.5550     89.3726     23.3988
  1906.5000      8.0400      2.5399      0.0672      6.6714     90.5320     23.1066
  1906.6000      8.0400      2.5411      0.1068      6.6016     98.2149     23.1585
  1906.7000      8.0400      2.5333      0.0951      7.0706    115.1949     22.9270
  1906.8000      8.0156      2.5221      0.0452      7.7535    132.3050     21.9285
  1906.9000      8.0156      2.5233      0.1109      7.6796    136.8955     20.8443
  1907.0000      7.9987      2.5387      0.0733      6.7436    132.2069     20.4148
  1907.1000      7.9987      2.5621      0.1274      5.3251    128.4036     20.2563
  1907.2000      7.9987      2.5845      0.1385      3.9669    127.2989     19.9049
  1907.3000      8.0017      2.5984      0.1031      3.1265    123.1715     19.7179
  1907.4000      8.0017      2.6071      0.0865      2.5982    111.2780     20.1039
  1907.5000      8.0523      2.6198      0.1248      1.8280     96.0862     20.7581
  1907.6000      8.0523      2.6387      0.1072      0.6826     88.5787     21.3250
  1907.7000      8.0523      2.6526      0.0991     -0.1575     92.3478     21.9651
  1907.8000      8.0835      2.6400      0.1152      0.6031     93.6529     22.7317
  1907.9000      8.0835      2.5991      0.1035      3.0868     82.2486     23.1600
  1908.0000      8.0849      2.5649      0.0239      5.1597     71.8493     22.9742
  1908.1000      8.0849      2.5613      0.0794      5.3743     74.7938     22.4568
  1908.2000      8.0849      2.5699      0.0402      4.8548     81.0651     22.0511
  1908.3000      8.0837      2.5731      0.0668      4.6612     78.1383     22.2073
  1908.4000      8.0837      2.5715      0.1038      4.7569     72.0890     22.9654
