~Version Information
 VERS.                                  2.0 : CWLS LAS VERSION
 WRAP.                                   NO : WRAPING MODE
 SWARE .                 MController 2.5.0J : SOFTWARE VERSION
~Well Information
 WELL.                       Montoya 12-41R : WELL
 COMP.                       Petrogulf Corp : COMPANY
 FLD.                      Purgatorie River : FIELD
 LOC.                NW/NW Sec 12 T33S R68W : LOCATION
 DATE.                             11/17/04 : DATE(S) LOGGED
 SRVC.       Blanco Geological Services LLC : SERVICE COMPANY
 STAT.                                   CO : STATE
 CNTY.                           Las Animas : COUNTY
 CTRY.                                  USA : COUNTRY
 API.                       05-071-08241-00 : API NUMBER
 STRT.FT                             536.00 : START DEPTH
 STOP.FT                            1530.00 : STOP DEPTH
 STEP.FT                               1.00 : DEPTH INCREMENT
 NULL.                                -9999 : NULL VALUE
~Curve information
 DEPTH.FT                                   :
 ROP.MIN/FT                                 :
 GAS.UNITS                                  :
~ASCII Log data
# ...
       936.0         0.23          7.9 
       937.0         0.23          7.8 
       938.0         0.27          7.5 
       939.0         0.30          7.6 
       940.0         0.27          8.2 
       941.0         0.20          8.0 
       942.0         0.20          8.4 
       943.0         0.20          8.5 
       944.0         0.20          8.5 
       945.0         0.17          8.5 
       946.0         0.22          8.6 
       947.0         0.17          8.1 
       948.0         0.23          7.6 
       949.0         0.17          7.8 
       950.0         0.13          7.5 
       951.0         0.13          7.9 
       952.0         0.13          8.2 
       953.0         0.10          8.7 
       954.0         0.17          8.6 
       955.0         0.20          9.0 
       956.0         0.27          9.1 
       957.0         0.20          9.0 
       958.0         0.33          9.9 
       959.0         0.30         11.7 
       960.0         0.27         11.6 
       961.0         0.27         10.0 
       962.0         0.30          9.2 
       963.0         0.27          9.0 
       964.0         0.23          9.0 
       965.0         0.23          9.0 
       966.0         0.23          8.4 
       967.0         0.25          9.1 
       968.0         0.23          9.9 
       969.0         0.13          9.5 
       970.0         0.10          9.0 
       971.0         0.13          8.9 
       972.0         0.20          8.7 
       973.0         0.23          8.8 
       974.0         0.17          8.9 
       975.0         0.17          8.3 
       976.0         0.17          8.0 
       977.0         0.20          8.4 
       978.0         0.20          9.1 
       979.0         0.27         10.0 
       980.0         0.23          9.9 
       981.0         0.20          9.5 
       982.0         0.27          8.7 
       983.0         0.22          8.3 
       984.0         0.23          8.2 
       985.0         0.20          7.8 
       986.0         0.33          9.7 
       987.0         0.22         10.4 
       988.0         0.37         10.1 
       989.0         0.30          9.5 
       990.0         0.30          9.9 
       991.0         0.27          8.3 
       992.0         0.20          8.2 
       993.0         0.23          8.4 
       994.0         0.20          8.8 
       995.0         0.17          9.4 
       996.0         0.20          9.7 
       997.0         0.17          9.9 
       998.0         0.10         10.3 
       999.0         0.20         10.7 
      1000.0         0.23         10.4 
      1001.0         0.23          9.5 
      1002.0         0.22          9.1 
      1003.0         0.20          9.3 
      1004.0         0.23         10.1 
      1005.0         0.20         10.2 
      1006.0         0.23         10.3 
      1007.0         0.20          9.8 
      1008.0         0.20         10.0 
      1009.0         0.23          9.3 
      1010.0         0.17          8.6 
      1011.0         0.20          8.8 
      1012.0         0.17          9.3 
      1013.0         0.17          9.7 
      1014.0         0.13         10.6 
      1015.0         0.20         10.1 
      1016.0         0.27         10.8 
      1017.0         0.17         11.7 
      1018.0         0.17         11.4 
      1019.0         0.17         11.6 
      1020.0         0.13         11.7 
      1021.0         0.13         12.3 
      1022.0         0.13         12.5 
      1023.0         0.10         12.5 
      1024.0         0.23         12.4 
      1025.0         0.27         23.2 
      1026.0         0.28         22.2 
      1027.0         0.27         21.9 
      1028.0         0.23         22.1 
      1029.0         0.23         22.7 
      1030.0         0.23         15.4 
      1031.0         0.17         16.0 
      1032.0         0.20         15.8 
      1033.0         0.23         15.9 
      1034.0         0.20         16.7 
      1035.0         0.23         16.7 
      1036.0         0.17         17.0 
      1037.0         0.20         16.4 
      1038.0         0.27         16.0 
      1039.0         0.20         15.3 
      1040.0         0.23         15.7 
      1041.0         0.20         16.4 
      1042.0         0.22         17.5 
      1043.0         0.20         17.2 
      1044.0         0.20         16.0 
      1045.0         0.20         16.5 
      1046.0         0.23         17.1 
      1047.0         0.43         17.0 
      1048.0         0.43         14.8 
      1049.0         0.27         14.9 
      1050.0         0.30         15.2 
      1051.0         0.27         14.8 
      1052.0         0.27         15.3 
      1053.0         0.23         15.1 
      1054.0         0.30         15.1 
      1055.0         0.28         15.7 
      1056.0         0.27         15.2 
      1057.0         0.27         14.9 
      1058.0         0.23         15.4 
      1059.0         0.27         16.2 
      1060.0         0.27         16.2 
      1061.0         0.27         16.1 
      1062.0         0.30         16.1 
      1063.0         0.27         16.9 
      1064.0         0.27         17.2 
      1065.0         0.27         16.6 
      1066.0         0.23         15.9 
      1067.0         0.23         15.7 
      1068.0         0.25         16.0 
      1069.0         0.23         16.6 
      1070.0         0.17         17.1 
      1071.0         0.20         17.3 
      1072.0         0.27         17.2 
      1073.0         0.23         17.0 
      1074.0         0.27         17.1 
      1075.0         0.27         16.9 
      1076.0         0.37         16.6 
      1077.0         0.37         17.5 
      1078.0         0.33         17.3 
      1079.0         0.30         17.7 
      1080.0         0.37         18.4 
      1081.0         0.30         18.3 
      1082.0         0.27         18.4 
      1083.0         0.27         17.9 
      1084.0         0.33         17.5 
      1085.0         0.25         17.9 
      1086.0         0.23         10.2 
      1087.0         0.27          9.7 
      1088.0         0.23          9.3 
      1089.0         0.23          9.0 
      1090.0         0.20          9.3 
      1091.0         0.23          8.3 
      1092.0         0.20          4.5 
      1093.0         0.20          4.4 
      1094.0         0.20          4.2 
      1095.0         0.23          4.0 
      1096.0         0.30          4.1 
      1097.0         0.23          4.7 
      1098.0         0.23          4.8 
      1099.0         0.25          5.1 
      1100.0         0.17          4.9 
      1101.0         0.20          4.4 
      1102.0         0.20          3.8 
      1103.0         0.17          3.5 
      1104.0         0.20          3.4 
      1105.0         0.20          3.6 
      1106.0         0.27          6.0 
      1107.0         0.30          5.8 
      1108.0         0.30          5.8 
      1109.0         0.40          5.4 
      1110.0         0.33          5.3 
      1111.0         0.33          6.2 
      1112.0         0.27          7.1 
      1113.0         0.23          7.3 
      1114.0         0.23          8.0 
      1115.0         0.17          8.3 
      1116.0         0.15          7.4 
      1117.0         0.17          7.5 
      1118.0         0.30          6.9 
      1119.0         0.30          6.5 
      1120.0         0.27          5.7 
      1121.0         0.27          5.1 
      1122.0         0.23          5.2 
      1123.0         0.23          5.5 
      1124.0         0.20          5.4 
      1125.0         0.23          5.0 
      1126.0         0.27          5.1 
      1127.0         0.17          4.3 
      1128.0         0.23         47.8 
      1129.0         0.20         99.4 
      1130.0         0.17         90.5 
      1131.0         0.28         49.3 
      1132.0         0.20         29.5 
      1133.0         0.37         10.4 
      1134.0         0.33          3.2 
      1135.0         0.27          1.1 
