~Version Information
VERS.                      2.0: CWLS Log ASCII Standard - VERSION 2.0
WRAP.                       NO: One line per depth step
~Well Information Block
STRT.FT                -9.7500: 
STOP.FT              2612.5000: 
STEP.FT                 0.2500: 
NULL.                -999.2500: 
COMP.                         : COMPANY
WELL.                         : WELL
FLD.                          : FIELD
LOC.                          : LOCATION
CNTY.                         : COUNTY
SRVC.                         : SERVICE COMPANY
DATE.          Mon Nov 17 14:56:03 2003: LOG DATE
UWI.                          : UNIQUE WELL ID
STAT.                         : STATE
~Curve Information Block
DEPT.FT            0 000 00 00: Depth
CCL.                          : Casing Collar Locator
TT3.usec                      : CBL 3' Travel Time
AMP3.mV                       : CBL 3' Amplitude
GR.GAPI                       : Gamma Ray
~Parameter Information Block
~A  Depth       CCL         TT3         AMP3         GR     
    -9.7500   -999.2500   -999.2500   -999.2500     84.6099
    -9.5000   -999.2500   -999.2500   -999.2500     87.1614
    -9.2500   -999.2500   -999.2500   -999.2500     91.7766
    -9.0000   -999.2500   -999.2500   -999.2500     96.8482
    -8.7500   -999.2500   -999.2500   -999.2500    100.0753
    -8.5000   -999.2500   -999.2500   -999.2500     99.6134
    -8.2500   -999.2500   -999.2500   -999.2500     95.6452
    -8.0000   -999.2500   -999.2500   -999.2500     90.6503
    -7.7500   -999.2500   -999.2500   -999.2500     87.5552
    -7.5000   -999.2500   -999.2500   -999.2500     87.5716
    -7.2500   -999.2500   -999.2500   -999.2500     89.8301
    -7.0000   -999.2500   -999.2500   -999.2500     92.6055
    -6.7500   -999.2500   -999.2500   -999.2500     94.6320
    -6.5000   -999.2500   -999.2500   -999.2500     95.5493
    -6.2500   -999.2500   -999.2500   -999.2500     95.3984
    -6.0000   -999.2500   -999.2500   -999.2500     93.8656
    -5.7500   -999.2500   -999.2500   -999.2500     90.3133
    -5.5000   -999.2500   -999.2500   -999.2500     84.7663
    -5.2500   -999.2500   -999.2500   -999.2500     78.6795
    -5.0000   -999.2500   -999.2500   -999.2500     74.3228
    -4.7500   -999.2500   1480.0000      1.0666     73.1994
    -4.5000   -999.2500   1480.0000      1.0635     75.0619
    -4.2500   -999.2500   1480.0000      1.0577     78.3847
    -4.0000   -999.2500   1480.0000      1.0482     81.5598
    -3.7500   -999.2500   1480.0000      1.0350     83.6441
    -3.5000   -999.2500   1480.0000      1.0202     84.3487
    -3.2500   -999.2500   1480.0000      1.0088     83.5746
    -3.0000   -999.2500   1480.0000      1.0045     80.9201
    -2.7500   -999.2500   1480.0000      1.0059     75.7394
    -2.5000   -999.2500   1480.0000      1.0070     67.9066
    -2.2500   -999.2500   1480.0000      1.0044     58.3593
    -2.0000   -999.2500   1480.0000      1.0007     48.6123
    -1.7500   -999.2500   1480.0000      1.0016     39.8978
    -1.5000   -999.2500   1480.0000      1.0118     32.9618
    -1.2500   -999.2500   1480.0000      1.0332     28.3060
    -1.0000   -999.2500   1480.0000      1.0643     26.1801
    -0.7500   -999.2500   1480.0000      1.1013     26.3848
    -0.5000   -999.2500   1480.0000      1.1381     28.3435
    -0.2500   -999.2500   1480.0000      1.1650     31.4902
     0.0000   -999.2500   1480.0000      1.1705     35.6372
     0.2500   -999.2500   1480.0000      1.1118     41.0073
     0.5000   -999.2500   1480.0000      1.0758     47.8772
     0.7500      0.0000   1480.0000      1.0563     56.1764
     1.0000      0.0000   1480.0000      1.0543     65.3984
     1.2500      0.0000   1480.0000      1.0617     74.7493
     1.5000      0.0000   1480.0000      1.0713     83.3546
     1.7500      0.0000   1480.0000      1.0807     90.4690
     2.0000      0.0000   1480.0000      1.0904     95.6486
     2.2500      0.0000   1480.0000      1.1015     98.7409
     2.5000      0.0000   1480.0000      1.1143     99.6778
     2.7500      0.0000   1480.0000      1.1278     98.3706
     3.0000      0.0000   1480.0000      1.1420     95.0409
     3.2500      0.0000   1480.0000      1.1598     90.6965
     3.5000      0.0000   1480.0000      1.1883     86.7823
     3.7500      0.0000   1480.0000      1.2339     83.9420
     4.0000      0.0000   1480.0000      1.2951     81.4722
     4.2500      0.0000   1480.0000      1.3570     78.3759
     4.5000      0.0000   1480.0000      1.4001     74.6454
     4.7500      0.0000   1480.0000      1.4152     71.2067
     5.0000      0.0000   1480.0000      1.4083     68.9002
     5.2500      0.0000   1480.0000      1.3901     67.9239
     5.5000      0.0000   1480.0000      1.3692     68.0775
     5.7500      0.0000   1480.0000      1.3521     69.1188
     6.0000      0.0000   1480.0000      1.3418     70.8446
     6.2500      0.0000   1480.0000      1.3346     73.0617
     6.5000      0.0000   1480.0000      1.3245     75.6416
     6.7500      0.0000   1480.0000      1.3108     78.5022
     7.0000      0.0000   1480.0000      1.2970     81.4107
     7.2500      0.0000   1480.0000      1.2863     84.0603
     7.5000      0.0000   1480.0000      1.2812     86.3753
     7.7500      0.0000   1480.0000      1.2835     88.1784
     8.0000      0.0000   1480.0000      1.2945     88.5038
     8.2500      0.0000   1480.0000      1.3159     86.1822
     8.5000      0.0000   1480.0000      1.3474     81.4772
     8.7500      0.0000   1480.0000      1.3807     76.4452
     9.0000      0.0000   1480.0000      1.4014     73.2530
     9.2500      0.0000   1480.0000      1.4012     72.4589
     9.5000      0.0000   1480.0000      1.3860     73.0793
     9.7500      0.0000   1480.0000      1.3741     73.9123
    10.0000      0.0000   1480.0000      1.3840     74.4997
    10.2500      0.0000   1480.0000      1.4218     75.0720
    10.5000      0.0000   1480.0000      1.4758     76.0201
    10.7500      0.0000   1480.0000      1.5234     77.4765
    11.0000      0.0000   1480.0000      1.5454     79.1496
    11.2500      0.0000   1480.0000      1.5372     80.4185
    11.5000      0.0000   1479.9460      1.5085     80.7349
    11.7500      0.0000   1479.5669      1.4790     80.0188
    12.0000      0.0000   1477.6011      1.4859     78.6465
    12.2500      0.0000   1469.6237      1.6490     77.1116
    12.5000      0.0000   1444.2507      2.3448     75.6721
    12.7500      0.0000   1380.9176      4.4694     74.1352
    13.0000      0.0000   1256.6782      9.4748     71.9872
    13.2500      0.0000   1064.8561     18.6668     69.0655
    13.5000      0.0000    831.4087     31.8498     66.1128
    13.7500      0.0000    607.1677     46.6193     64.2966
    14.0000      0.0000    436.9697     59.5449     64.1225
    14.2500      0.0000    334.8235     68.3885     64.9680
    14.5000      0.0000    286.3369     73.1420     65.5800
    14.7500      0.0000    268.1389     75.1899     64.8690
    15.0000      0.0000    262.7415     75.9494     62.4339
    15.2500      0.0000    261.4729     76.2481     58.7751
    15.5000      0.0000    261.2255     76.4223     55.2597
    15.7500      0.0000    261.1721     76.5848     53.5984
    16.0000      0.0000    261.1346     76.7716     54.8203
    16.2500      0.0000    261.0880     76.9916     58.5043
    16.5000      0.0000    261.0347     77.2382     63.2008
    16.7500      0.0000    260.9800     77.4924     67.6711
    17.0000      0.0000    260.9337     77.7259     71.3869
    17.2500      0.0000    260.9061     77.9128     73.9116
    17.5000      0.0000    260.9050     78.0401     74.6900
    17.7500      0.0000    260.9402     78.1066     73.9739
    18.0000      0.0000    261.0558     78.1033     73.1673
    18.2500      0.0000    261.3950     77.9706     73.5111
    18.5000      0.0000    262.3090     77.5215     74.9121
    18.7500      0.0000    264.3809     76.4174     76.6043
    19.0000      0.0000    268.1888     74.3072     78.4554
    19.2500      0.0000    273.8803     71.0649     80.8701
    19.5000      0.0000    280.9784     66.8896     83.4437
    19.7500      0.0000    288.5952     62.2245     84.4573
    20.0000      0.0000    295.7289     57.6777     82.3704
    20.2500      0.0000    301.4756     53.9108     77.7654
    20.5000      0.0000    305.3333     51.3511     73.1642
    20.7500      0.0000    307.4273     49.9527     70.6954
    21.0000      0.0000    308.3219     49.2935     70.4438
    21.2500      0.0000    308.5617     48.8650     71.2552
    21.5000     -2.0000    308.3568     48.3064     72.5495
    21.7500      0.0000    307.4988     47.6222     74.9098
    22.0000      0.0000    305.4540     47.3599     79.1602
    22.2500      0.0000    301.6656     48.4542     85.1574
    22.5000      0.0000    295.9899     51.6256     91.4510
    22.7500      0.0000    288.8868     56.8219     96.1553
    23.0000      0.0000    281.2234     63.1871     98.3672
    23.2500      0.0000    274.0002     69.4723     98.6893
    23.5000      0.0000    268.1448     74.5626     98.3285
