~Version Information
VERS.                      2.0: CWLS Log ASCII Standard - VERSION 2.0
WRAP.                       NO: One line per depth step
~Well Information Block
STRT.FT                15.0000: 
STOP.FT              2620.5000: 
STEP.FT                 0.2500: 
NULL.                -999.2500: 
COMP.          Pioneer Natural Resources: COMPANY
WELL.               Zink 44-10: WELL
FLD.           Purgatoire River: FIELD
LOC.           548' FSL & 473' FEL: LOCATION
PROV.                 Colorado: PROVINCE
CNTY.               Las Animas: COUNTRY
SRVC.                Patterson: SERVICE COMPANY
DATE.          Tue Jun 21 13:36:23 2005: LOG DATE
UWI.           05 071 08380 00: UNIQUE WELL ID
~Curve Information Block
DEPT.FT            0 000 00 00: Depth
GR.GAPI                       : Gamma Ray
CCL.                          : Casing Collar Locator
TT3.usec                      : CBL 3' Travel Time
AMP3.mV                       : CBL 3' Amplitude
~Parameter Information Block
~A  Depth        GR         CCL         TT3         AMP3    
# ...
  1723.5000     72.0042      0.0000    621.0483      3.8230
  1723.7500     66.4467      0.0000    621.5201      3.8184
  1724.0000     61.0797      0.0000    622.5623      3.8293
  1724.2500     57.0865      0.0000    624.6228      3.8363
  1724.5000     56.0741      0.0000    628.5308      3.8089
  1724.7500     59.0478      0.0000    635.1088      3.7263
  1725.0000     65.7936      0.0000    644.2650      3.6030
  1725.2500     75.3029      0.0000    654.4212      3.4928
  1725.5000     86.6272      0.0000    663.2097      3.4547
  1725.7500     99.0129      0.0000    668.9957      3.5071
  1726.0000    111.1799      0.0000    671.6931      3.6150
  1726.2500    121.1331      0.0000    672.2256      3.7200
  1726.5000    127.2744      0.0000    671.4539      3.7868
  1726.7500    129.5056      0.0000    669.6481      3.8205
  1727.0000    128.8619      0.0000    666.8152      3.8486
  1727.2500    126.4489      0.0000    663.2913      3.8919
  1727.5000    123.2495      0.0000    659.7028      3.9555
  1727.7500    120.4619      0.0000    656.4171      4.0402
  1728.0000    119.0522      0.0000    653.5359      4.1516
  1728.2500    118.9820      0.0000    651.3051      4.2920
  1728.5000    119.5075      0.0000    649.3843      4.4417
  1728.7500    120.2125      0.0000    645.3665      4.5556
  1729.0000    121.2308      0.0000    635.3608      4.5899
  1729.2500    122.5027      0.0000    617.3209      4.5362
  1729.5000    123.4330      0.0000    593.5832      4.4282
  1729.7500    123.5913      0.0000    569.6344      4.3125
  1730.0000    123.2727      0.0000    550.3869      4.2178
  1730.2500    122.9661      0.0000    537.0579      4.1492
  1730.5000    122.6416      0.0000    526.4543      4.1015
  1730.7500    122.0339      0.0000    513.6833      4.0689
  1731.0000    121.2329      0.0000    497.2149      4.0436
  1731.2500    120.5379      0.0000    481.2716      4.0149
  1731.5000    120.0894      0.0000    472.3435      3.9768
  1731.7500    120.0290      0.0000    473.9454      3.9340
  1732.0000    120.6254      0.0000    485.3197      3.8988
  1732.2500    122.0486      0.0000    503.5363      3.8809
  1732.5000    124.4008      0.0000    524.5593      3.8780
  1732.7500    127.8881      0.0000    542.5170      3.8772
  1733.0000    132.2878      0.0000    551.0123      3.8674
  1733.2500    136.2890      0.0000    547.7372      3.8477
  1733.5000    138.1852      0.0000    537.0499      3.8257
  1733.7500    137.5131      0.0000    526.2357      3.8070
  1734.0000    135.5168      0.0000    519.4146      3.7908
  1734.2500    133.7759      0.0000    515.8669      3.7738
  1734.5000    132.7617      0.0000    513.1812      3.7570
  1734.7500    132.0487      0.0000    510.3392      3.7480
  1735.0000    131.6293      0.0000    507.8245      3.7562
  1735.2500    132.4648      0.0000    506.1950      3.7838
  1735.5000    135.5467      0.0000    505.4002      3.8210
  1735.7500    140.5697      0.0000    505.0843      3.8534
  1736.0000    145.6267      0.0000    504.9939      3.8746
  1736.2500    148.2562      0.0000    505.1711      3.8905
  1736.5000    146.8858      0.0000    506.1509      3.9136
  1736.7500    141.6195      0.0000    509.2348      3.9517
  1737.0000    134.1020      0.0000    516.0640      4.0035
  1737.2500    126.7143      0.0000    526.6590      4.0605
  1737.5000    121.3866      0.0000    537.4143      4.1135
  1737.7500    118.6514      0.0000    542.7334      4.1567
  1738.0000    117.7819      0.0000    540.5725      4.1873
  1738.2500    117.9533      0.0000    535.3475      4.2025
  1738.5000    119.0606      0.0000    533.2428      4.1989
  1738.7500    121.1763      0.0000    535.2827      4.1758
  1739.0000    123.5813      0.0000    537.1470      4.1385
  1739.2500    124.9758      0.0000    535.7363      4.0965
  1739.5000    124.8918      0.0000    533.4202      4.0578
  1739.7500    124.4639      0.0000    534.4102      4.0273
  1740.0000    125.2794      0.0000    538.5452      4.0087
  1740.2500    127.5654      0.0000    540.9429      4.0036
  1740.5000    129.9232      0.0000    537.6348      4.0083
  1740.7500    130.7844      0.0000    529.6495      4.0173
  1741.0000    129.7522      0.0000    520.9591      4.0365
  1741.2500    127.6365      0.0000    514.2094      4.0897
  1741.5000    125.6501      0.0000    509.5846      4.2069
  1741.7500    124.6363      0.0000    506.5854      4.4096
  1742.0000    124.8128      0.0000    505.3165      4.7083
  1742.2500    126.0545      0.0000    505.9001      5.1100
  1742.5000    128.2023      0.0000    507.7636      5.6183
  1742.7500    130.8682      0.0000    510.1887      6.2259
  1743.0000    133.0868      0.0000    513.2700      6.9090
  1743.2500    133.6354      0.0000    517.4439      7.6261
  1743.5000    132.0060      0.0000    521.5905      8.3116
  1743.7500    129.0142      0.0000    522.8311      8.8559
  1744.0000    126.3223      0.0000    520.8301      9.1090
  1744.2500    125.0822      0.0000    522.4227      8.9539
  1744.5000    124.8476      0.0000    537.8637      8.4241
  1744.7500    124.1245      0.0000    569.6965      7.7301
  1745.0000    122.2360      0.0000    607.3637      7.1262
  1745.2500    120.2245      0.0000    635.1270      6.7476
  1745.5000    119.7449      0.0000    644.5090      6.5741
  1745.7500    121.7511      2.5000    638.5035      6.5109
  1746.0000    126.4998      2.5000    625.6641      6.4738
  1746.2500    133.9773      2.5000    612.3234      6.4299
  1746.5000    143.7475      0.0000    600.5177      6.4052
  1746.7500    154.6673      0.0000    591.1768      6.4469
  1747.0000    165.0118      0.0000    587.6641      6.5478
  1747.2500    172.6927      0.0000    595.1484      6.6183
  1747.5000    175.4902      0.0000    615.3302      6.5612
  1747.7500    171.8940      0.0000    642.7990      6.3635
  1748.0000    162.3439      0.0000    668.9036      6.0922
  1748.2500    149.5000      0.0000    688.3314      5.8243
  1748.5000    136.9419      0.0000    700.4395      5.6030
  1748.7500    127.2446      0.0000    706.5389      5.4413
  1749.0000    120.8936      0.0000    708.4470      5.3385
  1749.2500    116.7363      0.0000    708.1297      5.2906
  1749.5000    113.5591      0.0000    706.1713      5.2978
  1749.7500    111.4703      0.0000    701.1330      5.3659
  1750.0000    111.6978      0.0000    691.9131      5.4902
  1750.2500    114.8575      0.0000    680.2162      5.6340
  1750.5000    119.7554      0.0000    669.5087      5.7324
  1750.7500    124.1971      0.0000    661.1105      5.7331
  1751.0000    126.7522      0.0000    651.9621      5.6351
  1751.2500    127.5490      0.0000    637.5971      5.4847
  1751.5000    127.6709      0.0000    617.7305      5.3335
  1751.7500    128.0442      0.0000    597.1251      5.1994
  1752.0000    128.9285      0.0000    579.9127      5.0629
  1752.2500    130.3195      0.0000    565.2198      4.8926
  1752.5000    132.3873      0.0000    550.3071      4.6795
  1752.7500    135.1289      0.0000    536.7463      4.4522
  1753.0000    137.7525      0.0000    531.3998      4.2624
  1753.2500    138.5910      0.0000    540.8358      4.1513
  1753.5000    135.7259      0.0000    564.6092      4.1252
  1753.7500    128.1363      0.0000    593.5239      4.1587
  1754.0000    116.6959      0.0000    614.9418      4.2177
  1754.2500    103.9984      0.0000    621.3413      4.2770
  1754.5000     93.1052      0.0000    614.9584      4.3211
  1754.7500     86.2645      0.0000    604.6796      4.3365
  1755.0000     84.2871      0.0000    598.3112      4.3124
  1755.2500     86.6427      0.0000    597.2468      4.2502
  1755.5000     92.1772      0.0000    597.8923      4.1710
  1755.7500     99.9335      0.0000    597.1370      4.1058
  1756.0000    109.2759      0.0000    595.4124      4.0734
  1756.2500    119.3581      0.0000    594.8521      4.0654
  1756.5000    128.9274      0.0000    596.1926      4.0548
  1756.7500    136.8108      0.0000    598.4844      4.0221
