~Version Information
VERS.                      2.0: CWLS Log ASCII Standard - VERSION 2.0
WRAP.                       NO: One line per depth step
~Well Information Block
STRT.FT               950.0000: 
STOP.FT              2417.7000: 
STEP.FT                 0.1000: 
NULL.                -999.2500: 
COMP.          Pioneer Natural Resources: COMPANY
WELL.            Chevron 13-13: WELL
FLD.           Purgatoire River: FIELD
LOC.           1560' FSL & 711' FWL--: LOCATION
CNTY.               Las Animas: COUNTY
SRVC.          Superior Well Services: SERVICE COMPANY
DATE.          Mon Feb 12 14:55:24 2007: LOG DATE
UWI.           05 071 08319 00: UNIQUE WELL ID
STAT.                 Colorado: STATE
~Curve Information Block
DEPT.FT            0 000 00 00: Depth
DCAL.in                       : CDL Caliper
RHOB.g/cc                     : CDL Bulk Density
RHOC.g/cc                     : CDL Density Correction
DPOR.pu                       : CDL Density Porosity
GR.GAPI                       : Gamma Ray
~Parameter Information Block
~A  Depth       DCAL        RHOB        RHOC        DPOR         GR     
# ...
  1140.4000      7.9910      2.5350      0.0436      6.9702     73.0762
  1140.5000      7.9935      2.5120      0.0253      8.3637     71.4060
  1140.6000      7.9935      2.4872      0.0070      9.8696     78.4304
  1140.7000      7.9935      2.4658      0.0278     11.1629     90.6275
  1140.8000      7.9954      2.4412      0.0020     12.6521    103.6888
  1140.9000      7.9954      2.4190     -0.0216     13.9994    116.7018
  1141.0000      7.9958      2.4145     -0.0155     14.2748    121.5446
  1141.1000      7.9958      2.4276      0.0038     13.4782    116.4165
  1141.2000      7.9958      2.4407      0.0559     12.6822    118.9164
  1141.3000      7.9958      2.4401      0.0742     12.7210    133.6036
  1141.4000      7.9958      2.4249      0.0741     13.6431    142.7844
  1141.5000      7.9975      2.4067      0.0426     14.7463    140.9035
  1141.6000      7.9975      2.4034      0.0305     14.9474    137.2283
  1141.7000      7.9975      2.4166      0.0523     14.1471    137.5951
  1141.8000      8.0033      2.4293      0.0593     13.3736    140.5537
  1141.9000      8.0033      2.4223      0.0501     13.7993    140.5111
  1142.0000      8.0123      2.3813      0.0347     16.2833    140.8765
  1142.1000      8.0123      2.3042     -0.0240     20.9564    146.6176
  1142.2000      8.0123      2.1990     -0.0036     27.3334    149.2976
  1142.3000      8.0250      2.0761     -0.0582     34.7795    143.8914
  1142.4000      8.0250      1.9460     -0.0690     42.6653    132.4050
  1142.5000      8.0505      1.8199     -0.1552     50.3102    115.0063
  1142.6000      8.0505      1.7091     -0.1288     57.0249     95.2204
  1142.7000      8.0505      1.6138     -0.1359     62.8009     79.9974
  1142.8000      8.0996      1.5269     -0.1416     68.0652     74.1469
  1142.9000      8.0996      1.4466     -0.0884     72.9319     75.3887
  1143.0000      8.1709      1.3856     -0.1306     76.6327     73.5592
  1143.1000      8.1709      1.3607      0.0050     78.1372     66.0338
  1143.2000      8.1709      1.3612      0.0949     78.1075     60.8732
  1143.3000      8.2356      1.3639      0.0990     77.9459     61.0333
  1143.4000      8.2356      1.3648      0.0938     77.8885     62.7181
  1143.5000      8.2720      1.3694      0.0872     77.6139     62.5502
  1143.6000      8.2720      1.3732      0.0812     77.3797     59.0654
  1143.7000      8.2720      1.3617      0.0752     78.0765     52.8490
  1143.8000      8.2975      1.3275      0.0145     80.1518     47.7525
  1143.9000      8.2975      1.2873     -0.0159     82.5905     47.3802
  1144.0000      8.3375      1.2689      0.0004     83.7014     50.8042
  1144.1000      8.3375      1.2905      0.0179     82.3957     53.4118
  1144.2000      8.3375      1.3548      0.0497     78.4965     53.8619
  1144.3000      8.3850      1.4553      0.1007     72.4050     55.1645
  1144.4000      8.3850      1.5809      0.1428     64.7967     57.6748
  1144.5000      8.4102      1.7160      0.1859     56.6068     61.3046
  1144.6000      8.4102      1.8451      0.2232     48.7845     67.2980
  1144.7000      8.4102      1.9616      0.2648     41.7197     75.9323
  1144.8000      8.3949      2.0729      0.2774     34.9773     87.3574
  1144.9000      8.3949      2.1894      0.2552     27.9169     99.1453
  1145.0000      8.2991      2.3037      0.2894     20.9903    109.0013
  1145.1000      8.2991      2.3904      0.2669     15.7308    114.6379
  1145.2000      8.2991      2.4353      0.1662     13.0146    113.4172
  1145.3000      8.1387      2.4468      0.0868     12.3162    110.0098
  1145.4000      8.1387      2.4434      0.0686     12.5202    109.5117
  1145.5000      8.0414      2.4446      0.0295     12.4507    111.7583
  1145.6000      8.0414      2.4629      0.0397     11.3405    115.5686
  1145.7000      8.0414      2.4789      0.1116     10.3704    118.2417
  1145.8000      8.0306      2.4503      0.1098     12.1014    119.2818
  1145.9000      8.0306      2.3747      0.0146     16.6864    118.3018
  1146.0000      8.0463      2.2971     -0.0570     21.3904    112.7510
  1146.1000      8.0463      2.2500     -0.0315     24.2430    106.6934
  1146.2000      8.0463      2.2277     -0.0172     25.5914    106.1312
  1146.3000      8.0557      2.2170     -0.0462     26.2425    106.9216
  1146.4000      8.0557      2.2113      0.0224     26.5907    105.1913
  1146.5000      8.0567      2.2122     -0.0147     26.5314    104.3081
  1146.6000      8.0567      2.2322      0.0374     25.3193    106.3829
  1146.7000      8.0567      2.2695      0.0906     23.0580    110.6527
  1146.8000      8.0548      2.3074      0.1292     20.7614    116.2854
  1146.9000      8.0548      2.3372      0.1395     18.9546    121.2175
  1147.0000      8.0485      2.3596      0.1106     17.5999    122.4022
  1147.1000      8.0485      2.3781      0.1263     16.4772    120.6733
  1147.2000      8.0485      2.3983      0.1031     15.2532    121.1187
  1147.3000      8.0322      2.4215      0.0628     13.8504    127.0923
  1147.4000      8.0322      2.4401      0.1040     12.7225    134.2380
  1147.5000      8.0125      2.4487      0.0847     12.2015    136.5320
  1147.6000      8.0125      2.4552      0.0873     11.8069    133.8178
  1147.7000      8.0125      2.4724      0.0648     10.7654    129.9168
  1147.8000      7.9974      2.4972      0.1590      9.2590    128.6244
  1147.9000      7.9974      2.5136      0.1135      8.2697    131.4313
  1148.0000      7.9818      2.5190      0.0880      7.9389    135.3649
  1148.1000      7.9818      2.5230      0.0809      7.6998    135.0014
  1148.2000      7.9818      2.5334      0.0570      7.0669    132.7368
  1148.3000      7.9687      2.5494      0.0952      6.0958    131.0030
  1148.4000      7.9687      2.5577      0.0791      5.5922    127.6839
  1148.5000      7.9622      2.5565      0.0358      5.6647    125.6055
  1148.6000      7.9622      2.5618      0.0517      5.3462    125.5711
  1148.7000      7.9622      2.5839      0.0199      4.0086    123.1105
  1148.8000      7.9598      2.6180      0.0817      1.9392    118.6427
  1148.9000      7.9598      2.6447      0.0920      0.3190    117.4067
  1149.0000      7.9594      2.6495      0.0968      0.0287    118.1112
  1149.1000      7.9594      2.6407      0.0624      0.5618    114.3023
  1149.2000      7.9594      2.6424      0.0265      0.4586    109.8813
  1149.3000      7.9615      2.6647      0.0799     -0.8905    109.5249
  1149.4000      7.9615      2.6897      0.0533     -2.4067    109.4169
  1149.5000      7.9629      2.6943      0.0959     -2.6848    106.9249
  1149.6000      7.9629      2.6686      0.0546     -1.1289    104.4769
  1149.7000      7.9629      2.6239      0.0083      1.5812    105.6955
  1149.8000      7.9627      2.5802      0.0351      4.2321    112.7035
  1149.9000      7.9627      2.5485      0.0283      6.1489    124.6441
  1150.0000      7.9624      2.5316      0.0372      7.1787    133.8431
  1150.1000      7.9624      2.5245      0.0648      7.6087    133.9322
  1150.2000      7.9624      2.5281      0.0081      7.3906    133.2720
  1150.3000      7.9617      2.5439      0.0474      6.4294    140.1227
  1150.4000      7.9617      2.5584      0.0705      5.5490    147.0373
  1150.5000      7.9611      2.5681      0.0722      4.9625    142.4775
  1150.6000      7.9611      2.5786      0.0717      4.3288    125.9651
  1150.7000      7.9611      2.5825      0.0941      4.0926    110.4423
  1150.8000      7.9614      2.5717      0.0767      4.7444    107.3263
  1150.9000      7.9614      2.5543      0.0339      5.7983    113.0020
  1151.0000      7.9617      2.5401      0.0623      6.6631    117.4492
  1151.1000      7.9617      2.5250      0.0235      7.5761    117.4676
  1151.2000      7.9617      2.5071      0.0251      8.6624    114.6041
  1151.3000      7.9618      2.4930      0.0275      9.5179    112.6424
  1151.4000      7.9618      2.4875      0.0317      9.8479    115.0963
  1151.5000      7.9607      2.4929      0.0306      9.5208    118.4107
