~Version Information
VERS.                      2.0: CWLS Log ASCII Standard - VERSION 2.0
WRAP.                       NO: One line per depth step
~Well Information Block
STRT.FT               275.0000: 
STOP.FT              1682.2000: 
STEP.FT                 0.1000: 
NULL.                -999.2500: 
COMP.          Pioneer Natural Resources: COMPANY
WELL.               Elmo 14-21: WELL
FLD.           Purgatoire River: FIELD
LOC.           623' FSL & 450' FWL----: LOCATION
PROV.                 Colorado: PROVINCE
CNTY.               Las Animas: COUNTRY
SRVC.                Patterson: SERVICE COMPANY
DATE.          Wed May 18 08:17:30 2005: LOG DATE
UWI.           05 071 08360 00: UNIQUE WELL ID
~Curve Information Block
DEPT.FT            0 000 00 00: Depth
DCAL.in                       : CDL Caliper
RHOB.g/cc                     : CDL Bulk Density
RHOC.g/cc                     : CDL Density Correction
DPOR.pu                       : CDL Density Porosity
NPOR.pu                       : Neutron Porosity
GR.GAPI                       : Gamma Ray
~Parameter Information Block
~A  Depth       DCAL        RHOB        RHOC        DPOR        NPOR         GR     
# ...
  1283.0000      8.0546      2.5321      0.0478      7.1441     23.5792    128.8684
  1283.1000      8.0546      2.5362      0.0539      6.8993     23.9376    131.2768
  1283.2000      8.0546      2.5520      0.0581      5.9375     24.2130    135.0084
  1283.3000      8.0545      2.5707      0.0983      4.8086     23.9903    134.9003
  1283.4000      8.0545      2.5822      0.0549      4.1062     23.6661    131.2682
  1283.5000      8.0493      2.5927      0.0726      3.4731     23.4465    126.4347
  1283.6000      8.0493      2.6078      0.0902      2.5577     22.7329    118.3496
  1283.7000      8.0493      2.6231      0.1012      1.6302     21.5981    110.1673
  1283.8000      8.0419      2.6304      0.1130      1.1854     20.9931    108.8740
  1283.9000      8.0419      2.6285      0.0796      1.3025     20.9729    110.7921
  1284.0000      8.0383      2.6278      0.0799      1.3450     20.9558    106.5510
  1284.1000      8.0383      2.6309      0.0699      1.1551     20.9177     99.6432
  1284.2000      8.0383      2.6253      0.1098      1.4941     21.2162     99.4346
  1284.3000      8.0380      2.6035      0.0740      2.8161     21.8603    104.1068
  1284.4000      8.0380      2.5735      0.0752      4.6361     22.1831    111.0426
  1284.5000      8.0379      2.5510      0.0000      5.9985     21.9456    124.6729
  1284.6000      8.0379      2.5502      0.0567      6.0500     21.8456    137.3139
  1284.7000      8.0379      2.5693      0.0453      4.8880     22.1152    133.4543
  1284.8000      8.0376      2.5945      0.0883      3.3637     22.2172    118.1877
  1284.9000      8.0376      2.6079      0.1000      2.5521     22.1773    106.7943
  1285.0000      8.0371      2.6043      0.0677      2.7720     22.3949    101.9805
  1285.1000      8.0371      2.5984      0.0645      3.1254     22.7310    100.6418
  1285.2000      8.0371      2.6006      0.0644      2.9954     23.0460    103.0292
  1285.3000      8.0379      2.5986      0.0714      3.1146     23.2686    109.1852
  1285.4000      8.0379      2.5765      0.0352      4.4572     23.1310    114.5572
  1285.5000      8.0389      2.5489     -0.0252      6.1281     22.9219    118.3001
  1285.6000      8.0389      2.5456      0.0090      6.3265     23.1566    126.1264
  1285.7000      8.0389      2.5634      0.0584      5.2508     23.7481    134.5125
  1285.8000      8.0379      2.5741      0.0714      4.6010     24.2616    135.3982
  1285.9000      8.0379      2.5634      0.0610      5.2462     24.4568    132.2583
  1286.0000      8.0375      2.5444      0.0279      6.4006     24.4219    132.2231
  1286.1000      8.0375      2.5359      0.0426      6.9179     24.3402    133.4164
  1286.2000      8.0375      2.5376      0.0398      6.8141     24.3883    130.2805
  1286.3000      8.0387      2.5407      0.0297      6.6217     24.6796    123.8127
  1286.4000      8.0387      2.5406      0.0185      6.6295     24.9254    119.1730
  1286.5000      8.0394      2.5346      0.0214      6.9942     24.9606    121.6137
  1286.6000      8.0394      2.5309     -0.0023      7.2158     25.0117    128.8625
  1286.7000      8.0394      2.5386      0.0570      6.7502     25.0991    133.5578
  1286.8000      8.0394      2.5493      0.0420      6.1030     25.0879    136.0088
  1286.9000      8.0394      2.5554      0.0298      5.7303     25.0091    139.8749
  1287.0000      8.0400      2.5608      0.0409      5.4050     24.8344    142.6259
  1287.1000      8.0400      2.5692      0.0608      4.8951     24.7054    141.8155
  1287.2000      8.0400      2.5828      0.0876      4.0723     24.8610    142.7305
  1287.3000      8.0424      2.6025      0.0590      2.8759     25.1303    150.8148
  1287.4000      8.0424      2.6181      0.1118      1.9356     25.0536    158.7937
  1287.5000      8.0434      2.6122      0.1008      2.2884     24.5870    156.4283
  1287.6000      8.0434      2.5921      0.0356      3.5076     24.1534    147.5481
  1287.7000      8.0434      2.5812      0.0594      4.1700     23.5862    144.1907
  1287.8000      8.0429      2.5786      0.0321      4.3262     22.6363    146.2751
  1287.9000      8.0429      2.5710      0.0415      4.7885     21.7145    142.3945
  1288.0000      8.0437      2.5600      0.0333      5.4538     21.2730    131.0220
  1288.1000      8.0437      2.5556      0.0249      5.7204     21.3495    120.6598
  1288.2000      8.0437      2.5568      0.0603      5.6464     21.6389    117.3374
  1288.3000      8.0445      2.5533      0.0446      5.8635     21.5790    118.1590
  1288.4000      8.0445      2.5423      0.0579      6.5280     20.8357    116.3405
  1288.5000      8.0454      2.5342      0.0015      7.0184     19.8896    109.0375
  1288.6000      8.0454      2.5355      0.0335      6.9367     19.6779     99.5027
  1288.7000      8.0454      2.5399      0.0262      6.6734     20.4395     93.1358
  1288.8000      8.0473      2.5437      0.0060      6.4428     21.3791     90.0512
  1288.9000      8.0473      2.5478      0.0393      6.1912     21.9453     87.6504
  1289.0000      8.0463      2.5543      0.0184      5.7974     22.3983     88.3406
  1289.1000      8.0463      2.5706      0.0391      4.8099     22.8660     93.4221
  1289.2000      8.0463      2.5893      0.0630      3.6793     22.8909     96.7687
  1289.3000      8.0415      2.5895      0.1036      3.6639     22.3609     94.1053
  1289.4000      8.0415      2.5699      0.0611      4.8567     21.8134     89.9473
  1289.5000      8.0377      2.5485      0.0385      6.1497     21.4844     85.5659
  1289.6000      8.0377      2.5383      0.0478      6.7690     21.2618     79.6328
  1289.7000      8.0377      2.5399      0.0365      6.6717     21.1367     80.4129
  1289.8000      8.0367      2.5470      0.0753      6.2446     21.0945     92.3182
  1289.9000      8.0367      2.5515      0.0698      5.9697     21.2277    102.9481
  1290.0000      8.0386      2.5528      0.0777      5.8937     21.6602    104.3773
  1290.1000      8.0386      2.5571      0.0335      5.6332     22.0462    100.8090
  1290.2000      8.0386      2.5680      0.0530      4.9725     22.1968     96.2848
  1290.3000      8.0401      2.5757      0.0938      4.5050     22.7132     93.5110
  1290.4000      8.0401      2.5676      0.0577      4.9941     23.7097     91.7097
  1290.5000      8.0393      2.5448      0.0643      6.3727     24.3079     90.8889
  1290.6000      8.0393      2.5214      0.0485      7.7931     24.2885     94.4155
  1290.7000      8.0393      2.5141      0.0318      8.2345     24.4752    101.0199
  1290.8000      8.0407      2.5244      0.0389      7.6092     25.3989    106.6813
  1290.9000      8.0407      2.5368      0.0757      6.8601     26.7699    107.9002
  1291.0000      8.0433      2.5381      0.0647      6.7807     27.7377    101.6170
  1291.1000      8.0433      2.5278      0.0444      7.4060     27.7198     94.5063
  1291.2000      8.0433      2.5186      0.0191      7.9654     27.0556     97.4028
  1291.3000      8.0443      2.5226      0.0583      7.7222     26.3089    106.3093
  1291.4000      8.0443      2.5366      0.0382      6.8753     25.7455    110.4248
  1291.5000      8.0454      2.5545      0.0907      5.7878     25.2140    109.1258
  1291.6000      8.0454      2.5685      0.1061      4.9404     24.5381    106.9162
  1291.7000      8.0454      2.5702      0.0853      4.8393     24.0558    104.2565
  1291.8000      8.0462      2.5637      0.0894      5.2321     24.0863     99.0975
  1291.9000      8.0462      2.5597      0.0370      5.4699     24.1375     93.0739
  1292.0000      8.0442      2.5629      0.0586      5.2809     23.7080     90.2480
  1292.1000      8.0442      2.5689      0.0397      4.9172     23.5051     86.8685
  1292.2000      8.0442      2.5724      0.0850      4.7005     24.3086     79.2766
  1292.3000      8.0438      2.5721      0.0400      4.7239     25.7143     73.3951
  1292.4000      8.0438      2.5687      0.0858      4.9303     26.5794     72.3137
  1292.5000      8.0462      2.5674      0.0152      5.0065     26.3476     72.9747
