~Version Information
VERS.                      2.0: CWLS Log ASCII Standard - VERSION 2.0
WRAP.                       NO: One line per depth step
~Well Information Block
STRT.FT                 0.0000: 
STOP.FT              2025.0000: 
STEP.FT                 0.2500: 
NULL.                -999.2500: 
COMP.          Petrogulf Corporation: COMPANY
WELL.          Robinson 15-12V: WELL
FLD.           Purgatorie River: FIELD
LOC.           1788' FNL & 466' FWL: LOCATION
PROV.                 Colorado: PROVINCE
CNTY.               Las Animas: COUNTRY
SRVC.                Patterson: SERVICE COMPANY
DATE.          Tue Oct 04 11:57:31 2005: LOG DATE
UWI.                          : UNIQUE WELL ID
~Curve Information Block
DEPT.FT            0 000 00 00: Depth
GR.GAPI                       : Gamma Ray
CCL.                          : Casing Collar Locator
TT3.usec                      : CBL 3' Travel Time
AMP3.mV                       : CBL 3' Amplitude
~Parameter Information Block
~A  Depth        GR         CCL         TT3         AMP3    
# ...
  1708.5000     88.3773      0.0000    882.5847      6.3309
  1708.7500     90.1548      0.0000    828.6136      6.1356
  1709.0000     89.4335      0.0000    795.4470      5.9151
  1709.2500     87.3459      0.0000    771.7913      5.6917
  1709.5000     84.4881      0.0000    749.8165      5.4659
  1709.7500     80.8127      0.0000    728.6248      5.2499
  1710.0000     76.3264      0.0000    711.6317      5.0682
  1710.2500     71.7950      0.0000    701.2824      4.9365
  1710.5000     68.6253      0.0000    696.3640      4.8528
  1710.7500     67.7808      0.0000    695.0859      4.7993
  1711.0000     68.7812      0.0000    697.5758      4.7407
  1711.2500     70.1299      0.0000    704.0545      4.6361
  1711.5000     70.8807      0.0000    711.3646      4.4849
  1711.7500     71.3746      0.0000    713.6291      4.3404
  1712.0000     72.2596      0.0000    707.9724      4.2465
  1712.2500     73.3212      0.0000    697.8945      4.1968
  1712.5000     73.6918      0.0000    689.4285      4.1655
  1712.7500     72.9466      0.0000    685.3127      4.1431
  1713.0000     71.6579      0.0000    684.4975      4.1289
  1713.2500     70.9583      0.0000    685.2209      4.1218
  1713.5000     71.6246      0.0000    686.4352      4.1340
  1713.7500     73.4169      0.0000    687.5148      4.1823
  1714.0000     75.2424      0.0000    688.0657      4.2595
  1714.2500     76.0725      0.0000    687.9936      4.3346
  1714.5000     75.6729      0.0000    687.4404      4.3804
  1714.7500     74.3466      0.0000    686.6245      4.3907
  1715.0000     72.2828      0.0000    685.7192      4.3799
  1715.2500     69.6243      0.0000    684.8511      4.3713
  1715.5000     66.9376      0.0000    684.1667      4.3756
  1715.7500     64.9016      0.0000    683.8036      4.3753
  1716.0000     63.5188      0.0000    683.7545      4.3440
  1716.2500     62.1404      0.0000    683.7761      4.2777
  1716.5000     60.2381      0.0000    683.7122      4.2000
  1716.7500     57.7713      0.0000    684.4442      4.1350
  1717.0000     54.9521      0.0000    688.3952      4.0842
  1717.2500     52.1347      0.0000    697.5338      4.0478
  1717.5000     49.9583      0.0000    710.3430      4.0603
  1717.7500     49.1500      0.0000    723.7357      4.1734
  1718.0000     49.8440      0.0000    738.3023      4.3766
  1718.2500     51.2921      0.0000    756.0812      4.5657
  1718.5000     52.6644      0.0000    773.1650      4.6541
  1718.7500     54.0560      0.0000    781.9685      4.6628
  1719.0000     56.2247      0.0000    779.5763      4.6533
  1719.2500     59.3716      0.0000    767.9393      4.6567
  1719.5000     62.7059      0.0000    750.5884      4.6838
  1719.7500     65.1880      0.0000    732.0659      4.7387
  1720.0000     66.2510      0.0000    716.8770      4.8183
  1720.2500     65.8559      0.0000    708.4472      4.9167
  1720.5000     64.2998      0.0000    709.8246      5.0327
  1720.7500     62.0967      0.0000    724.8871      5.1732
  1721.0000     59.8797      0.0000    753.7198      5.3378
  1721.2500     58.1986      0.0000    784.8283      5.5059
  1721.5000     57.2115      0.0000    803.3459      5.6566
  1721.7500     56.5363      0.0000    809.5948      5.7793
  1722.0000     55.5966      0.0000    815.7192      5.8510
  1722.2500     54.3533      0.0000    823.3118      5.8468
  1722.5000     53.7433      0.0000    818.1689      5.7875
  1722.7500     55.2334      0.0000    791.1814      5.7357
  1723.0000     59.6024      0.0000    753.0651      5.7266
  1723.2500     65.9383      0.0000    722.1445      5.7202
  1723.5000     71.9095      0.0000    705.8839      5.6510
  1723.7500     75.3002      0.0000    700.5119      5.5104
  1724.0000     75.4824      0.0000    701.9266      5.3539
  1724.2500     73.5449      0.0000    710.7969      5.2376
  1724.5000     71.1899      0.0000    728.3984      5.1733
  1724.7500     69.4966      0.0000    749.9048      5.1315
  1725.0000     68.4742      0.0000    764.7780      5.0882
  1725.2500     67.5508      0.0000    765.4894      5.0646
  1725.5000     66.4704      0.0000    755.6332      5.0901
  1725.7500     65.7197      0.0000    747.7408      5.1445
  1726.0000     66.0618      0.0000    750.6444      5.1669
  1726.2500     67.6796      0.0000    762.2046      5.1126
  1726.5000     69.8359      0.0000    775.4738      4.9837
  1726.7500     71.4259      0.0000    786.4563      4.8140
  1727.0000     71.9166      0.0000    795.0221      4.6486
  1727.2500     71.7698      0.0000    801.7564      4.5296
  1727.5000     71.9457      0.0000    801.9982      4.4685
  1727.7500     72.9741      0.0000    786.1816      4.4465
  1728.0000     74.3923      0.0000    753.4029      4.4519
  1728.2500     75.0593      0.0000    717.5069      4.4817
  1728.5000     74.1623      0.0000    694.3600      4.5167
  1728.7500     71.9510      0.0000    689.7943      4.5342
  1729.0000     69.4430      0.0000    699.5037      4.5326
  1729.2500     67.6056      0.0000    712.9666      4.5241
  1729.5000     67.0572      0.0000    720.1568      4.5061
  1729.7500     68.2531      0.0000    718.8705      4.4655
  1730.0000     71.3733      0.0000    713.8433      4.4108
  1730.2500     75.8670      0.0000    711.4458      4.3563
  1730.5000     80.4458      0.0000    714.5353      4.3005
  1730.7500     83.8170      0.0000    719.9704      4.2429
  1731.0000     85.4201      0.0000    723.4888      4.1919
  1731.2500     85.3510      0.0000    724.6478      4.1522
  1731.5000     83.7741      0.0000    725.0139      4.1230
  1731.7500     80.8450      0.0000    724.4860      4.1014
  1732.0000     77.2289      0.0000    720.8079      4.0862
  1732.2500     74.1082      0.0000    712.5752      4.0758
  1732.5000     72.4170      0.0000    702.4061      4.0653
  1732.7500     72.4238      0.0000    695.2824      4.0515
  1733.0000     74.0765      0.0000    693.6153      4.0380
  1733.2500     77.1809      0.0000    696.2849      4.0227
  1733.5000     81.0407      0.0000    700.7626      3.9981
  1733.7500     84.3683      0.0000    704.2535      3.9838
  1734.0000     85.9696      0.0000    706.0543      4.0141
  1734.2500     85.5306      0.0000    707.7993      4.0742
  1734.5000     83.6530      0.0000    708.9288      4.1079
  1734.7500     81.1497      0.0000    707.2773      4.0860
  1735.0000     78.3703      0.0000    703.8474      4.0242
  1735.2500     75.2319      0.0000    701.2348      3.9609
  1735.5000     71.9014      0.0000    700.0469      3.9437
  1735.7500     69.3259      0.0000    699.5997      4.0088
  1736.0000     68.7761      0.0000    699.6981      4.1447
  1736.2500     70.6370      0.0000    701.0518      4.2888
  1736.5000     73.7611      0.0000    704.5128      4.3778
  1736.7500     76.2431      0.0000    709.0556      4.3927
  1737.0000     76.8883      0.0000    711.0065      4.3537
  1737.2500     75.9094      0.0000    708.1572      4.2938
  1737.5000     74.2954      0.0000    703.5920      4.2383
  1737.7500     72.6444      0.0000    702.4588      4.1965
  1738.0000     70.6030      0.0000    706.8225      4.1846
  1738.2500     67.4442      0.0000    714.3895      4.2436
  1738.5000     63.2152      0.0000    721.0961      4.4067
  1738.7500     59.0114      0.0000    724.8280      4.6488
  1739.0000     55.8520      0.0000    725.7463      4.8847
  1739.2500     53.6554      0.0000    724.3843      5.0350
  1739.5000     51.7299      0.0000    722.3304      5.1008
  1739.7500     49.9011      0.0000    723.4189      5.1590
  1740.0000     48.5832      0.0000    730.1165      5.2757
  1740.2500     47.9218      0.0000    742.0056      5.4315
  1740.5000     47.4249      0.0000    763.2404      5.5392
  1740.7500     46.6182      0.0000    800.0462      5.5565
  1741.0000     45.8040      0.0000    841.5437      5.6057
  1741.2500     45.8704      0.0000    861.1758      5.8342
  1741.5000     47.2716      0.0000    848.9123      6.1269
  1741.7500     49.4148      0.0000    828.4069      6.3057
