~Version Information
VERS.                      2.0: CWLS Log ASCII Standard - VERSION 2.0
WRAP.                       NO: One line per depth step
~Well Information Block
STRT.FT                 6.5000: 
STOP.FT              1054.0000: 
STEP.FT                 0.2500: 
NULL.                -999.2500: 
COMP.          Pioneer Natural Resources: COMPANY
WELL.            Galileo 21-11: WELL
FLD.           Purgatoire River: FIELD
LOC.           407' FNL & 2394' FWL: LOCATION
PROV.                 Colorado: PROVINCE
CNTY.               Las Animas: COUNTRY
SRVC.                Patterson: SERVICE COMPANY
DATE.          Sat Apr 16 10:31:00 2005: LOG DATE
UWI.           05 071 08353 00: UNIQUE WELL ID
~Curve Information Block
DEPT.FT            0 000 00 00: Depth
GR.GAPI                       : Gamma Ray
CCL.                          : Casing Collar Locator
TT3.usec                      : CBL 3' Travel Time
AMP3.mV                       : CBL 3' Amplitude
~Parameter Information Block
~A  Depth        GR         CCL         TT3         AMP3    
# ...
   743.5000    106.3098      0.0000    825.2040     10.5912
   743.7500    106.1924      0.0000    835.7078     10.7010
   744.0000    107.1575      0.0000    872.4872     10.8361
   744.2500    109.9121      0.0000    930.3287     10.9781
   744.5000    113.9401      0.0000    998.0219     11.1087
   744.7500    117.6335      0.0000   1062.0438     11.2083
   745.0000    119.3098      0.0000   1114.7637     11.2648
   745.2500    118.3955      0.0000   1157.2078     11.2805
   745.5000    115.9180      0.0000   1194.1384     11.2633
   745.7500    113.7969      0.0000   1228.4335     11.2169
   746.0000    113.3635      0.0000   1259.2114     11.1467
   746.2500    114.4958      0.0000   1281.2866     11.0735
   746.5000    116.3120      0.0000   1284.6289     11.0316
   746.7500    118.2999      0.0000   1257.6077     11.0480
   747.0000    120.2138      0.0000   1195.6907     11.1208
   747.2500    121.2843      0.0000   1109.6805     11.2122
   747.5000    120.6468      0.0000   1024.0161     11.2686
   747.7500    118.7491      0.0000    962.7452     11.2536
   748.0000    117.4395      0.0000    935.0305     11.1706
   748.2500    118.1875      0.0000    935.1110     11.0560
   748.5000    120.5650      0.0000    954.5042     10.9536
   748.7500    122.5760      0.0000    988.8258     10.8904
   749.0000    122.2810      0.0000   1032.0510     10.8698
   749.2500    119.1810      0.0000   1071.5682     10.8824
   749.5000    114.2382      0.0000   1093.9868     10.9169
   749.7500    108.8757      0.0000   1094.1296     10.9589
   750.0000    104.1577      0.0000   1077.6072     10.9858
   750.2500    100.5212      0.0000   1056.9395     10.9724
   750.5000     97.7822      0.0000   1044.2405     10.9073
   750.7500     95.5173      0.0000   1043.4283     10.8007
   751.0000     93.6556      0.0000   1048.0175     10.6781
   751.2500     92.4760      0.0000   1047.8706     10.5692
   751.5000     91.9788      0.0000   1038.3054     10.4959
   751.7500     91.5349      0.0000   1022.9145     10.4627
   752.0000     90.2288      0.0000   1010.0051     10.4570
   752.2500     87.5511      0.0000   1007.8546     10.4618
   752.5000     83.9619      0.0000   1020.8859     10.4666
   752.7500     80.7423      0.0000   1046.8807     10.4647
   753.0000     79.0433      0.0000   1077.6954     10.4440
   753.2500     78.9799      0.0000   1104.4210     10.3904
   753.5000     79.6992      0.0000   1122.8339     10.3017
   753.7500     80.1889      0.0000   1135.0555     10.1946
   754.0000     79.9062      0.0000   1147.1438     10.0968
   754.2500     78.8594      0.0000   1163.7062     10.0333
   754.5000     77.4071      0.0000   1183.0151     10.0145
   754.7500     75.9789      0.0000   1199.0380     10.0302
   755.0000     74.7892      0.0000   1210.7063     10.0561
   755.2500     73.8515      0.0000   1225.9254     10.0699
   755.5000     73.3847      0.0000   1252.0109     10.0619
   755.7500     74.0796      0.0000   1284.7595     10.0334
   756.0000     76.5090      0.0000   1310.7393      9.9924
   756.2500     80.1639      0.0000   1316.6873      9.9521
   756.5000     83.4652      0.0000   1293.2670      9.9266
   756.7500     85.1396      0.0000   1235.8053      9.9233
   757.0000     85.4956      0.0000   1149.8749      9.9434
   757.2500     85.9747      0.0000   1056.4097      9.9873
   757.5000     87.4671      0.0000    983.8415     10.0521
   757.7500     89.3892      0.0000    948.7709     10.1213
   758.0000     90.3840      0.0000    943.7704     10.1710
   758.2500     89.4901      0.0000    946.5252     10.1919
   758.5000     86.5513      0.0000    942.9021     10.2000
   758.7500     81.9484      0.0000    939.6335     10.2224
   759.0000     76.4010      0.0000    953.7324     10.2708
   759.2500     71.0022      0.0000    993.2321     10.3273
   759.5000     66.9751      0.0000   1051.5404     10.3570
   759.7500     65.1463      0.0000   1116.7811     10.3411
   760.0000     65.7870      0.0000   1180.4028     10.3001
   760.2500     68.9009      0.0000   1237.0837     10.2767
   760.5000     74.1200      0.0000   1281.8899     10.2961
   760.7500     80.1888      0.0000   1309.7422     10.3478
   761.0000     85.2103      0.0000   1315.0690     10.4027
   761.2500     87.8934      0.0000   1290.9137     10.4408
   761.5000     88.2867      0.0000   1231.5479     10.4651
   761.7500     87.2408      0.0000   1140.5881     10.4973
   762.0000     85.7320      0.0000   1036.4882     10.5597
   762.2500     84.8110      0.0000    945.4514     10.6568
   762.5000     85.4105      0.0000    886.9170     10.7721
   762.7500     87.4843      0.0000    867.5700     10.8834
   763.0000     89.4984      0.0000    887.3395     10.9788
   763.2500     89.5372      0.0000    943.5020     11.0582
   763.5000     87.2750      0.0000   1024.5205     11.1247
   763.7500     84.4250      0.0000   1105.2897     11.1790
   764.0000     82.9197      0.0000   1158.9031     11.2164
   764.2500     83.0985      0.0000   1178.0120     11.2268
   764.5000     83.9465      0.0000   1180.4044     11.1986
   764.7500     84.3881      0.0000   1189.0198     11.1277
   765.0000     83.8342      0.0000   1207.3179     11.0232
   765.2500     81.9983      0.0000   1215.4324     10.9003
   765.5000     78.8828      0.0000   1188.4441     10.7688
   765.7500     75.0377      0.0000   1118.6652     10.6323
   766.0000     71.7298      0.0000   1023.4424     10.4970
   766.2500     70.6773      0.0000    932.6375     10.3777
   766.5000     73.0546      0.0000    867.7016     10.2957
   766.7500     78.3316      0.0000    831.7620     10.2696
   767.0000     84.3304      0.0000    816.0481     10.3048
   767.2500     88.8586      0.0000    810.9844     10.3899
   767.5000     91.1644      0.0000    811.1715     10.5014
   767.7500     91.5887      0.0000    815.2591     10.6113
   768.0000     90.3772      0.0000    825.4459     10.6916
   768.2500     87.6008      0.0000    846.7775     10.7208
   768.5000     84.0251      0.0000    883.7784     10.6945
   768.7500     81.1257      0.0000    935.4525     10.6257
   769.0000     79.8049      0.0000    993.4084     10.5313
   769.2500     79.4490      0.0000   1045.9071     10.4236
   769.5000     78.6392      0.0000   1083.8950     10.3172
   769.7500     76.6172      0.0000   1102.6801     10.2345
   770.0000     73.8490      0.0000   1099.5576     10.1972
   770.2500     71.3995      0.0000   1073.8492     10.2132
   770.5000     70.0643      0.0000   1031.7974     10.2720
   770.7500     70.0032      0.0000    989.1809     10.3493
   771.0000     70.8039      0.0000    963.1658     10.4187
   771.2500     71.7806      0.0000    957.7729     10.4643
   771.5000     72.4541      0.0000    959.3972     10.4833
   771.7500     72.8583      0.0000    950.1006     10.4790
   772.0000     73.2134      0.0000    924.6317     10.4551
   772.2500     73.3732      0.0000    892.3683     10.4180
   772.5000     72.9648      0.0000    865.0927     10.3763
   772.7500     72.1235      0.0000    846.8724     10.3354
   773.0000     71.7390      0.0000    834.7086     10.2942
   773.2500     72.6965      0.0000    824.5642     10.2489
   773.5000     74.9119      0.0000    815.1417     10.1987
   773.7500     77.2493      0.0000    807.6986     10.1488
   774.0000     78.3498      0.0000    804.5769     10.1093
   774.2500     77.4651      0.0000    809.0503     10.0901
   774.5000     74.6976      0.0000    826.3112     10.0854
   774.7500     70.8956      0.0000    862.5398     10.0464
   775.0000     67.4058      0.0000    920.2667      9.8669
   775.2500     65.4478      0.0000    993.2886      9.4359
   775.5000     65.3568      0.0000   1066.9004      8.7545
   775.7500     66.4023      0.0000   1125.3510      7.9969
   776.0000     67.2965      0.0000   1161.2759      7.4034
   776.2500     66.9173      0.0000   1179.1150      7.0954
   776.5000     64.9338     -2.7393   1189.1969      7.0159
   776.7500     62.0946     -2.6270   1198.9716      7.0352
