~Version Information
VERS.                      2.0: CWLS Log ASCII Standard - VERSION 2.0
WRAP.                       NO: One line per depth step
~Well Information Block
STRT.FT               953.8000: 
STOP.FT              2226.0000: 
STEP.FT                 0.1000: 
NULL.                -999.2500: 
COMP.          Petrogulf Corporation: COMPANY
WELL.             Burson 8-13R: WELL
FLD.           Purgatorie River: FIELD
LOC.           1045' FNL & 2189' FEL: LOCATION
CNTY.               Las Animas: COUNTY
SRVC.                         : SERVICE COMPANY
DATE.          Fri Apr 30 07:30:36 2004: LOG DATE
UWI.           05 071 08039 00: UNIQUE WELL ID
STAT.                 Colorado: STATE
~Curve Information Block
DEPT.FT            0 000 00 00: Depth
DCAL.in                       : CDL Caliper
RHOB.g/cc                     : CDL Bulk Density
RHOC.g/cc                     : CDL Density Correction
DPOR.pu                       : CDL Density Porosity
NPOR.pu                       : Neutron Porosity
GR.GAPI                       : Gamma Ray
~Parameter Information Block
~A  Depth       DCAL        RHOB        RHOC        DPOR        NPOR         GR     
# ...
  1366.6000      8.1347      1.2769      0.0306     83.2167     36.7513     25.4230
  1366.7000      8.1347      1.2943      0.0466     82.1607     36.8818     24.6447
  1366.8000      8.1427      1.3117      0.0492     81.1067     36.3808     24.6760
  1366.9000      8.1427      1.3224      0.0692     80.4581     35.2549     25.6348
  1367.0000      8.2145      1.3264      0.0662     80.2176     34.4838     30.1493
  1367.1000      8.2145      1.3374      0.0462     79.5528     34.6012     37.7121
  1367.2000      8.2145      1.3739      0.0750     77.3412     35.0681     45.2773
  1367.3000      8.4355      1.4461      0.0605     72.9653     35.4149     54.0147
  1367.4000      8.4355      1.5533      0.1149     66.4654     35.6376     64.3336
  1367.5000      8.2792      1.6816      0.1296     58.6890     35.5381     74.2769
  1367.6000      8.2792      1.8100      0.1945     50.9108     34.6475     83.3807
  1367.7000      8.2792      1.9257      0.1994     43.8994     33.2583     90.5222
  1367.8000      8.1553      2.0230      0.2334     37.9998     32.3567     93.2263
  1367.9000      8.1553      2.0934      0.2303     33.7346     32.0890     94.6308
  1368.0000      8.0895      2.1370      0.1851     31.0923     32.0647    100.1732
  1368.1000      8.0895      2.1636      0.1232     29.4817     31.8268    105.7117
  1368.2000      8.0895      2.1764      0.0837     28.7038     31.1938    107.2756
  1368.3000      8.0824      2.1762      0.0445     28.7175     30.6784    110.3616
  1368.4000      8.0824      2.1778     -0.0538     28.6176     30.5285    117.0675
  1368.5000      8.0845      2.1924      0.0307     27.7356     30.4981    124.2515
  1368.6000      8.0845      2.2054      0.0453     26.9440     30.4766    129.0348
  1368.7000      8.0845      2.2103      0.0270     26.6510     30.5486    126.8021
  1368.8000      8.0903      2.2175      0.0871     26.2148     30.5429    114.8311
  1368.9000      8.0903      2.2292      0.1465     25.5057     30.0936     98.8250
  1369.0000      8.0849      2.2484      0.1455     24.3367     29.6224     91.6359
  1369.1000      8.0849      2.2908      0.1408     21.7715     29.6109     98.1663
  1369.2000      8.0849      2.3546      0.1810     17.9023     29.4791    109.3066
  1369.3000      8.0853      2.4148      0.1773     14.2553     29.2693    117.1444
  1369.4000      8.0853      2.4596      0.1419     11.5411     29.8384    124.1809
  1369.5000      8.0798      2.4986      0.1901      9.1779     30.8345    131.5876
  1369.6000      8.0798      2.5409      0.2277      6.6136     31.0588    131.5312
  1369.7000      8.0798      2.5906      0.2439      3.5974     30.4143    121.2150
  1369.8000      8.0370      2.6399      0.2407      0.6145     29.8546    111.6904
  1369.9000      8.0370      2.6682      0.1927     -1.1028     29.9086    113.2620
  1370.0000      8.0239      2.6708      0.1110     -1.2589     30.3215    121.2630
  1370.1000      8.0239      2.6665      0.0483     -0.9970     30.7695    125.4335
  1370.2000      8.0239      2.6694      0.0933     -1.1783     31.1502    123.2121
  1370.3000      8.0289      2.6697      0.0977     -1.1931     31.4163    121.0059
  1370.4000      8.0289      2.6487      0.0893      0.0775     31.6259    126.3404
  1370.5000      8.0278      2.6049      0.0485      2.7321     31.7610    136.8607
  1370.6000      8.0278      2.5639     -0.0217      5.2179     31.5710    142.0271
  1370.7000      8.0278      2.5472      0.0107      6.2286     31.0174    136.2450
  1370.8000      8.0267      2.5473     -0.0386      6.2216     30.5586    126.9826
  1370.9000      8.0267      2.5487      0.0321      6.1378     30.5728    124.6898
  1371.0000      8.0253      2.5395      0.0172      6.6941     30.8788    129.4690
  1371.1000      8.0253      2.5109      0.0990      8.4309     31.3093    137.2395
  1371.2000      8.0253      2.4736      0.0178     10.6893     31.8891    142.2034
  1371.3000      8.0252      2.4586      0.0588     11.5998     32.4102    139.6246
  1371.4000      8.0252      2.4701      0.0758     10.9060     32.4937    134.6516
  1371.5000      8.0314      2.4821      0.1062     10.1785     32.0993    133.0489
  1371.6000      8.0314      2.4816      0.1176     10.2073     31.7572    131.9477
  1371.7000      8.0314      2.4786      0.1227     10.3899     31.6998    128.1582
  1371.8000      8.0346      2.4801      0.1125     10.2995     31.3785    123.0704
  1371.9000      8.0346      2.4808      0.1169     10.2522     30.9580    117.6773
  1372.0000      8.0243      2.4849      0.0733     10.0063     31.1990    115.2878
  1372.1000      8.0243      2.5042      0.0921      8.8378     31.7358    119.5827
  1372.2000      8.0243      2.5320      0.1150      7.1531     31.5900    125.3224
  1372.3000      8.0235      2.5529      0.0992      5.8855     31.0371    124.1219
  1372.4000      8.0235      2.5654      0.0837      5.1252     30.9269    117.3000
  1372.5000      8.0250      2.5739      0.1239      4.6116     31.1627    113.4070
  1372.6000      8.0250      2.5801      0.0926      4.2351     31.3387    113.9533
  1372.7000      8.0250      2.5918      0.0532      3.5272     31.4456    111.8728
  1372.8000      8.0349      2.6081      0.0519      2.5403     31.6130    105.6536
  1372.9000      8.0349      2.6141      0.0493      2.1785     31.8601    102.9623
  1373.0000      8.0308      2.6036      0.0248      2.8096     31.8110    107.0481
  1373.1000      8.0308      2.5846      0.0228      3.9644     31.2215    110.0687
  1373.2000      8.0308      2.5650      0.0189      5.1537     30.7084    107.4781
  1373.3000      8.0441      2.5484      0.0086      6.1592     30.5912    104.6947
  1373.4000      8.0441      2.5321      0.0404      7.1479     30.4678    105.4232
  1373.5000      8.0334      2.5110      0.0488      8.4226     30.1922    110.0915
  1373.6000      8.0334      2.4902      0.0339      9.6844     29.9293    119.0577
  1373.7000      8.0334      2.4714      0.0731     10.8229     30.0628    128.3258
  1373.8000      8.0306      2.4453      0.0799     12.4039     30.5953    130.5417
  1373.9000      8.0306      2.4158      0.0394     14.1910     30.9951    123.9282
  1374.0000      8.0226      2.4031      0.0535     14.9649     30.9341    117.7764
  1374.1000      8.0226      2.4106      0.0857     14.5063     30.6267    122.5698
  1374.2000      8.0226      2.4204      0.0981     13.9152     30.8092    134.9992
  1374.3000      8.0243      2.4213      0.0834     13.8612     31.6885    141.5120
  1374.4000      8.0243      2.4163      0.0709     14.1615     32.5569    137.1870
  1374.5000      8.0266      2.4105      0.0895     14.5164     33.0064    130.3859
  1374.6000      8.0266      2.4104      0.0892     14.5196     33.1229    126.3380
  1374.7000      8.0266      2.4215      0.0964     13.8492     33.0006    119.6333
  1374.8000      8.0265      2.4362      0.0673     12.9566     32.9122    109.2142
  1374.9000      8.0265      2.4385      0.0736     12.8165     33.0060    100.5766
  1375.0000      8.0241      2.4230      0.0404     13.7583     33.1342     98.0732
  1375.1000      8.0241      2.4049      0.0383     14.8553     33.3054    103.5271
  1375.2000      8.0241      2.3959      0.0876     15.4029     33.5271    112.7073
  1375.3000      8.0251      2.3884      0.0495     15.8526     33.4224    120.1099
  1375.4000      8.0251      2.3742      0.0537     16.7150     32.7574    124.2567
  1375.5000      8.0261      2.3572      0.0499     17.7452     32.0496    124.0347
  1375.6000      8.0261      2.3491      0.0668     18.2365     32.0119    121.7470
  1375.7000      8.0261      2.3547      0.0838     17.8970     32.5190    121.2690
  1375.8000      8.0273      2.3669      0.0574     17.1590     32.9441    122.8818
  1375.9000      8.0273      2.3721      0.1202     16.8409     33.2165    125.4428
  1376.0000      8.0267      2.3554      0.1297     17.8526     33.5835    125.6894
  1376.1000      8.0267      2.3178      0.0778     20.1333     33.8413    122.1903
