~Version Information
VERS.                      2.0: CWLS Log ASCII Standard - VERSION 2.0
WRAP.                       NO: One line per depth step
~Well Information Block
STRT.FT                60.5000: 
STOP.FT              1875.7500: 
STEP.FT                 0.2500: 
NULL.                -999.2500: 
COMP.          Petrogulf Corporation: COMPANY
WELL.             State 16-14R: WELL
FLD.           Purgatorie River: FIELD
LOC.           598' FSL & 682' FWL--: LOCATION
PROV.                       CO: PROVINCE
CNTY.               Las Animas: COUNTRY
SRVC.                         : SERVICE COMPANY
DATE.          Fri Nov 12 08:50:45 2004: LOG DATE
UWI.            005 071 08034 : UNIQUE WELL ID
~Curve Information Block
DEPT.FT            0 000 00 00: Depth
GR.GAPI                       : Gamma Ray
CCL.                          : Casing Collar Locator
TT3.usec                      : CBL 3' Travel Time
AMP3.mV                       : CBL 3' Amplitude
~Parameter Information Block
~A  Depth        GR         CCL         TT3         AMP3    
# ...
   194.5000     67.4041      0.0000    299.3113     27.6598
   194.7500     64.5255      0.0000    299.2737     27.5497
   195.0000     60.3129      0.0000    299.2530     27.5865
   195.2500     56.7000      0.0000    299.2406     27.7767
   195.5000     54.9865      0.0000    299.2289     28.0501
   195.7500     54.8721      0.0000    299.2148     28.3013
   196.0000     55.2601      0.0000    299.2029     28.4553
   196.2500     55.5330      0.0000    299.1989     28.5054
   196.5000     55.9971      0.0000    299.2005     28.4910
   196.7500     57.3881      0.0000    299.1991     28.4431
   197.0000     60.1555      0.0000    299.1898     28.3618
   197.2500     64.1571      0.0000    299.1760     28.2442
   197.5000     68.7690      0.0000    299.1653     28.1103
   197.7500     73.1529      0.0000    299.1599     27.9917
   198.0000     76.6973      0.0000    299.1544     27.9069
   198.2500     79.5856      0.0000    299.1428     27.8578
   198.5000     82.7907      0.0000    299.1286     27.8424
   198.7500     87.0224      0.0000    299.1236     27.8660
   199.0000     91.7666      0.0000    299.1370     27.9423
   199.2500     95.8193      0.0000    299.1638     28.0831
   199.5000     98.5043      0.0000    299.1861     28.2806
   199.7500     99.8377      0.0000    299.1869     28.5028
   200.0000     99.9767      0.0000    299.1624     28.7128
   200.2500     99.2212      0.0000    299.1222     28.8931
   200.5000     98.1351      0.0000    299.0772     29.0458
   200.7500     97.0444      0.0000    299.0321     29.1722
   201.0000     95.7699      0.0000    298.9889     29.2573
   201.2500     94.3464      0.0000    298.9526     29.2747
   201.5000     93.5543      0.0000    298.9316     29.1975
   201.7500     94.0427      0.0000    298.9355     29.0024
   202.0000     95.0973      0.0000    298.9734     28.6742
   202.2500     95.1085      0.0000    299.0496     28.2187
   202.5000     93.5418      0.0000    299.1577     27.6768
   202.7500     91.9771      0.0000    299.2820     27.1209
   203.0000     92.9858      0.0000    299.4043     26.6291
   203.2500     98.0599      0.0000    299.5092     26.2503
   203.5000    106.3454      0.0000    299.5860     25.9873
   203.7500    114.9105      0.0000    299.6297     25.8072
   204.0000    120.4475      0.0000    299.6432     25.6669
   204.2500    121.3148      0.0000    299.6373     25.5316
   204.5000    118.2296      0.0000    299.6271     25.3817
   204.7500    113.2111      0.0000    299.6271     25.2159
   205.0000    108.2300      0.0000    299.6451     25.0526
   205.2500    104.6202      0.0000    299.6754     24.9276
   205.5000    103.0027      0.0000    299.6980     24.8875
   205.7500    103.2790      0.0000    299.6868     24.9772
   206.0000    104.6547      0.0000    299.6227     25.2192
   206.2500    105.7204      0.0000    299.5043     25.5916
   206.5000    104.7888      0.0000    299.3510     26.0242
   206.7500    100.8366      0.0000    299.1930     26.4245
   207.0000     94.5099      0.0000    299.0569     26.7219
   207.2500     87.9731      0.0000    298.9564     26.9041
   207.5000     83.4766      0.0000    298.8931     27.0183
   207.7500     81.9507      0.0000    298.8615     27.1365
   208.0000     82.9897      0.0000    298.8515     27.3140
   208.2500     85.8844      0.0000    298.8508     27.5704
   208.5000     90.0060      0.0000    298.8491     27.8872
   208.7500     94.1209      0.0000    298.8448     28.2072
   209.0000     96.4792      0.0000    298.8461     28.4456
   209.2500     96.4113      0.0000    298.8631     28.5281
   209.5000     95.2932      0.0000    298.8982     28.4380
   209.7500     95.0282      0.0000    298.9417     28.2299
   210.0000     95.9505      0.0000    298.9780     27.9986
   210.2500     96.9847      0.0000    298.9999     27.8303
   210.5000     97.4862      0.0000    299.0167     27.7681
   210.7500     98.0133      0.0000    299.0488     27.7954
   211.0000     99.3113      0.0000    299.1115     27.8433
   211.2500    101.1322      0.0000    299.2032     27.8335
   211.5000    102.1972      0.0000    299.3051     27.7338
   211.7500    101.2160      0.0000    299.3914     27.5805
   212.0000     98.0508      0.0000    299.4419     27.4386
   212.2500     93.9401      0.0000    299.4500     27.3365
   212.5000     90.5228      0.0000    299.4249     27.2413
   212.7500     88.5156      0.0000    299.3882     27.0913
   213.0000     87.2249      0.0000    299.3673     26.8422
   213.2500     85.4147      0.0000    299.3908     26.4859
   213.5000     82.7559      0.0000    299.4828     26.0459
   213.7500     80.2197      0.0000    299.6487     25.5715
   214.0000     78.8033      0.0000    299.8591     25.1329
   214.2500     77.9627      0.0000    300.0529     24.8043
   214.5000     75.9283      0.0000    300.1680     24.6341
   214.7500     71.9902      0.0000    300.2038     24.6106
   215.0000     67.8790      0.0000    300.3105     24.6472
   215.2500     66.1994      0.0000    301.1198     24.6065
   215.5000     67.9489      0.0000    304.7399     24.3560
   215.7500     72.0516      0.0000    316.5843     23.8115
   216.0000     76.6769      0.0000    346.6305     22.9401
   216.2500     80.4773      0.0000    406.5355     21.7591
   216.5000     83.1300      0.0000    500.6827     20.3581
   216.7500     85.3250      0.0000    617.2074     18.9025
   217.0000     87.8859      0.0000    730.0100     17.5765
   217.2500     90.4516      0.0000    813.3912     16.5234
   217.5000     91.2724      0.0000    856.5868     15.8209
   217.7500     88.8321      0.0000    866.1254     15.4658
   218.0000     83.7712      0.0000    857.5609     15.3717
   218.2500     78.8404     -2.0000    845.0473     15.4260
   218.5000     76.5503      2.0000    834.4621     15.5712
   218.7500     76.8824      2.0000    822.0511     15.8476
   219.0000     77.5390      0.0000    799.7329     16.3533
   219.2500     76.3587      0.0000    765.1038     17.1368
   219.5000     73.4049      0.0000    727.9526     18.0931
   219.7500     70.9399      0.0000    704.1385     18.9918
   220.0000     71.5756      0.0000    700.0937     19.6572
   220.2500     76.1666      0.0000    704.1261     20.0906
   220.5000     83.0400      0.0000    693.9655     20.3994
   220.7500     89.1784      0.0000    652.3815     20.6736
   221.0000     92.4958      0.0000    578.5629     20.9512
   221.2500     93.2764      0.0000    489.2403     21.2367
   221.5000     93.3628      0.0000    408.3398     21.5188
   221.7500     93.9774      0.0000    351.9436     21.7859
   222.0000     94.5748      0.0000    321.3771     22.0282
   222.2500     93.6543      0.0000    308.3906     22.2332
   222.5000     90.1812      0.0000    304.0125     22.3857
   222.7500     84.2891      0.0000    302.8015     22.4844
   223.0000     77.4157      0.0000    302.5044     22.5608
   223.2500     72.2406      0.0000    302.4170     22.6906
   223.5000     71.7719      0.0000    302.3353     22.9706
   223.7500     77.1983      0.0000    302.1821     23.4553
   224.0000     86.3648      0.0000    301.9634     24.1063
   224.2500     95.0595      0.0000    301.7292     24.8134
   224.5000    100.1661      0.0000    301.5296     25.4629
   224.7500    101.5043      0.0000    301.3865     25.9878
   225.0000    100.9596      0.0000    301.2979     26.3863
   225.2500    100.4730      0.0000    301.2488     26.7168
   225.5000    101.0058      0.0000    301.2171     27.0601
   225.7500    102.9701      0.0000    301.1824     27.4611
   226.0000    106.9529      0.0000    301.1356     27.9032
   226.2500    113.3152      0.0000    301.0775     28.3304
   226.5000    120.8602      0.0000    301.0104     28.6823
   226.7500    126.4777      0.0000    300.9344     28.9127
   227.0000    127.1640      0.0000    300.8522     28.9924
   227.2500    122.8045      0.0000    300.7751     28.9121
   227.5000    116.5023      0.0000    300.7208     28.6876
   227.7500    111.7889      0.0000    300.7037     28.3591
