~Version Information
VERS.                      2.0: CWLS Log ASCII Standard - VERSION 2.0
WRAP.                       NO: One line per depth step
~Well Information Block
STRT.FT               819.0000: 
STOP.FT              2497.0000: 
STEP.FT                 0.2500: 
NULL.                -999.2500: 
COMP.          Petrogulf Corporation: COMPANY
WELL.             State 16-21V: WELL
FLD.           Purgatorie River: FIELD
LOC.           1738' FWL & 332' FNL: LOCATION
PROV.                 Colorado: PROVINCE
CNTY.               Las Animas: COUNTRY
SRVC.          Patterson Wireline: SERVICE COMPANY
DATE.          Sun Jul 13 13:45:48 2003: LOG DATE
UWI.              05-071-07884: UNIQUE WELL ID 05 071 08829 00
~Curve Information Block
DEPT.FT            0 000 00 00: Depth
DCAL.in                       : CDL Caliper
RHOB.g/cc                     : CDL Bulk Density
RHOC.g/cc                     : CDL Density Correction
DPOR.pu                       : CDL Density Porosity
GR.GAPI                       : Gamma Ray
NPOR.pu                       : Neutron Porosity
~Parameter Information Block
~A  Depth       DCAL        RHOB        RHOC        DPOR         GR         NPOR    
# ...
  1947.0000      8.0380      2.5402      0.0881      6.6533    135.6817     26.5247
  1947.2500      8.0755      2.5427      0.0946      6.5048    132.2513     25.9865
  1947.5000      8.0820      2.5474      0.1014      6.2209    127.2888     25.1517
  1947.7500      8.0412      2.5507      0.1022      6.0178    124.4757     24.7452
  1948.0000      7.9885      2.5554      0.0976      5.7327    121.2419     24.4450
  1948.2500      7.9699      2.5581      0.0926      5.5723    119.9232     24.3724
  1948.5000      7.9796      2.5610      0.0862      5.3924    119.2784     24.2832
  1948.7500      7.9717      2.5623      0.0832      5.3148    119.3125     24.2063
  1949.0000      7.9291      2.5634      0.0786      5.2472    118.9057     24.1149
  1949.2500      7.8985      2.5640      0.0751      5.2140    118.0381     24.0916
  1949.5000      7.8957      2.5653      0.0713      5.1356    116.5579     24.0844
  1949.7500      7.8999      2.5668      0.0716      5.0442    116.2661     24.0688
  1950.0000      7.9003      2.5699      0.0773      4.8526    117.8424     24.0098
  1950.2500      7.8971      2.5721      0.0830      4.7182    120.0552     23.9499
  1950.5000      7.8929      2.5744      0.0893      4.5837    123.5058     23.8295
  1950.7500      7.8942      2.5745      0.0895      4.5769    124.9139     23.7291
  1951.0000      7.9066      2.5724      0.0825      4.7042    125.4309     23.5715
  1951.2500      7.9220      2.5700      0.0742      4.8494    125.3089     23.4853
  1951.5000      7.9245      2.5666      0.0606      5.0571    125.1781     23.3999
  1951.7500      7.9225      2.5654      0.0531      5.1275    143.6870     23.3455
  1952.0000      7.9278      2.5664      0.0464      5.0673    142.3501     23.1598
  1952.2500      7.9282      2.5689      0.0456      4.9151    140.9200     22.8957
  1952.5000      7.9162      2.5747      0.0498      4.5658    138.8479     22.2601
  1952.7500      7.8994      2.5792      0.0553      4.2919    155.7689     21.7593
  1953.0000      7.8896      2.5860      0.0654      3.8784    153.7722     21.1440
  1953.2500      7.8863      2.5902      0.0716      3.6223    151.4902     20.9342
  1953.5000      7.8854      2.5958      0.0776      3.2830    145.9969     20.8899
  1953.7500      7.8855      2.5990      0.0790      3.0903    157.4450     20.8917
  1954.0000      7.8837      2.6027      0.0787      2.8665    147.7414     20.5691
  1954.2500      7.8806      2.6041      0.0780      2.7829    139.8519     19.9498
  1954.5000      7.8816      2.6036      0.0761      2.8136    124.7880     18.3664
  1954.7500      7.8837      2.6010      0.0731      2.9673    112.4831     17.0724
  1955.0000      7.8808      2.5939      0.0657      3.3986     92.4756     15.3495
  1955.2500      7.8766      2.5876      0.0606      3.7798     80.1734     14.6263
  1955.5000      7.8793      2.5778      0.0571      4.3745     66.7344     14.3247
  1955.7500      7.8841      2.5722      0.0585      4.7180     62.0116     14.5484
  1956.0000      7.8872      2.5660      0.0651      5.0889     60.2699     15.1956
  1956.2500      7.8874      2.5635      0.0714      5.2429     61.1682     15.6291
  1956.5000      7.8814      2.5611      0.0810      5.3881     62.9554     15.9995
  1956.7500      7.8723      2.5599      0.0855      5.4619     63.3607     15.9798
  1957.0000      7.8711      2.5583      0.0864      5.5546     62.1596     15.6085
  1957.2500      7.8792      2.5579      0.0835      5.5792     60.5058     15.2590
  1957.5000      7.8859      2.5595      0.0793      5.4826     58.3461     14.8388
  1957.7500      7.8878      2.5626      0.0803      5.2954     58.5326     14.7492
  1958.0000      7.8862      2.5701      0.0892      4.8416     64.0900     15.0383
  1958.2500      7.8798      2.5762      0.0981      4.4740     72.4457     15.5551
  1958.5000      7.8726      2.5849      0.1121      3.9482     91.1028     16.7824
  1958.7500      7.8850      2.5893      0.1205      3.6798    105.3367     17.7943
  1959.0000      7.9237      2.5928      0.1294      3.4684    124.7850     19.3164
  1959.2500      7.9524      2.5928      0.1311      3.4667    135.0368     20.1894
  1959.5000      7.9551      2.5897      0.1253      3.6556    146.5666     21.1979
  1959.7500      7.9527      2.5859      0.1167      3.8837    152.2575     21.7127
  1960.0000      7.9523      2.5788      0.1006      4.3170    157.7011     22.3903
  1960.2500      7.9532      2.5737      0.0907      4.6233    158.8620     22.8397
  1960.5000      7.9606      2.5670      0.0813      5.0322    157.0916     23.5481
  1960.7500      7.9737      2.5637      0.0796      5.2322    154.3252     24.0617
  1961.0000      7.9819      2.5612      0.0818      5.3790    149.1250     24.9015
  1961.2500      7.9830      2.5615      0.0846      5.3658    145.2830     25.4171
  1961.5000      7.9837      2.5644      0.0882      5.1909    138.7546     25.7756
  1961.7500      7.9887      2.5677      0.0896      4.9898    133.5279     25.5581
  1962.0000      8.0037      2.5739      0.0903      4.6106    123.6417     24.5435
  1962.2500      8.0199      2.5783      0.0899      4.3439    115.4573     23.5617
  1962.5000      8.0174      2.5840      0.0882      4.0016    101.3737     21.9102
  1962.7500      8.0030      2.5863      0.0861      3.8598     91.6920     20.7745
  1963.0000      7.9841      2.5867      0.0817      3.8389     78.2394     19.0692
  1963.2500      7.9599      2.5846      0.0784      3.9632     70.2265     17.9517
  1963.5000      7.9434      2.5788      0.0740      4.3151     59.0709     16.3348
  1963.7500      7.9375      2.5740      0.0719      4.6077     51.9544     15.2965
  1964.0000      7.9345      2.5669      0.0697      5.0340     42.3051     13.8256
  1964.2500      7.9325      2.5630      0.0682      5.2699     37.2586     12.9749
  1964.5000      7.9323      2.5586      0.0651      5.5399     32.7328     12.0889
  1964.7500      7.9327      2.5562      0.0617      5.6842     31.8704     11.8594
  1965.0000      7.9329      2.5528      0.0533      5.8885     33.4509     12.1538
  1965.2500      7.9351      2.5506      0.0462      6.0234     36.3131     12.7813
  1965.5000      7.9398      2.5478      0.0378      6.1963     44.2125     14.2710
  1965.7500      7.9454      2.5466      0.0372      6.2667     52.9607     15.5155
  1966.0000      7.9492      2.5463      0.0463      6.2834     72.5243     17.5541
  1966.2500      7.9507      2.5470      0.0573      6.2439     89.2905     18.9380
  1966.5000      7.9553      2.5487      0.0737      6.1414    116.6666     20.9049
  1966.7500      7.9694      2.5501      0.0811      6.0566    133.7828     22.0423
  1967.0000      7.9845      2.5526      0.0870      5.9042    153.8672     23.3669
  1967.2500      7.9909      2.5545      0.0901      5.7853    162.3137     24.0012
  1967.5000      7.9968      2.5574      0.0966      5.6097    167.8049     24.6583
  1967.7500      8.0074      2.5588      0.1008      5.5272    167.9762     24.9323
  1968.0000      8.0086      2.5593      0.1026      5.4997    166.1908     25.1658
  1968.2500      7.9974      2.5586      0.1006      5.5412    165.3475     25.3013
  1968.5000      8.0108      2.5571      0.0967      5.6274    166.1180     25.6816
  1968.7500      8.0352      2.5568      0.0960      5.6495    167.8480     26.0862
  1969.0000      8.0330      2.5581      0.0988      5.5720    171.0295     26.7466
  1969.2500      8.0187      2.5602      0.1019      5.4453    172.8531     27.0765
  1969.5000      8.0121      2.5644      0.1053      5.1870    174.5083     27.3181
  1969.7500      8.0083      2.5674      0.1050      5.0064    174.7667     27.3825
  1970.0000      8.0036      2.5711      0.0997      4.7803    173.9615     27.4886
  1970.2500      7.9920      2.5727      0.0937      4.6845    172.7327     27.5596
  1970.5000      7.9841      2.5732      0.0827      4.6532    169.5047     27.4624
  1970.7500      7.9871      2.5722      0.0747      4.7146    165.7312     27.1142
