~Version Information
VERS.                      2.0: CWLS Log ASCII Standard - VERSION 2.0
WRAP.                       NO: One line per depth step
~Well Information Block
STRT.FT               743.8000: 
STOP.FT              1975.8000: 
STEP.FT                 0.1000: 
NULL.                -999.2500: 
COMP.          Petrogulf Corporation: COMPANY
WELL.            Montoya 6-14V: WELL
FLD.           Purgatorie River: FIELD
LOC.           318' FSL & 882' FWL: LOCATION
CNTY.               Las Animas: COUNTY
SRVC.                         : SERVICE COMPANY
DATE.          Sat Aug 14 09:19:43 2004: LOG DATE
UWI.           05 071 08020 00: UNIQUE WELL ID
STAT.                 Colorado: STATE
~Curve Information Block
DEPT.FT            0 000 00 00: Depth
DCAL.in                       : CDL Caliper
RHOB.g/cc                     : CDL Bulk Density
RHOC.g/cc                     : CDL Density Correction
DPOR.pu                       : CDL Density Porosity
GR.GAPI                       : Gamma Ray
NPOR.pu                       : Neutron Porosity
~Parameter Information Block
~A  Depth       DCAL        RHOB        RHOC        DPOR         GR         NPOR    
# ...
  1118.2000      7.8206      2.4870      0.0112      9.8772    142.3865     26.8784
  1118.3000      7.8299      2.4826      0.0080     10.1470    146.3153     26.7662
  1118.4000      7.8299      2.4836     -0.0056     10.0836    151.8375     26.8769
  1118.5000      7.8039      2.4947     -0.0031      9.4108    152.4477     26.6994
  1118.6000      7.8039      2.5104      0.0193      8.4625    144.7678     25.9397
  1118.7000      7.8039      2.5261     -0.0046      7.5092    132.9770     25.3769
  1118.8000      7.8338      2.5416      0.0447      6.5708    121.5145     25.1964
  1118.9000      7.8338      2.5549      0.0358      5.7614    113.7551     24.5824
  1119.0000      7.8384      2.5724      0.0189      4.7015    114.3978     23.7204
  1119.1000      7.8384      2.6071      0.0542      2.5980    120.0723     23.2233
  1119.2000      7.8384      2.6569      0.0748     -0.4182    118.9997     23.1443
  1119.3000      7.8172      2.7013      0.1050     -3.1076    109.3753     23.6569
  1119.4000      7.8172      2.7244      0.1083     -4.5065     96.4392     24.1089
  1119.5000      7.7939      2.7314      0.0424     -4.9342     81.6550     23.2561
  1119.6000      7.7939      2.7342      0.0549     -5.1001     71.0498     21.5437
  1119.7000      7.7939      2.7255      0.0563     -4.5732     69.9138     20.5740
  1119.8000      7.7903      2.6909      0.0542     -2.4803     75.8208     20.6665
  1119.9000      7.7903      2.6407     -0.0025      0.5635     82.6386     20.6976
  1120.0000      7.8057      2.6040     -0.0235      2.7886     85.4941     19.9954
  1120.1000      7.8057      2.5938     -0.0340      3.4051     86.9166     19.2364
  1120.2000      7.8057      2.6046     -0.0201      2.7530     90.9951     19.1673
  1120.3000      7.7896      2.6207      0.0309      1.7730     95.5407     19.5098
  1120.4000      7.7896      2.6238      0.0600      1.5893     98.7338     19.8121
  1120.5000      7.7749      2.6085      0.0705      2.5159    103.5568     20.1719
  1120.6000      7.7749      2.5870      0.0392      3.8202    109.0026     20.5575
  1120.7000      7.7749      2.5718      0.0594      4.7364    111.7922     20.9597
  1120.8000      7.8075      2.5679      0.0121      4.9761    112.3578     21.6117
  1120.9000      7.8075      2.5795      0.0181      4.2746    113.7613     22.2351
  1121.0000      7.8015      2.5912      0.0582      3.5627    114.5114     22.7857
  1121.1000      7.8015      2.5829      0.0250      4.0694    111.4842     23.4885
  1121.2000      7.8015      2.5670      0.0343      5.0277    110.0225     24.2532
  1121.3000      7.7954      2.5592      0.0197      5.5041    113.9044     24.8559
  1121.4000      7.7954      2.5567      0.0173      5.6535    116.5123     24.7544
  1121.5000      7.8283      2.5576      0.0040      5.5990    113.1380     23.9624
  1121.6000      7.8283      2.5613      0.0182      5.3758    107.8738     23.1761
  1121.7000      7.8283      2.5659      0.0271      5.0986    105.3440     22.4657
  1121.8000      7.8249      2.5753      0.0083      4.5250    106.6667     21.8065
  1121.9000      7.8249      2.5945      0.0142      3.3665    107.3018     21.4119
  1122.0000      7.8268      2.6172      0.0301      1.9887    104.1607     21.2092
  1122.1000      7.8268      2.6292      0.0560      1.2605     99.4181     21.0669
  1122.2000      7.8268      2.6247      0.0009      1.5361     93.2290     21.0895
  1122.3000      7.8137      2.6148      0.0036      2.1353     86.3338     21.0831
  1122.4000      7.8137      2.6127      0.0166      2.2614     80.7600     20.6194
  1122.5000      7.8106      2.6226     -0.0343      1.6606     78.4957     20.4387
  1122.6000      7.8106      2.6310      0.0094      1.1544     83.9676     21.2749
  1122.7000      7.8106      2.6210     -0.0050      1.7588     95.4753     22.1984
  1122.8000      7.8436      2.6028     -0.0029      2.8635    105.3215     22.4090
  1122.9000      7.8436      2.5925     -0.0189      3.4863    112.6525     21.9564
  1123.0000      7.8470      2.5893      0.0029      3.6791    115.5678     21.0429
  1123.1000      7.8470      2.5846      0.0541      3.9647    110.3870     20.1420
  1123.2000      7.8470      2.5770      0.0153      4.4221    104.3024     19.9233
  1123.3000      7.8474      2.5792     -0.0190      4.2923    102.8992     20.4297
  1123.4000      7.8474      2.5940      0.0267      3.3925    101.7226     21.0180
  1123.5000      7.8370      2.6048      0.0463      2.7424     97.0420     21.2966
  1123.6000      7.8370      2.6023      0.0490      2.8914     91.0500     21.1446
  1123.7000      7.8370      2.5974      0.0239      3.1875     89.2389     20.8166
  1123.8000      7.8234      2.6040     -0.0099      2.7854     94.8663     20.6507
  1123.9000      7.8234      2.6156      0.0799      2.0829    106.4144     20.4446
  1124.0000      7.8252      2.6074      0.0497      2.5795    116.4894     20.2660
  1124.1000      7.8252      2.5769     -0.0004      4.4308    119.9500     20.6830
  1124.2000      7.8252      2.5509     -0.0340      6.0081    120.0114     21.5253
  1124.3000      7.8069      2.5495     -0.0004      6.0890    119.5164     21.7290
  1124.4000      7.8069      2.5639      0.0072      5.2185    115.9315     21.3089
  1124.5000      7.8322      2.5697      0.0123      4.8668    109.7433     21.2866
  1124.6000      7.8322      2.5636     -0.0161      5.2386    105.6180     21.7989
  1124.7000      7.8322      2.5651      0.0015      5.1442    105.0146     22.1351
  1124.8000      7.8616      2.5805      0.0480      4.2104    104.2604     21.9755
  1124.9000      7.8616      2.5994      0.0598      3.0669     99.3027     21.7684
  1125.0000      7.8615      2.6115      0.0778      2.3326     91.1075     21.7239
  1125.1000      7.8615      2.6117      0.0803      2.3184     86.1271     21.7597
  1125.2000      7.8615      2.6004      0.0634      3.0077     85.4984     22.1781
  1125.3000      7.8409      2.5809      0.0360      4.1900     84.7531     23.2070
  1125.4000      7.8409      2.5613      0.0372      5.3787     85.2316     24.3595
  1125.5000      7.8448      2.5495      0.0136      6.0891     90.8441     25.0903
  1125.6000      7.8448      2.5420      0.0172      6.5450    100.3861     25.4290
  1125.7000      7.8448      2.5230     -0.0182      7.6978    108.3662     25.6268
  1125.8000      7.8488      2.4877     -0.0307      9.8370    111.6309     25.8375
  1125.9000      7.8488      2.4517     -0.0327     12.0210    111.5534     26.1836
  1126.0000      7.8472      2.4256     -0.0006     13.5974    111.1472     26.8075
  1126.1000      7.8472      2.4030     -0.0333     14.9671    115.4671     27.6318
  1126.2000      7.8472      2.3768     -0.0026     16.5604    122.6677     28.3526
  1126.3000      7.8763      2.3572     -0.0216     17.7485    125.1209     28.5574
  1126.4000      7.8763      2.3678     -0.0132     17.1007    124.6628     28.4246
  1126.5000      7.8590      2.4154      0.0213     14.2211    124.0685     28.5854
  1126.6000      7.8590      2.4795      0.1096     10.3353    120.6007     29.0252
  1126.7000      7.8590      2.5372      0.1404      6.8334    120.6318     29.4876
  1126.8000      7.8507      2.5821      0.1723      4.1178    132.5491     29.8606
  1126.9000      7.8507      2.6114      0.3119      2.3403    148.8918     30.0656
  1127.0000      7.8608      2.6175      0.3277      1.9726    155.4653     30.0770
  1127.1000      7.8608      2.5985      0.2805      3.1240    151.3129     29.7753
  1127.2000      7.8608      2.5525      0.2715      5.9112    148.7536     29.1846
  1127.3000      7.9471      2.4866      0.1115      9.9009    153.1577     28.7025
  1127.4000      7.9471      2.4313      0.0074     13.2567    156.7123     28.6235
  1127.5000      7.8684      2.4093     -0.0129     14.5907    153.6752     28.7265
  1127.6000      7.8684      2.4250     -0.0059     13.6367    148.8520     28.8320
  1127.7000      7.8684      2.4671      0.0648     11.0822    149.4755     28.8888
