~Version Information
VERS.                      2.0: CWLS Log ASCII Standard - VERSION 2.0
WRAP.                       NO: One line per depth step
~Well Information Block
STRT.FT                -6.7500: 
STOP.FT              2058.2500: 
STEP.FT                 0.2500: 
NULL.                -999.2500: 
COMP.          Petrogulf Corporation: COMPANY
WELL.           Schedler 9-23R: WELL
FLD.           Purgatorie River: FIELD
LOC.           2084' FSL & 2331' FWL--: LOCATION
PROV.                       CO: PROVINCE
CNTY.               Las Animas: COUNTRY
SRVC.                         : SERVICE COMPANY
DATE.          Fri Nov 12 13:22:46 2004: LOG DATE
UWI.       005 071 08040 : UNIQUE WELL ID
~Curve Information Block
DEPT.FT            0 000 00 00: Depth
GR.GAPI                       : Gamma Ray
CCL.                          : Casing Collar Locator
TT3.usec                      : CBL 3' Travel Time
AMP3.mV                       : CBL 3' Amplitude
~Parameter Information Block
~A  Depth        GR         CCL         TT3         AMP3    
    -6.7500   -999.2500   -999.2500   -999.2500   -999.2500
    -6.5000   -999.2500   -999.2500   -999.2500   -999.2500
    -6.2500   -999.2500   -999.2500   -999.2500   -999.2500
    -6.0000   -999.2500   -999.2500   -999.2500   -999.2500
    -5.7500   -999.2500   -999.2500   -999.2500   -999.2500
    -5.5000   -999.2500   -999.2500    921.0000      1.1765
    -5.2500   -999.2500   -999.2500    921.0000      1.1758
    -5.0000   -999.2500   -999.2500    921.0000      1.1827
    -4.7500   -999.2500   -999.2500    921.0000      1.1995
    -4.5000   -999.2500   -999.2500    921.0000      1.2156
    -4.2500   -999.2500   -999.2500    921.0000      1.2274
    -4.0000   -999.2500   -999.2500    921.0000      1.2441
    -3.7500   -999.2500   -999.2500    921.0000      1.2681
    -3.5000   -999.2500   -999.2500    921.0000      1.2838
    -3.2500   -999.2500   -999.2500    921.0000      1.2746
    -3.0000   -999.2500   -999.2500    921.0000      1.2461
    -2.7500   -999.2500   -999.2500    921.0000      1.2194
    -2.5000   -999.2500   -999.2500    921.0000      1.2058
    -2.2500   -999.2500   -999.2500    921.0000      1.1996
    -2.0000   -999.2500   -999.2500    921.0000      1.1922
    -1.7500   -999.2500   -999.2500    921.0000      1.1836
    -1.5000   -999.2500   -999.2500    921.0000      1.1791
    -1.2500   -999.2500   -999.2500    921.0000      1.1812
    -1.0000   -999.2500   -999.2500    921.0000      1.1864
    -0.7500   -999.2500   -999.2500    921.0000      1.1870
    -0.5000   -999.2500   -999.2500    921.0000      1.1778
    -0.2500   -999.2500      0.0000    921.0000      1.1634
     0.0000   -999.2500      0.0000    921.0000      1.1559
     0.2500   -999.2500      0.0000    921.0000      1.1625
     0.5000   -999.2500      0.0000    921.0000      1.1787
     0.7500   -999.2500      0.0000    921.0000      1.1951
     1.0000   -999.2500      0.0000    921.0000      1.2076
     1.2500   -999.2500      0.0000    920.9557      1.2186
     1.5000   -999.2500      0.0000    920.6670      1.2426
     1.7500   -999.2500      0.0000    919.2007      1.3794
     2.0000   -999.2500      0.0000    913.4020      1.9929
     2.2500   -999.2500      0.0000    895.5414      3.9548
     2.5000   -999.2500      0.0000    852.6991      8.6721
     2.7500   -999.2500      0.0000    772.6659     17.4207
     3.0000   -999.2500      0.0000    656.2313     30.0396
     3.2500   -999.2500      0.0000    524.3124     44.2242
     3.5000   -999.2500      2.0000    407.9155     56.6608
     3.7500   -999.2500      0.0000    327.9337     65.1862
     4.0000   -999.2500      0.0000    285.1293     69.7917
     4.2500   -999.2500      0.0000    267.2806     71.8021
     4.5000   -999.2500      0.0000    261.4704     72.5664
     4.7500     38.0905      0.0000    259.9803     72.8675
     5.0000     36.9451      0.0000    259.6666     73.0176
     5.2500     37.5398      0.0000    259.6052     73.1119
     5.5000     39.3809      0.0000    259.5995     73.1809
     5.7500     41.3259      0.0000    259.6031     73.2466
     6.0000     42.2015      0.0000    259.6110     73.3263
     6.2500     41.5482      0.0000    259.6172     73.4227
     6.5000     40.0403      0.0000    259.6173     73.5194
     6.7500     39.0410      0.0000    259.6104     73.5982
     7.0000     39.6227      0.0000    259.6005     73.6572
     7.2500     42.0409      0.0000    259.5928     73.7079
     7.5000     45.9592      0.0000    259.5892     73.7554
     7.7500     50.8128      0.0000    259.5858     73.7867
     8.0000     55.7702      0.0000    259.5764     73.7813
     8.2500     59.5369      0.0000    259.5592     73.7331
     8.5000     60.6283      0.0000    259.5392     73.6593
     8.7500     58.2978      0.0000    259.5238     73.5900
     9.0000     53.4832      0.0000    259.5177     73.5465
     9.2500     48.6981      0.0000    259.5204     73.5266
     9.5000     46.3972      0.0000    259.5275     73.5116
     9.7500     46.9853      0.0000    259.5342     73.4932
    10.0000     48.5738      0.0000    259.5380     73.4819
    10.2500     48.9425      0.0000    259.5379     73.4891
    10.5000     47.5273      0.0000    259.5334     73.5108
    10.7500     45.3257      0.0000    259.5243     73.5393
    11.0000     43.3255      0.0000    259.5117     73.5820
    11.2500     41.6018      0.0000    259.4991     73.6586
    11.5000     39.8172      0.0000    259.4910     73.7785
    11.7500     37.9592      0.0000    259.4898     73.9256
    12.0000     36.3198      0.0000    259.4931     74.0665
    12.2500     35.0509      0.0000    259.4963     74.1725
    12.5000     33.9300      0.0000    259.4973     74.2387
    12.7500     32.5173      0.0000    259.4983     74.2858
    13.0000     30.6584      0.0000    259.5009     74.3429
    13.2500     28.7977      0.0000    259.5031     74.4248
    13.5000     27.4702      0.0000    259.5001     74.5194
    13.7500     26.5613      0.0000    259.4906     74.5981
    14.0000     25.6396      0.0000    259.4789     74.6426
    14.2500     25.0309      0.0000    259.4711     74.6601
    14.5000     25.9363      0.0000    259.4691     74.6685
    14.7500     29.2329      0.0000    259.4702     74.6720
    15.0000     34.4568      0.0000    259.4705     74.6602
    15.2500     40.0561      0.0000    259.4692     74.6306
    15.5000     44.4292      0.0000    259.4703     74.6005
    15.7500     46.7378      0.0000    259.4788     74.5916
    16.0000     47.0988      0.0000    259.4959     74.6013
    16.2500     46.2694      0.0000    259.5269     74.6012
    16.5000     45.0289      0.0000    259.6005     74.5520
    16.7500     43.6426      0.0000    259.8852     74.3739
    17.0000     41.9404      0.0000    260.9117     73.8502
    17.2500     39.8927      0.0000    263.7892     72.5647
    17.5000     37.9213      0.0000    269.8177     70.1171
    17.7500     36.5469      0.0000    278.9624     66.6358
    18.0000     35.8554      0.0000    288.3009     63.0185
    18.2500     35.3886      0.0000    293.1155     60.3235
    18.5000     34.6615      0.0000    290.8412     58.8437
    18.7500     33.9261      0.0000    283.5326     58.0314
    19.0000     34.2545      0.0000    275.6782     57.2761
    19.2500     36.5104      0.0000    270.2964     56.4444
    19.5000     40.3130     -2.0000    267.6684     55.7360
    19.7500     44.3357     -2.0000    266.7057     55.3560
    20.0000     47.5347      0.0000    266.4107     55.3840
    20.2500     49.8148      0.0000    266.2794     55.8314
    20.5000     51.6259      0.0000    266.0869     56.7905
    20.7500     53.2774      0.0000    265.6582     58.5007
    21.0000     54.7132      0.0000    264.8276     61.1174
    21.2500     55.8015      0.0000    263.5826     64.3572
    21.5000     56.6761      0.0000    262.1394     67.5787
    21.7500     57.6014      0.0000    260.8221     70.2889
    22.0000     58.4796      0.0000    259.8516     72.3967
    22.2500     58.6864      0.0000    259.2569     73.9846
    22.5000     57.7168      0.0000    258.9436     75.0954
    22.7500     56.0247      0.0000    258.7982     75.7773
    23.0000     54.7701      0.0000    258.7396     76.1469
    23.2500     54.5456      0.0000    258.7211     76.3364
    23.5000     54.8112      0.0000    258.7188     76.4297
    23.7500     54.7094      0.0000    258.7213     76.4610
    24.0000     53.9532      0.0000    258.7231     76.4458
    24.2500     52.8175      0.0000    258.7207     76.4074
    24.5000     51.6851      0.0000    258.7115     76.3760
    24.7500     50.8604      0.0000    258.6968     76.3689
    25.0000     50.7532      0.0000    258.6825     76.3790
    25.2500     51.9277      0.0000    258.6753     76.3841
    25.5000     54.4487      0.0000    258.6786     76.3648
    25.7500     57.1637      0.0000    258.6903     76.3184
    26.0000     58.3568      0.0000    258.7041     76.2637
    26.2500     57.4894      0.0000    258.7132     76.2281
    26.5000     55.9260      0.0000    258.7137     76.2259
