~Version Information
VERS.                      2.0: CWLS Log ASCII Standard - VERSION 2.0
WRAP.                       NO: One line per depth step
~Well Information Block
STRT.FT               748.2500: 
STOP.FT              2498.5000: 
STEP.FT                 0.2500: 
NULL.                -999.2500: 
COMP.          Petrogulf Corporation: COMPANY
WELL.           Montoya 13-41V: WELL
FLD.           Purgatorie River: FIELD
LOC.           449' FNL & 891' FEL: LOCATION
CNTY.               Las Animas: COUNTY
SRVC.                         : SERVICE COMPANY
DATE.          Tue Aug 17 13:22:31 2004: LOG DATE
UWI.           05 071 08021 00: UNIQUE WELL ID
STAT.                 Colorado: STATE
~Curve Information Block
DEPT.FT            0 000 00 00: Depth
SP.mV                         : DIL Spontaneous Potential
RILD.Ohm-m                    : DIL Deep Resistivity
RILM.Ohm-m                    : DIL Medium Resistivity
RLL3.Ohm-m                    : DIL Shallow Resistivity
GR.GAPI                       : Gamma Ray
~Parameter Information Block
~A  Depth        SP         RILD        RILM        RLL3         GR     
# ...
  1560.2500     53.1529     23.6705     27.8600     28.5194    131.8404
  1560.5000     53.0537     24.1667     28.5806     29.4850    125.3764
  1560.7500     53.0098     24.6082     29.2772     30.0661    122.8634
  1561.0000     53.0260     24.9689     29.9377     30.3761    122.1933
  1561.2500     53.1002     25.2330     30.5524     30.6712    122.7755
  1561.5000     53.2237     25.3997     31.1130     31.1952    122.7713
  1561.7500     53.3829     25.4796     31.6118     32.0130    121.7393
  1562.0000     53.5615     25.4919     32.0412     32.9439    120.2872
  1562.2500     53.7432     25.4634     32.3950     33.6652    120.6444
  1562.5000     53.9145     25.4281     32.6682     33.9274    123.4348
  1562.7500     54.0664     25.4213     32.8588     33.7179    125.8428
  1563.0000     54.1968     25.4675     32.9681     33.2442    128.6030
  1563.2500     54.3098     25.5659     33.0014     32.7597    129.5390
  1563.5000     54.4157     25.6844     32.9678     32.3827    130.1017
  1563.7500     54.5280     25.7679     32.8804     32.0535    130.6562
  1564.0000     54.6603     25.7611     32.7542     31.6502    132.7296
  1564.2500     54.8228     25.6349     32.6030     31.1541    134.4556
  1564.5000     55.0206     25.3996     32.4361     30.7202    135.0983
  1564.7500     55.2519     25.0979     32.2554     30.5862    133.2874
  1565.0000     55.5097     24.7805     32.0541     30.8844    128.2974
  1565.2500     55.7836     24.4819     31.8180     31.5072    124.9075
  1565.5000     56.0619     24.2085     31.5291     32.1428    121.1745
  1565.7500     56.3335     23.9434     31.1719     32.4580    119.5183
  1566.0000     56.5889     23.6628     30.7385     32.2819    117.8380
  1566.2500     56.8203     23.3551     30.2333     31.6473    117.3625
  1566.5000     57.0211     23.0294     29.6725     30.6851    118.3622
  1566.7500     57.1866     22.7102     29.0801     29.5012    120.4837
  1567.0000     57.3140     22.4210     28.4807     28.1604    125.3912
  1567.2500     57.4033     22.1681     27.8913     26.7714    128.9955
  1567.5000     57.4581     21.9338     27.3158     25.5565    133.3475
  1567.7500     57.4849     21.6824     26.7441     24.8074    134.8221
  1568.0000     57.4917     21.3772     26.1555     24.7405    133.9516
  1568.2500     57.4863     21.0007     25.5271     25.3511    131.1115
  1568.5000     57.4743     20.5662     24.8437     26.3601    124.5587
  1568.7500     57.4579     20.1148     24.1055     27.2908    120.2887
  1569.0000     57.4367     19.7016     23.3304     27.6503    117.2277
  1569.2500     57.4083     19.3783     22.5502     27.1464    118.3860
  1569.5000     57.3704     19.1801     21.8025     25.8341    124.0706
  1569.7500     57.3223     19.1195     21.1231     24.0956    129.0460
  1570.0000     57.2657     19.1865     20.5405     22.4407    135.9487
  1570.2500     57.2043     19.3541     20.0744     21.2396    139.4838
  1570.5000     57.1435     19.5875     19.7367     20.5643    143.1852
  1570.7500     57.0888     19.8536     19.5334     20.2482    145.0092
  1571.0000     57.0453     20.1270     19.4661     20.1101    147.6116
  1571.2500     57.0168     20.3904     19.5334     20.1652    149.4164
  1571.5000     57.0064     20.6319     19.7306     20.6529    151.1548
  1571.7500     57.0169     20.8432     20.0484     21.8540    150.3339
  1572.0000     57.0510     21.0236     20.4717     23.8281    144.3287
  1572.2500     57.1119     21.1854     20.9784     26.2766    137.4349
  1572.5000     57.2032     21.3566     21.5396     28.6490    125.7965
  1572.7500     57.3276     21.5729     22.1200     30.4294    119.5507
  1573.0000     57.4861     21.8648     22.6819     31.3903    115.5327
  1573.2500     57.6764     22.2425     23.1886     31.6282    116.8539
  1573.5000     57.8920     22.6888     23.6089     31.3898    122.8723
  1573.7500     58.1217     23.1597     23.9200     30.8703    127.4351
  1574.0000     58.3513     23.5924     24.1077     30.1405    131.8759
  1574.2500     58.5648     23.9141     24.1648     29.2063    132.5692
  1574.5000     58.7468     24.0501     24.0874     28.0904    131.4805
  1574.7500     58.8845     23.9353     23.8718     26.8602    130.9571
  1575.0000     58.9686     23.5303     23.5127     25.6138    133.0661
  1575.2500     58.9944     22.8366     23.0035     24.4623    136.8231
  1575.5000     58.9611     21.8992     22.3398     23.5220    144.0889
  1575.7500     58.8723     20.7935     21.5240     22.8952    148.0199
  1576.0000     58.7357     19.6026     20.5703     22.6215    149.9565
  1576.2500     58.5624     18.4004     19.5068     22.6169    148.4698
  1576.5000     58.3657     17.2434     18.3743     22.6461    144.0681
  1576.7500     58.1598     16.1700     17.2199     22.3834    141.4718
  1577.0000     57.9574     15.2031     16.0901     21.5596    140.9833
  1577.2500     57.7686     14.3518     15.0234     20.1094    143.9422
  1577.5000     57.5999     13.6126     14.0470     18.2101    152.8599
  1577.7500     57.4550     12.9717     13.1761     16.1827    160.2694
  1578.0000     57.3351     12.4086     12.4155     14.3323    170.5921
  1578.2500     57.2402     11.9012     11.7627     12.8402    176.1044
  1578.5000     57.1702     11.4318     11.2106     11.7513    182.4706
  1578.7500     57.1247     10.9923     10.7499     11.0226    185.5533
  1579.0000     57.1026     10.5842     10.3707     10.5788    187.8104
  1579.2500     57.1025     10.2156     10.0633     10.3439    187.4925
  1579.5000     57.1218      9.8953      9.8189     10.2539    185.3733
  1579.7500     57.1581      9.6288      9.6294     10.2601    184.1504
  1580.0000     57.2086      9.4160      9.4875     10.3264    184.0907
  1580.2500     57.2713      9.2530      9.3860     10.4261    184.9416
  1580.5000     57.3446      9.1334      9.3182     10.5426    185.5771
  1580.7500     57.4273      9.0505      9.2773     10.6746    184.5949
  1581.0000     57.5184      8.9983      9.2566     10.8381    180.8450
  1581.2500     57.6169      8.9714      9.2498     11.0535    177.3249
  1581.5000     57.7213      8.9637      9.2510     11.3214    171.5717
  1581.7500     57.8301      8.9688      9.2555     11.6025    168.2206
  1582.0000     57.9412      8.9790      9.2599     11.8242    165.4441
  1582.2500     58.0519      8.9871      9.2621     11.9142    165.4879
  1582.5000     58.1585      8.9867      9.2614     11.8424    167.8636
  1582.7500     58.2558      8.9745      9.2583     11.6392    170.5275
  1583.0000     58.3369      8.9504      9.2538     11.3790    175.7794
  1583.2500     58.3935      8.9175      9.2495     11.1395    179.8630
  1583.5000     58.4167      8.8809      9.2475     10.9670    185.7676
  1583.7500     58.3978      8.8463      9.2503     10.8683    188.7109
  1584.0000     58.3306      8.8185      9.2611     10.8263    190.6108
  1584.2500     58.2118      8.8017      9.2839     10.8216    190.0832
  1584.5000     58.0429      8.7992      9.3233     10.8416    187.2584
  1584.7500     57.8299      8.8141      9.3844     10.8772    184.7436
  1585.0000     57.5829      8.8489      9.4720     10.9203    181.0326
  1585.2500     57.3154      8.9043      9.5897     10.9771    178.5866
  1585.5000     57.0434      8.9778      9.7381     11.0929    174.0548
  1585.7500     56.7836      9.0619      9.9141     11.3711    169.9604
  1586.0000     56.5525      9.1443     10.1091     11.9607    162.1464
  1586.2500     56.3643      9.2100     10.3090     13.0010    156.3300
  1586.5000     56.2296      9.2455     10.4953     14.5343    148.2623
  1586.7500     56.1537      9.2438     10.6478     16.4240    144.1814
  1587.0000     56.1364      9.2082     10.7494     18.3297    140.5770
  1587.2500     56.1719      9.1519     10.7913     19.7833    139.8443
  1587.5000     56.2503      9.0937     10.7754     20.3570    141.5002
  1587.7500     56.3596      9.0520     10.7137     19.8496    144.6592
  1588.0000     56.4885      9.0404     10.6254     18.3868    151.9663
