~Version Information
VERS.                      2.0: CWLS Log ASCII Standard - VERSION 2.0
WRAP.                       NO: One line per depth step
~Well Information Block
STRT.FT               483.5000: 
STOP.FT              2348.7500: 
STEP.FT                 0.2500: 
NULL.                -999.2500: 
COMP.          Pioneer Natural Resources: COMPANY
WELL.          Hill Climb 22-2: WELL
FLD.           Purgatoire River: FIELD
LOC.           1820' FNL & 2193' FWL: LOCATION
PROV.                 Colorado: PROVINCE
CNTY.               Las Animas: COUNTRY
SRVC.                Patterson: SERVICE COMPANY
DATE.          Wed Oct 20 08:57:51 2004: LOG DATE
UWI.           05 071 08175 00: UNIQUE WELL ID
~Curve Information Block
DEPT.FT            0 000 00 00: Depth
DIR.Ohm-m                     : IEL Induction Resistivity
SN.Ohm-m                      : IEL Short Normal
SP.mV                         : IEL Spontaneous Potential
GR.GAPI                       : Gamma Ray
~Parameter Information Block
~A  Depth       DIR          SN          SP          GR     
# ...
  1589.0000      0.0000      0.0000      0.0000     81.4732
  1589.2500      0.0000      0.0000      0.0000     77.1710
  1589.5000      0.0000      0.0000      0.0000     73.5851
  1589.7500      0.0000      0.0000      0.0000     72.3341
  1590.0000      0.0000      0.0000      0.0000     71.3722
  1590.2500      0.0000      0.0000      0.0000     71.0087
  1590.5000      0.0000      0.0000      0.0000     70.1032
  1590.7500      0.0000      0.0000      0.0000     69.2038
  1591.0000      0.0000      0.0000      0.0000     69.3056
  1591.2500      0.0000      0.0000      0.0000     72.2232
  1591.5000      0.0000      0.0000      0.0000     82.8315
  1591.7500      0.0000      0.0000      0.0000     93.5169
  1592.0000      0.0000      0.0000      0.0000    111.8801
  1592.2500      0.0000      0.0000      0.0000    123.6361
  1592.5000      0.0000      0.0000      0.0000    137.5872
  1592.7500      0.0000      0.0000      0.0000    142.9661
  1593.0000      0.0000      0.0000      0.0000    143.7205
  1593.2500      0.0000      0.0000      0.0000    140.0655
  1593.5000      0.0000      0.0000      0.0000    132.2970
  1593.7500      0.0000      0.0000      0.0000    127.8486
  1594.0000      0.0000      0.0000      0.0000    123.1425
  1594.2500      0.0000      0.0000      0.0000    120.4740
  1594.5000      0.0000      0.0000      0.0000    116.5058
  1594.7500      0.0000      0.0000      0.0000    114.5678
  1595.0000      0.0000      0.0000      0.0000    113.6428
  1595.2500      0.0000      0.0000      0.0000    113.6105
  1595.5000      0.0000      0.0000      0.0000    111.8219
  1595.7500      0.0000      0.0000      0.0000    108.6928
  1596.0000      0.0000      0.0000      0.0000    102.6117
  1596.2500      0.0000      0.0000      0.0000     99.4789
  1596.5000      0.0000      0.0000      0.0000     98.4501
  1596.7500      0.0000      0.0000      0.0000    100.3117
  1597.0000      0.0000      0.0000      0.0000    105.4245
  1597.2500      0.0000      0.0000      0.0000    109.1658
  1597.5000      0.0000      0.0000      0.0000    113.8498
  1597.7500      0.0000      0.0000      0.0000    116.4395
  1598.0000      0.0000      0.0000      0.0000    121.0822
  1598.2500      0.0000      0.0000      0.0000    125.4541
  1598.5000      0.0000      0.0000      0.0000    133.2402
  1598.7500      0.0000      0.0000      0.0000    137.9269
  1599.0000      0.0000      0.0000      0.0000    142.8043
  1599.2500      0.0000      0.0000      0.0000    145.1143
  1599.5000      0.0000      0.0000      0.0000    149.0610
  1599.7500      0.0000      0.0000      0.0000    152.3449
  1600.0000      0.0000      0.0000      0.0000    156.2779
  1600.2500      0.0000      0.0000      0.0000    156.3884
  1600.5000      0.0000      0.0000      0.0000    151.2039
  1600.7500      0.0000      0.0000      0.0000    144.7450
  1601.0000      0.0000      0.0000      0.0000    132.4143
  1601.2500      0.0000      0.0000      0.0000    123.1300
  1601.5000      0.0000      0.0000      0.0000    108.5548
  1601.7500      0.0000      0.0000      0.0000     99.3377
  1602.0000      0.0000      0.0000      0.0000     87.9243
  1602.2500      0.0000      0.0000      0.0000     82.1982
  1602.5000      0.0000      0.0000      0.0000     75.7058
  1602.7500      0.0000      0.0000      0.0000     72.3516
  1603.0000      0.0000      0.0000      0.0000     69.2606
  1603.2500      0.0000      0.0000      0.0000     69.5602
  1603.5000      0.0000      0.0000      0.0000     75.6117
  1603.7500      0.0000      0.0000      0.0000     83.6129
  1604.0000      0.0000      0.0000      0.0000     99.1796
  1604.2500      0.0000      0.0000      0.0000    109.7242
  1604.5000      0.0000      0.0000      0.0000    123.3410
  1604.7500      0.0000      0.0000      0.0000    130.6917
  1605.0000      0.0000      0.0000      0.0000    139.1503
  1605.2500      0.0000      0.0000      0.0000    142.7708
  1605.5000      0.0000      0.0000      0.0000    144.2361
  1605.7500      0.0000      0.0000      0.0000    141.9400
  1606.0000      0.0000      0.0000      0.0000    133.1683
  1606.2500      0.0000      0.0000      0.0000    124.7815
  1606.5000      0.0000      0.0000      0.0000    112.5626
  1606.7500      0.0000      0.0000      0.0000    107.2510
  1607.0000      0.0000      0.0000      0.0000    105.4469
  1607.2500      0.0000      0.0000      0.0000    107.4510
  1607.5000      0.0000      0.0000      0.0000    111.2390
  1607.7500      0.0000      0.0000      0.0000    111.6907
  1608.0000      0.0000      0.0000      0.0000    107.1736
  1608.2500      0.0000      0.0000      0.0000    101.8596
  1608.5000      0.0000      0.0000      0.0000     95.4332
  1608.7500      0.0000      0.0000      0.0000     94.9546
  1609.0000      0.0000      0.0000      0.0000    101.3263
  1609.2500      0.0000      0.0000      0.0000    108.8126
  1609.5000      0.0000      0.0000      0.0000    120.1791
  1609.7500      0.0000      0.0000      0.0000    125.3707
  1610.0000      0.0000      0.0000      0.0000    128.1877
  1610.2500      0.0000      0.0000      0.0000    127.7393
  1610.5000      0.0000      0.0000      0.0000    126.2315
  1610.7500      0.0000      0.0000      0.0000    125.6397
  1611.0000      0.0000      0.0000      0.0000    125.9903
  1611.2500      0.0000      0.0000      0.0000    127.1942
  1611.5000      0.0000      0.0000      0.0000    129.7748
  1611.7500      0.0000      0.0000      0.0000    130.6769
  1612.0000      0.0000      0.0000      0.0000    128.1625
  1612.2500      0.0000      0.0000      0.0000    123.5301
  1612.5000      0.0000      0.0000      0.0000    114.1170
  1612.7500      0.0000      0.0000      0.0000    107.6655
  1613.0000      0.0000      0.0000      0.0000     98.6255
  1613.2500      0.0000      0.0000      0.0000     92.9780
  1613.5000      0.0000      0.0000      0.0000     86.0361
  1613.7500      0.0000      0.0000      0.0000     83.6767
  1614.0000      0.0000      0.0000      0.0000     85.1217
  1614.2500      0.0000      0.0000      0.0000     89.4233
  1614.5000      0.0000      0.0000      0.0000     99.4916
  1614.7500      0.0000      0.0000      0.0000    107.1316
  1615.0000      0.0000      0.0000      0.0000    116.8435
  1615.2500      0.0000      0.0000      0.0000    120.7529
  1615.5000      0.0000      0.0000      0.0000    122.3078
  1615.7500      0.0000      0.0000      0.0000    121.1228
  1616.0000      0.0000      0.0000      0.0000    117.3807
  1616.2500      0.0000      0.0000      0.0000    114.1217
  1616.5000      0.0000      0.0000      0.0000    109.0101
  1616.7500      0.0000      0.0000      0.0000    106.3591
  1617.0000      0.0000      0.0000      0.0000    105.4508
  1617.2500      0.0000      0.0000      0.0000    107.5589
  1617.5000      0.0000      0.0000      0.0000    114.3378
  1617.7500      0.0000      0.0000      0.0000    120.3451
  1618.0000      0.0000      0.0000      0.0000    129.7350
  1618.2500      0.0000      0.0000      0.0000    135.2844
  1618.5000      0.0000      0.0000      0.0000    141.8717
  1618.7500      0.0000      0.0000      0.0000    145.4033
  1619.0000      0.0000      0.0000      0.0000    149.6961
  1619.2500      0.0000      0.0000      0.0000    151.2453
  1619.5000      0.0000      0.0000      0.0000    150.3296
  1619.7500      0.0000      0.0000      0.0000    147.6244
  1620.0000      0.0000      0.0000      0.0000    141.2328
  1620.2500      0.0000      0.0000      0.0000    135.7040
  1620.5000      0.0000      0.0000      0.0000    126.3743
  1620.7500      0.0000      0.0000      0.0000    120.5839
  1621.0000      0.0000      0.0000      0.0000    114.4777
  1621.2500      0.0000      0.0000      0.0000    112.5008
  1621.5000      0.0000      0.0000      0.0000    111.8583
  1621.7500      0.0000      0.0000      0.0000    112.1257
  1622.0000      0.0000      0.0000      0.0000    112.5859
  1622.2500      0.0000      0.0000      0.0000    112.8470
