~Version Information
VERS.                      2.0: CWLS Log ASCII Standard - VERSION 2.0
WRAP.                       NO: One line per depth step
~Well Information Block
STRT.FT                -7.5000: 
STOP.FT               872.5000: 
STEP.FT                 0.5000: 
NULL.                -999.2500: 
COMP.          Pioneer Natural Resources: COMPANY
WELL.          New Mexico 21-5: WELL
FLD.           Purgatorie River: FIELD
LOC.           175' FNL & 1700' FWL: LOCATION
PROV.                 Colorado: PROVINCE
CNTY.               Las Animas: COUNTRY
SRVC.          Patterson Wireline: SERVICE COMPANY
DATE.          Fri Dec 17 09:32:01 2004: LOG DATE
UWI.           05-071-08234-00: UNIQUE WELL ID
~Curve Information Block
DEPT.FT            0 000 00 00: Depth
CCL.                          : Casing Collar Locator
TT3.usec                      : CBL 3' Travel Time
AMP3.mV                       : CBL 3' Amplitude
GR.GAPI                       : Gamma Ray
~Parameter Information Block
~A  Depth       CCL         TT3         AMP3         GR     
    -7.5000   -999.2500   -999.2500   -999.2500   -999.2500
    -7.0000   -999.2500   -999.2500   -999.2500     81.4043
    -6.5000   -999.2500   -999.2500   -999.2500     82.2826
    -6.0000   -999.2500   -999.2500   -999.2500     82.1613
    -5.5000   -999.2500   -999.2500   -999.2500     81.1930
    -5.0000   -999.2500   -999.2500   -999.2500     82.4355
    -4.5000   -999.2500   -999.2500   -999.2500     80.3439
    -4.0000   -999.2500   -999.2500   -999.2500     71.6733
    -3.5000   -999.2500   -999.2500   -999.2500     63.5129
    -3.0000   -999.2500   -999.2500   -999.2500     61.0391
    -2.5000   -999.2500   -999.2500   -999.2500     62.5939
    -2.0000   -999.2500   1203.0000      1.7488     66.0531
    -1.5000   -999.2500   1203.0000      1.7796     67.7541
    -1.0000   -999.2500   1203.0000      1.7512     65.3101
    -0.5000   -999.2500   1203.0000      1.7800     59.7648
     0.0000   -999.2500   1203.0000      1.8460     52.7210
     0.5000   -999.2500   1203.0000      1.8023     47.9832
     1.0000   -999.2500   1203.0000      1.7287     37.9542
     1.5000   -999.2500   1203.0000      1.7275     32.6871
     2.0000   -999.2500   1203.0000      1.7180     38.3350
     2.5000   -999.2500   1203.0000      1.7682     48.7489
     3.0000   -999.2500   1202.9899      1.7876     58.0390
     3.5000      0.0000   1202.6029      1.7675     65.7720
     4.0000      0.0000   1196.3861      1.9551     72.8313
     4.5000      0.0000   1148.8376      3.9913     81.0909
     5.0000      0.0000    963.7841     14.9676     87.4560
     5.5000      0.0000    625.6209     39.0161     90.5491
     6.0000      0.0000    363.1189     60.3288     90.2757
     6.5000      0.0000    281.5170     68.2578     91.5819
     7.0000      0.0000    271.7370     70.1359     91.2051
     7.5000      0.0000    271.2950     71.0830     80.8913
     8.0000      0.0000    271.2362     71.7936     70.2988
     8.5000      0.0000    271.2346     72.2674     66.2609
     9.0000      0.0000    271.3078     72.5125     63.5573
     9.5000      0.0000    271.3948     73.0280     57.6614
    10.0000      0.0000    271.4464     73.6365     54.4335
    10.5000      0.0000    271.4510     74.2419     60.9415
    11.0000      0.0000    271.4200     74.8153     71.1168
    11.5000      0.0000    271.3806     75.1991     78.0315
    12.0000      0.0000    271.3562     75.3576     84.9333
    12.5000      0.0000    271.3583     75.6987     87.4748
    13.0000      0.0000    271.3796     76.3064     82.0495
    13.5000      0.0000    271.3978     76.6868     81.0420
    14.0000      0.0000    271.3924     76.7455     87.6340
    14.5000      0.0000    271.3378     76.8326    105.1468
    15.0000      0.0000    271.2497     77.0447    124.0722
    15.5000      0.0000    271.1888     77.1459    124.2187
    16.0000      0.0000    271.1720     77.1231    110.0139
    16.5000      0.0000    271.1823     77.2756     99.8315
    17.0000      0.0000    271.2081     77.5142     95.2208
    17.5000      0.0000    271.2400     77.6196     88.2354
    18.0000      0.0000    271.2640     77.7479     81.7485
    18.5000      0.0000    271.2617     78.0575     86.6659
    19.0000      0.0000    271.2288     78.4282     91.6015
    19.5000      0.0000    271.1823     78.4903     89.6256
    20.0000      0.0000    271.1997     76.9839     83.7128
    20.5000      0.0000    271.3967     72.1117     77.6355
    21.0000      0.0000    272.3375     62.7822     78.1862
    21.5000      0.0000    277.0222     50.7822     74.5868
    22.0000      0.0000    291.5330     39.3334     70.1331
    22.5000      0.0000    327.1234     29.7179     76.0843
    23.0000      0.0000    435.2943     22.1740     78.9818
    23.5000      0.0000    635.1233     16.5154     72.4884
    24.0000      0.0000    789.4411     12.5124     65.0926
    24.5000      0.0000    850.0756     10.0321     59.4195
    25.0000      0.0000    899.3985      8.8872     57.7459
    25.5000      0.0000    959.0941      8.5195     61.4848
    26.0000      0.0000    977.9864      8.4186     62.9857
    26.5000      0.0000    940.0767      8.4432     59.5899
    27.0000      0.0000    889.9777      8.5040     57.3579
    27.5000      0.0000    852.9180      8.4338     59.6633
    28.0000      0.0000    843.9193      8.2243     61.8256
    28.5000      0.0000    885.2615      7.9028     59.2108
    29.0000      0.0000    982.7403      7.5392     58.2815
    29.5000      0.0000   1066.0570      7.3089     62.5977
    30.0000      0.0000   1069.3519      7.2940     66.4368
    30.5000      0.0000   1022.6842      7.3760     62.8480
    31.0000      0.0000    970.0192      7.4658     58.6539
    31.5000      0.0000    930.3511      7.6042     56.6335
    32.0000      0.0000    904.3740      7.8139     52.1163
    32.5000      0.0000    879.2041      8.0592     50.7781
    33.0000      0.0000    865.0922      8.2513     52.8590
    33.5000      0.0000    880.9199      8.4057     49.9620
    34.0000      0.0000    914.9277      8.5296     48.4392
    34.5000      0.0000    935.5067      8.5301     52.8259
    35.0000      0.0000    944.7815      8.3707     56.3866
    35.5000      0.0000    922.5521      8.0899     56.6762
    36.0000      0.0000    864.5018      7.7582     53.1902
    36.5000      0.0000    830.0716      7.5239     52.7907
    37.0000      0.0000    828.4294      7.4254     56.0118
    37.5000      0.0000    835.1754      7.3233     54.5492
    38.0000      0.0000    830.5404      7.2293     51.2387
    38.5000      0.0000    821.0123      7.2653     47.3464
    39.0000      0.0000    817.5197      7.4182     45.3603
    39.5000      0.0000    816.5661      7.5613     50.8132
    40.0000      0.0000    815.6219      7.6350     56.6944
    40.5000      0.0000    815.0494      7.7032     59.6596
    41.0000      0.0000    814.5664      7.7565     59.7868
    41.5000      0.0000    815.6761      7.5882     55.2382
    42.0000      0.0000    821.8203      7.1933     49.6062
    42.5000      0.0000    828.9343      6.9719     51.6560
    43.0000      0.0000    839.5521      6.7532     57.4773
    43.5000      0.0000    892.7379      6.4624     63.9133
    44.0000      0.0000   1002.3185      6.4011     71.1360
    44.5000      0.0000   1090.5848      6.4952     77.9724
    45.0000      0.0000   1086.8569      6.9128     81.7241
    45.5000      0.0000   1040.3083      7.5948     79.0281
    46.0000      0.0000   1002.2207      7.8075     71.7532
    46.5000      0.0000    979.7361      7.6891     65.6733
    47.0000      0.0000    956.4758      7.5979     61.4919
    47.5000      0.0000    943.2974      7.4193     57.8105
    48.0000      0.0000    913.0316      7.1798     58.7344
    48.5000      0.0000    864.3245      6.9832     66.0877
    49.0000      0.0000    840.8765      6.8009     71.4798
    49.5000      0.0000    838.5660      6.5035     70.8993
    50.0000      0.0000    847.8179      6.0665     70.8883
    50.5000      0.0000    853.7098      5.6474     75.4562
    51.0000      0.0000    847.2281      5.4318     77.7132
    51.5000      0.0000    853.2807      5.4077     72.6234
    52.0000      0.0000    869.8546      5.4539     68.2436
    52.5000      0.0000    876.2798      5.5848     72.1119
    53.0000      0.0000    873.0613      5.8614     79.6116
    53.5000      0.0000    875.6151      6.1658     81.6972
    54.0000      0.0000    883.0878      6.3912     77.7027
    54.5000      0.0000    885.8552      6.6101     74.2852
    55.0000      0.0000    887.7889      6.7480     75.9824
    55.5000      0.0000    885.0406      6.7455     78.3803
    56.0000      0.0000    880.2197      6.7133     72.4440
    56.5000      0.0000    876.7674      6.7172     65.5094
    57.0000      0.0000    865.2566      6.8147     71.1279
    57.5000      0.0000    845.7454      6.9967     83.2190
    58.0000      0.0000    824.4475      7.0193     88.7804
    58.5000      0.0000    809.2458      6.8577     84.4774
    59.0000      0.0000    803.5546      6.7348     83.9672
