~Version Information
VERS.                      2.0: CWLS Log ASCII Standard - VERSION 2.0
WRAP.                       NO: One line per depth step
~Well Information Block
STRT.FT                -7.2500: 
STOP.FT              2827.7500: 
STEP.FT                 0.2500: 
NULL.                -999.2500: 
COMP.          Pioneer Natural Resources: COMPANY
WELL.           Ei-ei-oh 31-24: WELL
FLD.           Purgatorie River: FIELD
LOC.           235' FNL & 2001' FEL--: LOCATION
PROV.                       CO: PROVINCE
CNTY.               Las Animas: COUNTRY
SRVC.          Patterson Wireline: SERVICE COMPANY
DATE.          Tue Aug 23 12:06:00 2005: LOG DATE
UWI.           05 071 08403 00: UNIQUE WELL ID
~Curve Information Block
DEPT.FT            0 000 00 00: Depth
CCL.                          : Casing Collar Locator
TT3.usec                      : CBL 3' Travel Time
AMP3.mV                       : CBL 3' Amplitude
GR.GAPI                       : Gamma Ray
~Parameter Information Block
~A  Depth       CCL         TT3         AMP3         GR     
# ...
   930.7500      0.0000    429.2087     17.8272     96.2052
   931.0000      0.0000    486.4079     17.6096     99.5045
   931.2500      0.0000    569.5057     17.2582    100.2523
   931.5000      0.0000    663.5109     16.8202     97.5466
   931.7500      0.0000    746.3310     16.3885     93.1231
   932.0000      0.0000    803.1631     16.0520     89.4164
   932.2500      0.0000    833.5497     15.8544     87.2731
   932.5000      0.0000    846.2173     15.7839     85.6879
   932.7500      0.0000    850.3220     15.7896     83.3736
   933.0000      0.0000    851.3082     15.8111     80.1652
   933.2500      0.0000    851.4118     15.8026     77.0500
   933.5000      0.0000    851.3216     15.7414     75.1765
   933.7500      0.0000    851.1594     15.6270     74.8400
   934.0000      0.0000    850.5099     15.4775     75.1569
   934.2500      0.0000    847.5054     15.3288     74.6046
   934.5000      0.0000    837.0721     15.2297     72.1874
   934.7500      0.0000    809.9709     15.2223     68.3803
   935.0000      0.0000    756.4329     15.3163     64.7288
   935.2500      0.0000    675.2385     15.4830     62.2804
   935.5000      0.0000    580.1136     15.6751     60.7064
   935.7500      0.0000    493.3694     15.8542     59.2165
   936.0000      0.0000    430.7928     16.0040     57.7215
   936.2500      0.0000    393.5683     16.1240     56.5713
   936.5000      0.0000    373.7167     16.2140     55.8379
   936.7500      0.0000    363.7018     16.2616     55.7423
   937.0000      0.0000    360.2120     16.2464     57.2732
   937.2500      0.0000    362.0899     16.1570     61.1853
   937.5000      0.0000    368.0747     16.0023     66.2503
   937.7500      0.0000    377.7610     15.8066     69.5938
   938.0000      0.0000    394.6816     15.6001     69.4245
   938.2500      0.0000    427.5294     15.4153     66.7475
   938.5000      0.0000    485.4565     15.2829     63.9097
   938.7500      0.0000    568.5362     15.2168     62.2386
   939.0000      0.0000    662.3270     15.1981     61.6518
   939.2500      0.0000    745.0023     15.1836     61.7920
   939.5000      0.0000    801.7833     15.1370     62.6195
   939.7500      0.0000    832.1351     15.0556     64.0231
   940.0000      0.0000    844.7643     14.9639     65.7699
   940.2500      0.0000    848.8980     14.8850     68.2019
   940.5000      0.0000    850.0458     14.8251     72.4795
   940.7500      0.0000    850.4126     14.7828     79.6626
   941.0000      0.0000    850.6032     14.7629     89.6431
   941.2500      0.0000    850.7335     14.7764    101.0103
   941.5000      0.0000    850.8665     14.8270    111.6827
   941.7500      0.0000    851.1133     14.9007    119.7535
   942.0000      0.0000    851.6930     14.9616    124.2951
   942.2500      0.0000    852.9907     14.9574    125.7165
   942.5000      0.0000    855.5385     14.8315    125.4091
   942.7500      0.0000    859.7059     14.5348    124.8599
   943.0000      0.0000    865.1384     14.0428    124.6889
   943.2500      0.0000    870.4969     13.3800    124.3836
   943.5000      0.0000    873.9125     12.6160    123.2322
   943.7500      0.0000    874.1304     11.8211    121.5238
   944.0000      0.0000    871.6307     11.0414    120.4702
   944.2500      0.0000    868.0911     10.3358    120.8553
   944.5000      0.0000    863.9161      9.7915    121.9084
   944.7500      0.0000    857.3143      9.4641    121.4976
   945.0000     -2.0000    847.4810      9.3262    117.8079
   945.2500      0.0000    837.4320      9.3010    111.3069
   945.5000      0.0000    831.3225      9.3365    104.7956
   945.7500      0.0000    829.2258      9.4564    101.1344
   946.0000      0.0000    826.0884      9.7592    101.1096
   946.2500      0.0000    815.5941     10.3426    103.4161
   946.5000      0.0000    794.9556     11.1865    105.9596
   946.7500      0.0000    768.1179     12.1172    107.0920
   947.0000      0.0000    746.2035     12.9210    106.4039
   947.2500      0.0000    742.0991     13.4823    104.9592
   947.5000      0.0000    760.0428     13.8021    104.6471
   947.7500      0.0000    790.9056     13.9308    106.7251
   948.0000      0.0000    820.1834     13.9227    110.5809
   948.2500      0.0000    839.3907     13.8346    114.1332
   948.5000      0.0000    848.7478     13.7265    115.8030
   948.7500      0.0000    852.2608     13.6446    116.0263
   949.0000      0.0000    853.2387     13.6017    116.5654
   949.2500      0.0000    853.3058     13.5814    118.3421
   949.5000      0.0000    853.0947     13.5648    120.3761
   949.7500      0.0000    852.8308     13.5496    121.2050
   950.0000      0.0000    852.5914     13.5435    120.9350
   950.2500      0.0000    852.3765     13.5490    120.9797
   950.5000      0.0000    852.2034     13.5575    121.6865
   950.7500      0.0000    852.1121     13.5509    121.3534
   951.0000      0.0000    852.1094     13.5104    118.1962
   951.2500      0.0000    852.1426     13.4320    112.5944
   951.5000      0.0000    852.1587     13.3301    106.7846
   951.7500      0.0000    852.2223     13.2161    102.9003
   952.0000      0.0000    852.5914     13.0744    101.8826
   952.2500      0.0000    853.7743     12.8719    103.6693
   952.5000      0.0000    856.5298     12.5931    107.5302
   952.7500      0.0000    861.6110     12.2598    112.2374
   953.0000      0.0000    869.1013     11.9140    116.4472
   953.2500      0.0000    877.7290     11.5810    119.1882
   953.5000      0.0000    885.0895     11.2454    120.0993
   953.7500      0.0000    889.7394     10.8649    119.2951
   954.0000      0.0000    894.3392     10.4080    117.0315
   954.2500      0.0000    906.2115      9.8799    113.4761
   954.5000      0.0000    932.5797      9.3178    108.9053
   954.7500      0.0000    974.0031      8.7655    104.1586
   955.0000      0.0000   1022.3794      8.2473    100.5067
   955.2500      0.0000   1064.6083      7.7577     98.5973
   955.5000      0.0000   1087.2813      7.2786     97.6009
   955.7500      0.0000   1079.4524      6.8060     95.9070
   956.0000      0.0000   1035.7955      6.3545     92.7647
   956.2500      0.0000    962.1724      5.9364     88.8668
   956.5000      0.0000    877.8593      5.5466     85.4346
   956.7500      0.0000    806.7880      5.1739     83.2434
   957.0000      0.0000    762.9560      4.8209     82.4011
   957.2500      0.0000    744.8361      4.5059     82.3284
   957.5000      0.0000    742.7817      4.2482     81.9509
   957.7500      0.0000    748.5649      4.0553     80.6262
   958.0000      0.0000    758.0259      3.9227     78.9171
   958.2500      0.0000    768.7919      3.8385     77.8357
   958.5000      0.0000    778.5798      3.7898     77.4149
   958.7500      0.0000    785.4738      3.7661     76.6391
   959.0000      0.0000    788.2571      3.7597     74.7138
   959.2500      0.0000    785.9323      3.7639     71.9393
   959.5000      0.0000    777.6582      3.7716     69.3279
   959.7500      0.0000    764.1468      3.7774     67.7595
   960.0000      0.0000    748.9816      3.7794     67.5655
   960.2500      0.0000    737.2765      3.7809     68.4740
   960.5000      0.0000    732.1956      3.7929     69.6183
   960.7500      0.0000    733.2585      3.8349     69.9273
   961.0000      0.0000    738.3210      3.9313     69.0655
   961.2500      0.0000    746.2620      4.1010     68.0606
   961.5000      0.0000    756.7460      4.3464     68.5946
   961.7500      0.0000    767.7982      4.6488     71.4197
   962.0000      0.0000    775.2510      4.9799     75.7425
   962.2500      0.0000    775.6472      5.3226     80.2941
   962.5000      0.0000    769.0393      5.6833     84.5895
   962.7500      0.0000    758.4763      6.0792     88.9405
   963.0000      0.0000    748.8068      6.5191     93.7087
   963.2500      0.0000    746.8384      6.9971     98.7682
   963.5000      0.0000    758.4371      7.4981    103.4989
   963.7500      0.0000    781.4673      7.9972    107.3786
   964.0000      0.0000    804.2963      8.4543    110.6612
