~Version Information
VERS.                      2.0: CWLS Log ASCII Standard - VERSION 2.0
WRAP.                       NO: One line per depth step
~Well Information Block
STRT.FT               745.0000: 
STOP.FT              2945.7500: 
STEP.FT                 0.2500: 
NULL.                -999.2500: 
COMP.          Pioneer Natural Resources: COMPANY
WELL.          Old Yeller 31-32: WELL
FLD.           Purgatoire River: FIELD
LOC.           1832' FEL & 793' FNL--: LOCATION
STAT.                 Colorado: State
CNTY.               Las Animas: COUNTY
CTRY. USA : Country
SECT. 32 : Section
TOWN. 32S : Township
RANG. 67W : Range
SRVC.                Patterson: SERVICE COMPANY
DATE.          Sun Aug 28 20:20:00 2005: LOG DATE
API.           05 071 08356 00: UNIQUE WELL ID
~Curve Information Block
DEPT.FT            0 000 00 00: Depth
SN.Ohm-m                      : IEL Short Normal
SP.mV                         : IEL Spontaneous Potential
DIR.Ohm-m                     : IEL Induction Resistivity
GR.GAPI                       : Gamma Ray
~Parameter Information Block
~A  Depth        SN          SP         DIR          GR     
# ...
  2922.5000     23.7294    122.9136     23.3919   -999.2500
  2922.7500     23.9437    122.8191     23.4442   -999.2500
  2923.0000     24.1615    122.6955     23.5315   -999.2500
  2923.2500     24.3821    122.5425     23.6727   -999.2500
  2923.5000     24.6142    122.3672     23.8801   -999.2500
  2923.7500     24.8738    122.1822     24.1569   -999.2500
  2924.0000     25.1828    122.0035     24.4951   -999.2500
  2924.2500     25.5651    121.8464     24.8735   -999.2500
  2924.5000     26.0362    121.7238     25.2582   -999.2500
  2924.7500     26.5869    121.6439     25.6109   -999.2500
  2925.0000     27.1746    121.6097     25.9005   -999.2500
  2925.2500     27.7317    121.6197     26.1127   -999.2500
  2925.5000     28.1912    121.6683     26.2506   -999.2500
  2925.7500     28.5121    121.7479     26.3249   -999.2500
  2926.0000     28.6886    121.8500     26.3437   -999.2500
  2926.2500     28.7405    121.9675     26.3086   -999.2500
  2926.5000     28.6959    122.0957     26.2221   -999.2500
  2926.7500     28.5787    122.2338     26.0962   -999.2500
  2927.0000     28.4047    122.3854     25.9509   -999.2500
  2927.2500     28.1853    122.5572     25.7985   -999.2500
  2927.5000     27.9289    122.7578     25.6271   -999.2500
  2927.7500     27.6398    122.9948     25.4022   -999.2500
  2928.0000     27.3161    123.2723     25.0882   -999.2500
  2928.2500     26.9523    123.5887     24.6747   -999.2500
  2928.5000     26.5483    123.9353     24.1856   -999.2500
  2928.7500     26.1182    124.2971     23.6664   -999.2500
  2929.0000     25.6909    124.6541     23.1610   -999.2500
  2929.2500     25.3008    124.9838     22.6963   -999.2500
  2929.5000     24.9720    125.2649     22.2799   -999.2500
  2929.7500     24.7108    125.4799     21.9097   -999.2500
  2930.0000     24.5072    125.6173     21.5849   -999.2500
  2930.2500     24.3416    125.6737     21.3101   -999.2500
  2930.5000     24.1962    125.6533     21.0904   -999.2500
  2930.7500     24.0681    125.5668     20.9250   -999.2500
  2931.0000     23.9756    125.4293     20.8061   -999.2500
  2931.2500     23.9498    125.2571     20.7263   -999.2500
  2931.5000     24.0177    125.0645     20.6879   -999.2500
  2931.7500     24.1885    124.8615     20.7047   -999.2500
  2932.0000     24.4481    124.6524     20.7915   -999.2500
  2932.2500     24.7613    124.4351     20.9521   -999.2500
  2932.5000     25.0817    124.2037     21.1757   -999.2500
  2932.7500     25.3688    123.9495     21.4512   -999.2500
  2933.0000     25.6028    123.6652     21.7593   -999.2500
  2933.2500     25.7891    123.3466     22.1054   -999.2500
  2933.5000     25.9496    122.9952     22.4924   -999.2500
  2933.7500     26.1084    122.6193     22.9151   -999.2500
  2934.0000     26.2803    122.2335     23.3557   -999.2500
  2934.2500     26.4646    121.8588     23.7869   -999.2500
  2934.5000     26.6428    121.5201     24.1776   -999.2500
  2934.7500     26.7821    121.2449     24.5045   -999.2500
  2935.0000     26.8462    121.0602     24.7748   -999.2500
  2935.2500     26.8144    120.9901     25.0684   -999.2500
  2935.5000     26.6954    121.0523     25.5889   -999.2500
  2935.7500     26.5259    121.2551     26.7097   -999.2500
  2936.0000     26.3518    121.5959     29.0325   -999.2500
  2936.2500     26.2049    122.0595     33.5238   -999.2500
  2936.5000     26.0890    122.6187     41.9724   -999.2500
  2936.7500     25.9829    123.2369     57.9408   -999.2500
  2937.0000     25.8560    123.8682     89.4333   -999.2500
  2937.2500     25.6858    124.4679    156.1812   -999.2500
  2937.5000     25.4697    124.9902    312.3901   -999.2500
  2937.7500     25.2288    125.3888    730.2568   -999.2500
  2938.0000     25.0004    125.6113   2115.0303   -999.2500
  2938.2500     24.8217    125.5867  10805.6973   -999.2500
  2938.5000     24.7132    125.2082 100000.0000   -999.2500
  2938.7500     24.6751    124.3151 100000.0000   -999.2500
  2939.0000     24.6967    122.6805 100000.0000   -999.2500
  2939.2500     24.7696    120.0167 100000.0000   -999.2500
  2939.5000     24.8918    116.0062 100000.0000   -999.2500
  2939.7500     25.0598    110.3612 100000.0000   -999.2500
  2940.0000     25.2311    102.9043 100000.0000   -999.2500
  2940.2500     25.2491     93.6491 100000.0000   -999.2500
  2940.5000     24.7438     82.8535 100000.0000   -999.2500
  2940.7500     23.1219     71.0192 100000.0000   -999.2500
  2941.0000     19.8391     58.8284 100000.0000   -999.2500
  2941.2500     14.9327     47.0281 100000.0000   -999.2500
  2941.5000      9.3184     36.2954 100000.0000   -999.2500
  2941.7500      4.3453     27.1239 100000.0000   -999.2500
  2942.0000      0.9225     19.7601 100000.0000   -999.2500
  2942.2500     -0.9106     14.2054 100000.0000   -999.2500
  2942.5000     -1.6749     10.2689 100000.0000   -999.2500
  2942.7500     -1.9230      7.6478 100000.0000   -999.2500
  2943.0000     -1.9858      6.0084 100000.0000   -999.2500
  2943.2500     -1.9981      5.0449 100000.0000   -999.2500
  2943.5000   -999.2500      4.5130 100000.0000   -999.2500
  2943.7500   -999.2500      4.2371 100000.0000   -999.2500
  2944.0000   -999.2500      4.1027 100000.0000   -999.2500
  2944.2500   -999.2500      4.0412 100000.0000   -999.2500
  2944.5000   -999.2500      4.0147 100000.0000   -999.2500
  2944.7500   -999.2500      4.0041 100000.0000   -999.2500
  2945.0000   -999.2500   -999.2500 100000.0000   -999.2500
  2945.2500   -999.2500   -999.2500 100000.0000   -999.2500
  2945.5000   -999.2500   -999.2500 100000.0000   -999.2500
  2945.7500   -999.2500   -999.2500 100000.0000   -999.2500
