~Version Information
VERS.                      2.0: CWLS Log ASCII Standard - VERSION 2.0
WRAP.                       NO: One line per depth step
~Well Information Block
STRT.FT               488.0000: 
STOP.FT              1824.7000: 
STEP.FT                 0.1000: 
NULL.                -999.2500: 
COMP.          Pioneer Natural Resources: COMPANY
WELL.            Buckeye 11-13: WELL
FLD.           Purgatoire River: FIELD
LOC.           211' FNL & 1054' FWL: LOCATION
STAT.                 Colorado: State
CNTY.               Las Animas: COUNTY
CTRY. USA : Country
SECT. 13 : Section
TOWN. 33S : Township
RANG. 67W : Range
SRVC.                Patterson: SERVICE COMPANY
DATE.          Mon Mar 07 02:06:39 2005: LOG DATE
API.           05 071 08317 00: UNIQUE WELL ID
~Curve Information Block
DEPT.FT            0 000 00 00: Depth
DCAL.in                       : CDL Caliper
RHOB.g/cc                     : CDL Bulk Density
RHOC.g/cc                     : CDL Density Correction
DPOR.pu                       : CDL Density Porosity
GR.GAPI                       : Gamma Ray
NPOR.pu                       : Neutron Porosity
~Parameter Information Block
~A  Depth       DCAL        RHOB        RHOC        DPOR         GR         NPOR    
# ...
  1198.4000      7.9037      2.4907      0.0144      9.6551     92.2184     23.2643
  1198.5000      7.9016      2.4874      0.0100      9.8553     90.7069     24.0138
  1198.6000      7.9016      2.4796      0.0333     10.3300     94.3039     24.1995
  1198.7000      7.9016      2.4686     -0.0351     10.9918     97.4442     23.3638
  1198.8000      7.8983      2.4678     -0.0131     11.0404     96.1616     22.4902
  1198.9000      7.8983      2.4823      0.0169     10.1611     97.4294     22.7206
  1199.0000      7.8838      2.5091      0.0490      8.5397    105.0838     23.5143
  1199.1000      7.8838      2.5407      0.0603      6.6235    114.1683     23.9664
  1199.2000      7.8838      2.5561      0.1324      5.6920    117.0309     24.1167
  1199.3000      7.8641      2.5465      0.0684      6.2746    113.6212     24.2412
  1199.4000      7.8641      2.5403      0.0301      6.6465    110.3457     24.1265
  1199.5000      7.8999      2.5472      0.1175      6.2327    109.1676     23.6140
  1199.6000      7.8999      2.5396      0.0596      6.6897    108.0323     23.1884
  1199.7000      7.8999      2.5140      0.0287      8.2409    106.2756     22.9101
  1199.8000      7.9586      2.4948     -0.0093      9.4073    106.9426     22.4953
  1199.9000      7.9586      2.4953      0.0083      9.3768    112.0958     22.3473
  1200.0000      7.9646      2.5103     -0.0086      8.4658    117.8139     22.5124
  1200.1000      7.9646      2.5288      0.0627      7.3463    120.0320     22.2219
  1200.2000      7.9646      2.5391      0.0828      6.7196    118.8104     21.5296
  1200.3000      7.9559      2.5346      0.1253      6.9946    115.0568     21.1845
  1200.4000      7.9559      2.5167      0.0671      8.0764    108.0095     21.3117
  1200.5000      7.9364      2.4956      0.0628      9.3554    100.9389     21.6468
  1200.6000      7.9364      2.4831      0.0499     10.1158    100.0962     21.8672
  1200.7000      7.9364      2.4847      0.0160     10.0168    104.6532     21.5696
  1200.8000      7.9525      2.4915      0.0661      9.6063    110.6407     20.8001
  1200.9000      7.9525      2.4954      0.0199      9.3667    116.9074     20.2832
  1201.0000      7.9593      2.5084      0.0422      8.5799    121.3606     20.6021
  1201.1000      7.9593      2.5319      0.0800      7.1604    122.1402     21.2646
  1201.2000      7.9593      2.5428      0.0913      6.4941    120.1461     21.3687
  1201.3000      7.9722      2.5301      0.0550      7.2659    119.3841     20.8931
  1201.4000      7.9722      2.5069      0.0455      8.6746    124.6291     20.4973
  1201.5000      7.9717      2.4826      0.0675     10.1481    132.8644     20.6728
  1201.6000      7.9717      2.4556      0.0333     11.7842    135.6855     21.5791
  1201.7000      7.9717      2.4283      0.0365     13.4387    132.2782     22.9307
  1201.8000      7.9693      2.4105      0.0005     14.5151    128.4608     24.3117
  1201.9000      7.9693      2.4125     -0.0284     14.3915    128.3196     25.6567
  1202.0000      7.9746      2.4358     -0.0176     12.9838    131.8212     26.8021
  1202.1000      7.9746      2.4703      0.0670     10.8920    134.7914     27.2712
  1202.2000      7.9746      2.5013      0.0552      9.0108    133.9228     26.9545
  1202.3000      7.9745      2.5217      0.0328      7.7741    130.4707     26.4350
  1202.4000      7.9745      2.5294      0.0904      7.3075    127.6785     26.1713
  1202.5000      7.9729      2.5265      0.0435      7.4852    126.6460     26.1846
  1202.6000      7.9729      2.5235      0.0358      7.6647    123.6302     26.3556
  1202.7000      7.9729      2.5181      0.0663      7.9923    117.2134     26.6463
  1202.8000      7.9730      2.5055     -0.0271      8.7568    113.2294     27.1236
  1202.9000      7.9730      2.5078     -0.0176      8.6160    114.1293     27.5515
  1203.0000      7.9711      2.5359     -0.0195      6.9124    118.3078     27.4259
  1203.1000      7.9711      2.5620      0.0660      5.3328    124.7904     27.0555
  1203.2000      7.9711      2.5573      0.0442      5.6183    128.6098     27.0768
  1203.3000      7.9719      2.5341     -0.0042      7.0219    126.7172     26.7447
  1203.4000      7.9719      2.5229      0.0069      7.7008    124.7235     25.4744
  1203.5000      7.9714      2.5252      0.0745      7.5621    128.9736     24.4513
  1203.6000      7.9714      2.5267      0.0501      7.4709    136.6064     24.2948
  1203.7000      7.9714      2.5265      0.0161      7.4833    141.6850     24.8271
  1203.8000      7.9712      2.5191      0.0714      7.9353    143.2753     25.7691
  1203.9000      7.9712      2.4945      0.0060      9.4255    142.0707     26.5144
  1204.0000      7.9719      2.4652     -0.0163     11.1996    138.5979     27.2855
  1204.1000      7.9719      2.4503     -0.0270     12.1008    136.5497     28.5023
  1204.2000      7.9719      2.4490     -0.0582     12.1824    137.5161     29.3512
  1204.3000      7.9706      2.4486     -0.0386     12.2044    139.2209     29.3809
  1204.4000      7.9706      2.4432     -0.0184     12.5343    141.5137     29.0718
  1204.5000      7.9697      2.4417     -0.0238     12.6259    144.4191     28.5151
  1204.6000      7.9697      2.4592     -0.0114     11.5620    147.2645     27.6833
  1204.7000      7.9697      2.4958     -0.0052      9.3450    147.0067     26.9307
  1204.8000      7.9711      2.5335      0.0641      7.0593    141.6113     26.5322
  1204.9000      7.9711      2.5574      0.0554      5.6117    133.8349     26.4750
  1205.0000      7.9664      2.5686      0.0583      4.9350    127.0664     26.7714
  1205.1000      7.9664      2.5747      0.0567      4.5633    123.6529     27.3093
  1205.2000      7.9664      2.5744      0.0865      4.5793    123.9691     27.6770
  1205.3000      7.9565      2.5554      0.0977      5.7341    123.1645     27.5230
  1205.4000      7.9565      2.5170      0.0091      8.0614    116.6591     26.7360
  1205.5000      7.9643      2.4839     -0.0663     10.0669    110.0241     25.5778
  1205.6000      7.9643      2.4738     -0.0461     10.6760    110.9863     24.6350
  1205.7000      7.9643      2.4760     -0.0282     10.5440    117.9852     24.1424
  1205.8000      7.9671      2.4764     -0.0255     10.5241    125.7848     23.9264
  1205.9000      7.9671      2.4753      0.0059     10.5850    132.1460     24.1652
  1206.0000      7.9670      2.4799      0.0146     10.3090    134.4765     24.6989
  1206.1000      7.9670      2.4939     -0.0253      9.4606    133.1665     24.7252
  1206.2000      7.9670      2.5112      0.0609      8.4126    132.5829     24.3866
  1206.3000      7.9603      2.5176      0.0742      8.0239    133.7794     24.7722
  1206.4000      7.9603      2.5108      0.0362      8.4365    133.8723     26.0497
  1206.5000      7.9497      2.4986      0.0257      9.1741    132.6667     27.4034
  1206.6000      7.9497      2.4884      0.0366      9.7938    134.8871     28.3896
  1206.7000      7.9497      2.4922      0.0495      9.5626    139.6901     28.9094
  1206.8000      7.9610      2.5229      0.0690      7.7004    137.1706     28.9980
  1206.9000      7.9610      2.5714      0.0916      4.7659    125.3162     28.8647
  1207.0000      7.9701      2.6034      0.0867      2.8228    114.9934     28.6842
  1207.1000      7.9701      2.6002      0.0482      3.0201    113.4821     28.5483
  1207.2000      7.9701      2.5778      0.0152      4.3755    117.0890     28.6897
  1207.3000      7.9718      2.5549      0.0403      5.7624    119.1460     29.4180
  1207.4000      7.9718      2.5361     -0.0200      6.9054    119.8524     29.9542
  1207.5000      7.9676      2.5270     -0.0536      7.4564    121.6587     29.3406
  1207.6000      7.9676      2.5337     -0.0568      7.0488    125.8498     28.0211
  1207.7000      7.9676      2.5455      0.0331      6.3363    132.5824     27.0472
  1207.8000      7.9522      2.5444     -0.0072      6.4001    138.2319     26.7984
  1207.9000      7.9522      2.5353      0.0039      6.9532    139.1862     26.5313
