~Version Information
VERS.                      2.0: CWLS Log ASCII Standard - VERSION 2.0
WRAP.                       NO: One line per depth step
~Well Information Block
STRT.FT               700.0000: 
STOP.FT              1869.5000: 
STEP.FT                 0.1000: 
NULL.                -999.2500: 
COMP.          Petrogulf Corporation: COMPANY
WELL.             State 16-24R: WELL
FLD.           Purgatorie River: FIELD
LOC.           541' FSL & 2371' FWL: LOCATION
PROV.                 Colorado: PROVINCE
CNTY.               Las Animas: COUNTRY
SRVC.                Patterson: SERVICE COMPANY
DATE.          Fri Aug 12 09:07:22 2005: LOG DATE
UWI.                071-08312 : UNIQUE WELL ID
~Curve Information Block
DEPT.FT            0 000 00 00: Depth
DCAL.in                       : CDL Caliper
RHOB.g/cc                     : CDL Bulk Density
RHOC.g/cc                     : CDL Density Correction
DPOR.pu                       : CDL Density Porosity
GR.GAPI                       : Gamma Ray
NPOR.pu                       : Neutron Porosity
~Parameter Information Block
~A  Depth       DCAL        RHOB        RHOC        DPOR         GR         NPOR    
# ...
  1602.4000      7.8061      2.5918      0.0445      3.5296    116.9555     23.5768
  1602.5000      7.8565      2.5969      0.0618      3.2168    123.0356     23.9642
  1602.6000      7.8565      2.6045      0.0451      2.7569    127.4421     24.1109
  1602.7000      7.8565      2.6088      0.0633      2.4953    127.9221     24.2089
  1602.8000      7.9090      2.6081      0.0712      2.5419    124.7476     24.3962
  1602.9000      7.9090      2.6096      0.0690      2.4471    123.4682     24.4377
  1603.0000      7.9196      2.6176      0.0929      1.9630    126.3190     24.4344
  1603.1000      7.9196      2.6196      0.0870      1.8403    129.3385     24.7722
  1603.2000      7.9196      2.6078      0.0556      2.5591    129.9411     25.3413
  1603.3000      7.9475      2.5917      0.0347      3.5331    129.9284     25.5615
  1603.4000      7.9475      2.5756      0.0599      4.5115    129.4739     24.9947
  1603.5000      7.9164      2.5613      0.0075      5.3773    127.4456     24.1824
  1603.6000      7.9164      2.5653      0.0155      5.1303    125.9573     23.9557
  1603.7000      7.9164      2.5923      0.0524      3.4953    126.2233     24.2995
  1603.8000      7.9230      2.6226      0.0800      1.6605    125.1584     24.7787
  1603.9000      7.9230      2.6397      0.0672      0.6268    121.2726     24.9063
  1604.0000      7.9419      2.6429      0.0849      0.4324    118.1892     24.5125
  1604.1000      7.9419      2.6417      0.0564      0.5044    116.4902     23.7544
  1604.2000      7.9419      2.6455      0.0661      0.2710    111.3289     22.8421
  1604.3000      7.9412      2.6482      0.0980      0.1119    102.3194     22.1487
  1604.4000      7.9412      2.6350      0.0834      0.9075     94.2176     21.9835
  1604.5000      7.8811      2.6129     -0.0035      2.2480     90.6980     22.1506
  1604.6000      7.8811      2.6011      0.0432      2.9655     90.5590     22.2438
  1604.7000      7.8811      2.6054      0.0006      2.7003     91.1302     22.3638
  1604.8000      7.8801      2.6208      0.0641      1.7703     92.1599     22.6689
  1604.9000      7.8801      2.6358      0.0680      0.8580     94.5161     22.7795
  1605.0000      7.8849      2.6410      0.0903      0.5471     97.8600     22.3903
  1605.1000      7.8849      2.6299      0.1079      1.2176    101.8701     21.8010
  1605.2000      7.8849      2.6062      0.0575      2.6527    105.5850     21.7189
  1605.3000      7.8766      2.5872      0.0252      3.8057    107.3693     22.2721
  1605.4000      7.8766      2.5833      0.0586      4.0425    107.5017     22.9096
  1605.5000      7.8756      2.5911      0.0173      3.5682    108.1306     23.5074
  1605.6000      7.8756      2.6024      0.0809      2.8859    110.9272     24.2375
  1605.7000      7.8756      2.6050      0.0637      2.7281    114.3508     24.7893
  1605.8000      7.8731      2.5927      0.0488      3.4724    116.8173     24.7705
  1605.9000      7.8731      2.5721      0.0262      4.7182    120.6468     24.4941
  1606.0000      7.9138      2.5553      0.0217      5.7407    124.8012     24.3211
  1606.1000      7.9138      2.5484      0.0190      6.1590    124.8061     23.8849
  1606.2000      7.9138      2.5473      0.0378      6.2255    121.3734     23.3650
  1606.3000      7.9433      2.5447      0.0285      6.3845    119.4858     23.4251
  1606.4000      7.9433      2.5448      0.0217      6.3749    121.4408     24.1037
  1606.5000      7.9202      2.5584      0.0442      5.5526    123.9252     25.0253
  1606.6000      7.9202      2.5760      0.0803      4.4825    122.9473     25.7138
  1606.7000      7.9202      2.5764      0.0595      4.4618    119.7145     25.9081
  1606.8000      7.8943      2.5652      0.0347      5.1417    117.0296     25.8617
  1606.9000      7.8943      2.5631      0.0299      5.2647    115.9458     25.8426
  1607.0000      7.8934      2.5700      0.0530      4.8502    118.5754     25.8007
  1607.1000      7.8934      2.5738      0.0319      4.6175    125.5392     25.6150
  1607.2000      7.8934      2.5733      0.0590      4.6487    131.8881     25.2813
  1607.3000      7.8671      2.5715      0.0498      4.7580    134.3785     25.0699
  1607.4000      7.8671      2.5687      0.0406      4.9281    134.5615     25.0840
  1607.5000      7.8925      2.5614      0.0875      5.3724    133.0211     25.2428
  1607.6000      7.8925      2.5461      0.0433      6.2979    131.5979     25.4040
  1607.7000      7.8925      2.5288      0.0152      7.3467    133.7899     25.3102
  1607.8000      7.8826      2.5211      0.0156      7.8100    140.1866     25.0772
  1607.9000      7.8826      2.5265      0.0554      7.4840    145.6751     25.0306
  1608.0000      7.8820      2.5340      0.0568      7.0289    145.9040     25.2245
  1608.1000      7.8820      2.5363      0.0246      6.8915    143.2602     25.8023
  1608.2000      7.8820      2.5396      0.0364      6.6889    141.0521     26.6161
  1608.3000      7.9576      2.5521      0.0496      5.9326    139.9428     27.2007
  1608.4000      7.9576      2.5707      0.0939      4.8064    139.4737     27.2156
  1608.5000      8.0256      2.5813      0.1042      4.1658    139.0701     26.4552
  1608.6000      8.0256      2.5815      0.0720      4.1543    137.6612     25.4037
  1608.7000      8.0256      2.5800      0.0849      4.2401    134.2798     24.5933
  1608.8000      7.9412      2.5731      0.0708      4.6603    129.2794     23.8535
  1608.9000      7.9412      2.5567      0.0365      5.6537    123.2401     23.2468
  1609.0000      7.9489      2.5429      0.0303      6.4897    118.5932     23.2258
  1609.1000      7.9489      2.5446      0.0443      6.3853    118.4989     23.2928
  1609.2000      7.9489      2.5631      0.0495      5.2682    119.3865     22.7578
  1609.3000      7.9440      2.5830      0.0976      4.0625    115.5541     22.1203
  1609.4000      7.9440      2.5885      0.0652      3.7299    108.7415     21.7567
  1609.5000      7.8939      2.5874      0.0422      3.7952    103.6371     21.4996
  1609.6000      7.8939      2.5908      0.1039      3.5861    101.5607     21.3471
  1609.7000      7.8939      2.6007      0.0676      2.9864    102.7971     20.9769
  1609.8000      7.8567      2.6253      0.0560      1.4997    104.1607     20.2347
  1609.9000      7.8567      2.6615      0.1483     -0.6968    100.8398     19.5760
  1610.0000      7.7710      2.6854      0.1870     -2.1448     95.9838     19.4776
  1610.1000      7.7710      2.6839      0.1627     -2.0535     94.2838     20.0046
  1610.2000      7.7710      2.6644      0.1540     -0.8752     94.9064     20.4822
  1610.3000      7.7608      2.6402      0.1167      0.5964     95.8371     20.2151
  1610.4000      7.7608      2.6290      0.0713      1.2754     95.0823     19.6379
  1610.5000      7.7857      2.6355      0.0777      0.8785     91.9518     19.4038
  1610.6000      7.7857      2.6377      0.0896      0.7455     88.6383     19.4349
  1610.7000      7.7857      2.6194      0.0470      1.8573     86.9366     19.3716
  1610.8000      7.7852      2.5934     -0.0345      3.4294     86.2803     19.1973
  1610.9000      7.7852      2.5756      0.0248      4.5079     87.5984     19.4011
  1611.0000      7.8065      2.5666      0.0248      5.0571     94.1461     20.0197
  1611.1000      7.8065      2.5618      0.0469      5.3448    105.6068     20.6393
  1611.2000      7.8065      2.5515      0.0731      5.9691    117.2385     21.3664
  1611.3000      7.8414      2.5340     -0.0190      7.0310    125.5804     22.3644
  1611.4000      7.8414      2.5255      0.0349      7.5466    131.3736     23.4110
  1611.5000      7.8808      2.5296      0.0395      7.2998    134.3518     24.3204
  1611.6000      7.8808      2.5346      0.0455      6.9947    133.7510     25.1453
  1611.7000      7.8808      2.5389      0.0446      6.7358    131.9666     25.7573
  1611.8000      7.8847      2.5469      0.0486      6.2499    127.9676     25.7086
  1611.9000      7.8847      2.5570      0.0385      5.6376    120.1275     25.1432
