~Version Information
 VERS.                                  2.0 : CWLS LAS VERSION
 WRAP.                                   NO : WRAPING MODE
 SWARE .                 MController 2.5.0J : SOFTWARE VERSION
~Well Information
 WELL.                        Montoya 1-24V : WELL
 COMP.                       Petrogulf Corp : COMPANY
 FLD.                      Purgatoire River : FIELD
 LOC.                 SE/SW Sec 1 T33S R68W : LOCATION
 DATE.                          10/19-20/04 : DATE(S) LOGGED
 SRVC.       Blanco Geological Services LLC : SERVICE COMPANY
 STAT.                                   CO : STATE
 CNTY.                           Las Animas : COUNTY
 CTRY.                                  USA : COUNTRY
 API.                       05-071-08194-00 : API NUMBER
 STRT.FT                             116.00 : START DEPTH
 STOP.FT                            2700.00 : STOP DEPTH
 STEP.FT                               1.00 : DEPTH INCREMENT
 NULL.                                -9999 : NULL VALUE
~Curve information
 DEPTH.FT                                   :
 ROP.MIN/FT                                 :
 GAS.UNITS                                  :
~ASCII Log data
# ...
      2316.0         0.27          9.7 
      2317.0         0.30         69.9 
      2318.0         0.27         14.1 
      2319.0         0.30         12.9 
      2320.0         0.30         10.3 
      2321.0         0.20          9.8 
      2322.0         0.27          9.0 
      2323.0         0.25          9.2 
      2324.0         0.27         12.1 
      2325.0         0.40         15.5 
      2326.0         0.35         19.7 
      2327.0         0.27         20.0 
      2328.0         0.40         19.2 
      2329.0         0.30         18.1 
      2330.0         0.43         14.5 
      2331.0         0.37         11.7 
      2332.0         0.30         11.8 
      2333.0         0.23         10.9 
      2334.0         0.33         10.4 
      2335.0         0.30         10.5 
      2336.0         0.28         10.1 
      2337.0         0.30         10.1 
      2338.0         0.27          9.6 
      2339.0         0.30          9.8 
      2340.0         0.27         10.0 
      2341.0         0.23          9.9 
      2342.0         0.23         10.6 
      2343.0         0.23         10.2 
      2344.0         0.27         10.5 
      2345.0         0.27         10.8 
      2346.0         0.27          9.9 
      2347.0         0.27         43.7 
      2348.0         0.27         47.0 
      2349.0         0.35         46.4 
      2350.0         0.30         44.5 
      2351.0         0.27         37.7 
      2352.0         0.23         28.5 
      2353.0         0.27         16.5 
      2354.0         0.33         18.9 
      2355.0         0.37         18.8 
      2356.0         0.32         14.9 
      2357.0         0.27         12.6 
      2358.0         0.23         12.3 
      2359.0         0.40         11.3 
      2360.0         0.33         10.2 
      2361.0         0.27         10.0 
      2362.0         0.30         10.4 
      2363.0         0.27         10.0 
      2364.0         0.27         10.4 
      2365.0         0.30         10.4 
      2366.0         0.27         10.8 
      2367.0         0.23         10.3 
      2368.0         0.32          9.9 
      2369.0         0.40          9.2 
      2370.0         0.47          9.3 
      2371.0         0.33          9.5 
      2372.0         0.30          9.5 
      2373.0         0.33          9.8 
      2374.0         0.30         10.1 
      2375.0         0.27         10.4 
      2376.0         0.23         69.1 
      2377.0         0.23         31.0 
      2378.0         0.27         24.7 
      2379.0         0.22         24.7 
      2380.0         0.27         20.5 
      2381.0         0.27         23.5 
      2382.0         0.23         25.7 
      2383.0         0.33         26.1 
      2384.0         0.27         26.5 
      2385.0         0.27         24.4 
      2386.0         0.30         24.9 
      2387.0         0.27         17.0 
      2388.0         0.27         16.3 
      2389.0         0.27         17.3 
      2390.0         0.27         16.2 
      2391.0         0.40         16.4 
      2392.0         0.27         14.2 
      2393.0         0.30         12.7 
      2394.0         0.33          9.9 
      2395.0         0.32          9.6 
      2396.0         0.30          9.3 
      2397.0         0.23          9.3 
      2398.0         0.30          9.3 
      2399.0         0.23          9.6 
      2400.0         0.23          9.9 
      2401.0         0.23         10.0 
      2402.0         0.23         10.3 
      2403.0         0.27         10.5 
      2404.0         0.23        325.3 
      2405.0         0.30         29.7 
      2406.0         0.23         31.1 
      2407.0         0.27         32.7 
      2408.0         0.25         28.6 
      2409.0         0.27         28.5 
      2410.0         0.23         18.5 
      2411.0         0.30         17.5 
      2412.0         0.27         12.5 
      2413.0         0.30         12.6 
      2414.0         0.30         10.7 
      2415.0         0.27          9.8 
      2416.0         0.30          9.8 
      2417.0         0.30          9.5 
      2418.0         0.27          9.5 
      2419.0         0.28          9.4 
      2420.0         0.30          9.1 
      2421.0         0.23          9.1 
      2422.0         0.23          8.5 
      2423.0         0.27          8.5 
      2424.0         0.23          8.4 
      2425.0         0.23          8.0 
      2426.0         0.23         46.5 
      2427.0         0.27         46.5 
      2428.0         0.23         46.5 
      2429.0         0.27         53.8 
      2430.0         0.23         59.5 
      2431.0         0.27         58.4 
      2432.0         0.22         57.7 
      2433.0         0.20         47.1 
      2434.0         0.23         41.3 
      2435.0         0.50         30.6 
      2436.0         0.30         17.2 
      2437.0         0.23         15.4 
      2438.0         0.30         14.6 
      2439.0         0.32         13.2 
      2440.0         0.33         12.2 
      2441.0         0.33         12.2 
      2442.0         0.33         11.5 
      2443.0         0.33         10.6 
      2444.0         0.33          9.3 
      2445.0         0.30          9.4 
      2446.0         0.30          8.0 
      2447.0         0.30          8.2 
      2448.0         0.30          8.1 
      2449.0         0.32          8.3 
      2450.0         0.30          8.8 
      2451.0         0.27          8.3 
      2452.0         0.30          8.2 
      2453.0         0.27         10.0 
      2454.0         0.30          7.1 
      2455.0         0.27          7.0 
      2456.0         0.30          7.0 
      2457.0         0.33          6.8 
      2458.0         0.27          6.8 
      2459.0         0.23          6.8 
      2460.0         0.50         16.1 
      2461.0         0.33         31.3 
      2462.0         0.27         38.1 
      2463.0         0.20         62.9 
      2464.0         0.28         80.9 
      2465.0         0.27        100.5 
      2466.0         0.10        100.5 
      2467.0         0.40        113.6 
      2468.0         0.33         99.5 
      2469.0         0.33         94.2 
      2470.0         0.30         68.2 
      2471.0         0.30         44.1 
      2472.0         0.27         27.1 
      2473.0         0.30         17.8 
      2474.0         0.30         12.9 
      2475.0         0.25         11.2 
      2476.0         0.27         11.2 
      2477.0         0.30         11.3 
      2478.0         0.33         11.3 
      2479.0         0.33         11.5 
      2480.0         0.33         11.9 
      2481.0         0.33         10.9 
      2482.0         0.17          9.1 
      2483.0         0.17          8.7 
      2484.0         0.33          8.4 
      2485.0         0.33          6.4 
      2486.0         0.30          7.1 
      2487.0         0.32          8.8 
      2488.0         0.30         10.8 
      2489.0         0.30          6.1 
      2490.0         0.27          5.8 
      2491.0         0.27          5.9 
      2492.0         0.27          5.6 
      2493.0         0.30          6.2 
      2494.0         0.33          6.1 
      2495.0         0.30         24.6 
      2496.0         0.37         66.0 
      2497.0         0.33         62.7 
      2498.0         0.33         57.9 
      2499.0         0.32         26.9 
      2500.0         0.27         24.2 
      2501.0         0.37         14.4 
      2502.0         0.33         10.3 
      2503.0         0.60          7.6 
      2504.0         0.37          6.7 
      2505.0         0.37          6.9 
      2506.0         0.43          7.7 
      2507.0         0.30          8.8 
      2508.0         0.32          9.3 
      2509.0         0.27          8.7 
      2510.0         0.27          8.7 
      2511.0         0.27          8.5 
      2512.0         0.27          9.0 
      2513.0         0.23          9.0 
      2514.0         0.30          9.2 
      2515.0         0.27          9.0 
