~Version Information
 VERS.                                  2.0 : CWLS LAS VERSION
 WRAP.                                   NO : WRAPING MODE
 SWARE .                 MController 2.5.0E : SOFTWARE VERSION
~Well Information
 WELL.                          Lynch 43-30 : WELL
 COMP.        Pioneer Natural Resources Inc : COMPANY
 FLD.                      Purgatoire River : FIELD
 LOC.                NE/SE Sec 30 T32S R67W : LOCATION
 DATE.                             10/25/04 : DATE(S) LOGGED
 SRVC.       Blanco Geological services LLc : SERVICE COMPANY
 STAT.                                   CO : STATE
 CNTY.                           Las Animas : COUNTY
 CTRY.                                  USA : COUNTRY
 API.                       05-071-08170-00 : API NUMBER
 STRT.FT                             410.00 : START DEPTH
 STOP.FT                            2845.00 : STOP DEPTH
 STEP.FT                               1.00 : DEPTH INCREMENT
 NULL.                                -9999 : NULL VALUE
~Curve information
 DEPTH.FT                                   :
 ROP.MIN/FT                                 :
 GAS.UNITS                                  :
~ASCII Log data
# ...
     1210.00        0.300          4.3 
     1211.00        0.300          4.3 
     1212.00        0.267          3.5 
     1213.00        0.350          4.3 
     1214.00        0.233          4.2 
     1215.00        0.233          5.0 
     1216.00        0.200          5.6 
     1217.00        0.167          6.3 
     1218.00        0.167          6.3 
     1219.00        0.167          7.0 
     1220.00        0.167          6.5 
     1221.00        0.167          6.7 
     1222.00        0.200          7.2 
     1223.00        0.233          7.1 
     1224.00        0.500          7.2 
     1225.00        0.367          6.3 
     1226.00        3.750          7.2 
     1227.00        0.350          6.4 
     1228.00        0.333          5.4 
     1229.00        0.267          5.6 
     1230.00        0.300          5.4 
     1231.00        0.233          5.0 
     1232.00        0.333          5.0 
     1233.00        0.267          4.7 
     1234.00        0.200          4.1 
     1235.00        0.233          3.6 
     1236.00        0.233          4.5 
     1237.00        0.233          4.2 
     1238.00        0.200          4.2 
     1239.00        0.283          3.9 
     1240.00        0.200          4.1 
     1241.00        0.267          3.8 
     1242.00        0.200          4.1 
     1243.00        0.333          4.0 
     1244.00        0.233          3.6 
     1245.00        0.267          3.9 
     1246.00        0.300          3.5 
     1247.00        0.267          4.2 
     1248.00        0.267          3.8 
     1249.00        0.267          4.0 
     1250.00        0.300          3.5 
     1251.00        0.200          3.9 
     1252.00        0.250          3.8 
     1253.00        0.200          3.6 
     1254.00        0.167          3.3 
     1255.00        0.167          3.7 
     1256.00        4.517          7.4 
     1257.00        0.333          5.2 
     1258.00        0.133          4.7 
     1259.00        0.200          5.8 
     1260.00        0.267          6.4 
     1261.00        0.200          6.7 
     1262.00        0.267          7.2 
     1263.00        0.217          7.6 
     1264.00        0.200          7.0 
     1265.00        0.167          7.2 
     1266.00        0.300          7.1 
     1267.00        0.233          6.9 
     1268.00        0.200          6.6 
     1269.00        0.200          6.0 
     1270.00        0.267          5.1 
     1271.00        0.200          5.5 
     1272.00        0.167          5.1 
     1273.00        0.200          5.1 
     1274.00        0.167          5.1 
     1275.00        0.167          5.1 
     1276.00        0.200          4.9 
     1277.00        0.167          4.8 
     1278.00        0.200          4.1 
     1279.00        0.383          3.3 
     1280.00        0.400          3.7 
     1281.00        0.167          3.5 
     1282.00        0.267          3.5 
     1283.00        0.200          3.0 
     1284.00        0.200          3.3 
     1285.00        0.167          3.1 
     1286.00        2.717          6.5 
     1287.00        0.233          6.7 
     1288.00        0.200          6.3 
     1289.00        0.267          7.3 
     1290.00        0.200          7.2 
     1291.00        0.200          6.6 
     1292.00        0.133          7.4 
     1293.00        0.200          6.5 
     1294.00        0.133          7.3 
     1295.00        0.100          7.2 
     1296.00        0.200          6.6 
     1297.00        0.200          7.1 
     1298.00        0.200          6.8 
     1299.00        0.167          6.7 
     1300.00        0.183          6.6 
     1301.00        0.200          6.2 
     1302.00        0.233          6.1 
     1303.00        0.200          5.3 
     1304.00        0.233          5.5 
     1305.00        0.233          5.2 
     1306.00        0.200          5.4 
     1307.00        0.200          4.4 
     1308.00        0.200          4.5 
     1309.00        0.167          4.8 
     1310.00        0.167          4.7 
     1311.00        0.233          4.5 
     1312.00        0.167          4.0 
     1313.00        0.267          4.4 
     1314.00        0.167          4.3 
     1315.00        0.167          4.2 
     1316.00        3.433          6.4 
     1317.00        0.267          5.7 
     1318.00        0.267          5.3 
     1319.00        0.300          4.9 
     1320.00        0.267          5.0 
     1321.00        0.200          4.9 
     1322.00        0.233          4.8 
     1323.00        0.167          4.2 
     1324.00        0.167          3.9 
     1325.00        0.167          4.5 
     1326.00        0.200          4.3 
     1327.00        0.200          4.3 
     1328.00        0.267          3.5 
     1329.00        0.167          3.9 
     1330.00        0.200          3.9 
     1331.00        0.217          3.6 
     1332.00        0.200          3.3 
     1333.00        0.200          3.7 
     1334.00        0.167          3.5 
     1335.00        0.167          4.1 
     1336.00        0.200          4.1 
     1337.00        0.167          3.9 
     1338.00        0.167          3.9 
     1339.00        0.167          3.8 
     1340.00        0.167          3.5 
     1341.00        0.233          3.7 
     1342.00        0.233          3.5 
     1343.00        0.233          3.6 
     1344.00        0.200          3.2 
     1345.00        0.200          3.5 
     1346.00        4.400          5.5 
     1347.00        0.233          4.7 
     1348.00        0.233          4.6 
     1349.00        0.300          4.7 
     1350.00        0.300          4.7 
     1351.00        0.267          4.7 
     1352.00        0.267          4.5 
     1353.00        0.333          4.0 
     1354.00        0.267          4.0 
     1355.00        0.267          4.1 
     1356.00        0.300          3.9 
     1357.00        0.283          3.9 
     1358.00        0.233          3.7 
     1359.00        0.233          3.7 
     1360.00        0.200          3.7 
     1361.00        0.233          4.4 
     1362.00        0.200          4.5 
     1363.00        0.200          4.2 
     1364.00        0.200          4.6 
     1365.00        0.200          4.4 
     1366.00        0.233          4.2 
     1367.00        0.267          3.8 
     1368.00        0.233          3.8 
     1369.00        0.267          3.9 
     1370.00        0.267          4.1 
     1371.00        0.250          4.2 
     1372.00        0.267          4.0 
     1373.00        0.267          3.6 
     1374.00        0.333          3.5 
     1375.00        0.333          3.2 
     1376.00        5.800         10.9 
     1377.00        0.233          6.0 
     1378.00        0.267          4.1 
     1379.00        0.200          4.4 
     1380.00        0.300          4.0 
     1381.00        0.267          3.9 
     1382.00        0.300          3.8 
     1383.00        0.300         13.0 
     1384.00        0.333         36.8 
     1385.00        0.333         39.3 
     1386.00        0.333         37.9 
     1387.00        0.317         31.5 
     1388.00        0.200         23.6 
     1389.00        0.233         21.1 
     1390.00        0.267         16.6 
     1391.00        0.333         12.9 
     1392.00        0.267          9.8 
     1393.00        0.333          8.0 
     1394.00        0.333          5.9 
     1395.00        0.333          5.3 
     1396.00        0.333          4.5 
     1397.00        0.367          4.1 
     1398.00        0.350          3.3 
     1399.00        0.333          4.1 
     1400.00        0.333          3.4 
     1401.00        0.367          3.8 
     1402.00        0.333          3.5 
     1403.00        0.300          3.7 
     1404.00        0.267          3.5 
     1405.00        0.267          3.4 
     1406.00        3.550          7.2 
     1407.00        0.267          6.3 
     1408.00        0.300          6.0 
     1409.00        0.317          5.5 
