~Version Information
VERS.                      2.0: CWLS Log ASCII Standard - VERSION 2.0
WRAP.                       NO: One line per depth step
~Well Information Block
STRT.FT               -11.7500: 
STOP.FT              2025.5000: 
STEP.FT                 0.2500: 
NULL.                -999.2500: 
COMP.          Evergreen Operating Corp.: COMPANY
WELL.            Sumatra 34-22: WELL
FLD.           Purgatorie River: FIELD
LOC.           542 FSL & 2438 FEL--: LOCATION
PROV.                       CO: PROVINCE
CNTY.               Las Animas: COUNTRY
SRVC.          Patterson Wireline, Inc.: SERVICE COMPANY
DATE.          Wed Apr 02 10:17:21 2003: LOG DATE
UWI.           05 071 07804 00: UNIQUE WELL ID
~Curve Information Block
DEPT.FT            0 000 00 00: Depth
CCL.                          : Casing Collar Locator
TT3.usec                      : CBL 3' Travel Time
AMP3.mV                       : CBL 3' Amplitude
GR.GAPI                       : Gamma Ray
~Parameter Information Block
~A  Depth       CCL         TT3         AMP3         GR     
# ...
   122.2500      0.0000    845.9487      3.7083     96.6141
   122.5000      0.0000    851.0829      3.7054     92.0469
   122.7500      0.0000    851.4551      3.6839     88.0458
   123.0000      0.0000    848.4973      3.6708     85.7189
   123.2500      0.0000    848.3467      3.6838     86.3734
   123.5000      0.0000    851.7031      3.7004     90.4954
   123.7500      0.0000    854.3547      3.6882     96.7147
   124.0000      0.0000    855.9503      3.6408    102.1884
   124.2500      0.0000    859.2793      3.5744    104.5278
   124.5000      0.0000    864.1180      3.5140    103.5215
   124.7500      0.0000    868.9568      3.4642    101.1080
   125.0000      0.0000    874.5059      3.4108     99.8332
   125.2500      0.0000    880.3516      3.3522    100.9904
   125.5000      0.0000    881.0441      3.2976    103.7431
   125.7500      0.0000    872.5646      3.2661    106.0886
   126.0000      0.0000    861.8500      3.2722    106.7981
   126.2500      0.0000    859.0048      3.2893    106.1840
   126.5000      0.0000    863.5634      3.2762    105.0578
   126.7500      0.0000    868.7172      3.2297    103.6032
   127.0000      0.0000    870.1754      3.1942    101.6824
   127.2500      0.0000    867.6322      3.2148     99.8539
   127.5000      0.0000    865.6071      3.2898     99.3282
   127.7500      0.0000    868.0849      3.3859    100.6404
   128.0000      0.0000    872.5284      3.4633    102.7853
   128.2500      0.0000    876.4792      3.4902    104.0474
   128.5000      0.0000    881.1912      3.4709    103.5346
   128.7500      0.0000    886.2695      3.4443    101.8007
   129.0000      0.0000    889.6420      3.4392    100.4088
   129.2500      0.0000    890.8530      3.4360    101.0481
   129.5000      0.0000    890.1339      3.4135    104.4171
   129.7500      0.0000    886.6995      3.3981    109.3884
   130.0000      0.0000    879.6978      3.4168    113.3812
   130.2500      0.0000    869.8143      3.4654    113.9768
   130.5000      0.0000    859.0908      3.5156    110.5200
   130.7500      0.0000    851.4117      3.5360    104.4917
   131.0000      0.0000    851.0300      3.5363     98.5916
   131.2500      0.0000    857.0264      3.5511     95.3070
   131.5000      0.0000    863.6492      3.5860     95.7007
   131.7500      0.0000    867.1746      3.6240     98.9946
   132.0000      0.0000    867.6212      3.6560    103.2433
   132.2500      0.0000    865.4644      3.6787    106.6140
   132.5000      0.0000    861.5319      3.6825    108.3401
   132.7500      0.0000    858.4429      3.6708    108.8516
   133.0000      0.0000    857.6285      3.6797    109.1861
   133.2500      0.0000    857.4999      3.7362    109.9954
   133.5000      0.0000    857.4738      3.8103    110.8219
   133.7500      0.0000    858.1729      3.8439    110.5813
   134.0000      0.0000    858.7241      3.8227    108.9669
   134.2500      0.0000    859.3450      3.8006    107.0295
   134.5000      0.0000    860.7446      3.8263    106.2204
   134.7500      0.0000    859.5186      3.8717    107.0842
   135.0000      0.0000    851.8944      3.8815    108.8809
   135.2500      0.0000    841.7717      3.8592    110.2910
   135.5000      0.0000    838.1118      3.8604    110.3881
   135.7500      0.0000    842.1752      3.9088    108.9476
   136.0000      0.0000    845.1771      3.9700    106.1500
   136.2500      0.0000    841.1464      4.0152    102.5750
   136.5000      0.0000    831.0279      4.0388     99.5192
   136.7500      0.0000    814.3063      4.0115     98.6415
   137.0000      0.0000    791.4741      3.8879    100.8061
   137.2500      0.0000    776.6926      3.7056    105.2694
   137.5000      0.0000    789.9811      3.5791    110.1022
   137.7500      0.0000    829.8304      3.5033    113.4083
   138.0000      0.0000    871.6909      3.3722    114.1991
   138.2500      0.0000    896.0965      3.2097    112.3987
   138.5000      0.0000    901.0637      3.1253    108.5334
   138.7500      0.0000    892.8692      3.1295    103.5901
   139.0000      0.0000    881.8848      3.1463     98.9279
   139.2500     -2.1991    881.7854      3.1220     95.8740
   139.5000      0.0000    897.5296      3.0801     95.0511
   139.7500      0.0000    917.4772      3.0954     96.0848
   140.0000      0.0000    929.3237      3.2545     98.0593
   140.2500      0.0000    933.8252      3.5908    100.0950
   140.5000      0.0000    932.5736      3.9766    101.3845
   140.7500      0.0000    921.1774      4.2315    101.2137
   141.0000      0.0000    902.4880      4.3327     99.5813
   141.2500      0.0000    888.6561      4.3369     97.5503
   141.5000      0.0000    886.2589      4.2780     96.3931
   141.7500      0.0000    889.5064      4.2152     96.4437
   142.0000      0.0000    889.2416      4.2046     97.2242
   142.2500      0.0000    884.2131      4.2413     98.4626
   142.5000      0.0000    880.6764      4.2903    100.2551
   142.7500      0.0000    882.1183      4.3190    102.2382
   143.0000      0.0000    883.2932      4.3231    103.5189
   143.2500      0.0000    876.8290      4.3383    103.6853
   143.5000      0.0000    863.3121      4.3848    103.1700
   143.7500      0.0000    848.9158      4.4420    102.3552
   144.0000      0.0000    836.4458      4.4707    100.8403
   144.2500      0.0000    824.6609      4.4551     97.8065
   144.5000      0.0000    812.2021      4.4267     92.9364
   144.7500      0.0000    800.9873      4.4200     87.0237
   145.0000      0.0000    796.9870      4.4477     81.6543
   145.2500      0.0000    805.9523      4.5134     78.1322
   145.5000      0.0000    828.3040      4.6076     76.8212
   145.7500      0.0000    854.9443      4.6977     77.5413
   146.0000      0.0000    869.2156      4.7434     80.1775
   146.2500      0.0000    865.6031      4.7436     84.5768
   146.5000      0.0000    862.1824      4.7625     90.0692
   146.7500      0.0000    876.4805      4.8469     95.5560
   147.0000      0.0000    903.5316      4.9426    100.1947
   147.2500      0.0000    938.2277      4.9817    103.7038
   147.5000      0.0000    984.5253      5.0008    105.9457
   147.7500      0.0000   1024.5325      5.0718    106.6711
   148.0000      0.0000   1036.7345      5.1739    105.9012
   148.2500      0.0000   1033.3716      5.2247    104.1426
   148.5000      0.0000   1029.9851      5.2031    101.9103
   148.7500      0.0000   1020.1384      5.1617     99.3566
   149.0000      0.0000    991.5065      5.1244     96.7497
   149.2500      0.0000    943.4250      5.0686     95.0791
   149.5000      0.0000    898.6278      5.0125     95.5675
   149.7500      0.0000    884.9698      5.0118     98.3761
   150.0000      0.0000    900.9912      5.0587    102.0728
   150.2500      0.0000    922.9527      5.0800    104.6249
   150.5000      0.0000    931.0346      5.0590    104.9995
   150.7500      0.0000    918.7828      5.0628    103.8175
   151.0000      0.0000    903.9644      5.1110    102.3111
   151.2500      0.0000    915.6850      5.1206    100.7266
   151.5000      0.0000    954.5495      5.0289     98.2841
   151.7500      0.0000    993.3882      4.9002     94.8738
   152.0000      0.0000   1014.5737      4.8385     92.1130
   152.2500      0.0000   1021.2842      4.8542     92.0291
   152.5000      0.0000   1022.3584      4.8951     94.8013
   152.7500      0.0000   1022.7610      4.9437     98.2474
   153.0000      0.0000   1024.4064      4.9972     99.5976
   153.2500      0.0000   1029.0997      5.0211     97.5701
   153.5000      0.0000   1037.9342      4.9926     92.8596
   153.7500      0.0000   1047.6218      4.9303     87.2329
   154.0000      0.0000   1051.3511      4.8577     82.4257
   154.2500      0.0000   1045.7161      4.7812     79.3554
   154.5000      0.0000   1034.6362      4.6903     77.8639
   154.7500      0.0000   1024.9518      4.5779     77.3142
   155.0000      0.0000   1019.7872      4.4748     77.4939
   155.2500      0.0000   1017.4575      4.4358     78.5512
   155.5000      0.0000   1014.1736      4.4803     80.1535
