~Version Information
VERS.                      2.0: CWLS Log ASCII Standard - VERSION 2.0
WRAP.                       NO: One line per depth step
~Well Information Block
STRT.FT               580.0000: 
STOP.FT              2729.7000: 
STEP.FT                 0.1000: 
NULL.                -999.2500: 
COMP.          Pioneer Natural Resources: COMPANY
WELL.          Sand Pebbles 13-33: WELL
FLD.           Purgatoire River: FIELD
LOC.           1883' FSL & 63' FWL----: LOCATION
PROV.                 Colorado: PROVINCE
CNTY.               Las Animas: COUNTRY
SRVC.                Patterson: SERVICE COMPANY
DATE.          Mon Mar 14 07:33:33 2005: LOG DATE
UWI.           05 071 08224 00: UNIQUE WELL ID
~Curve Information Block
DEPT.FT            0 000 00 00: Depth
DCAL.in                       : CDL Caliper
RHOB.g/cc                     : CDL Bulk Density
RHOC.g/cc                     : CDL Density Correction
DPOR.pu                       : CDL Density Porosity
NPOR.pu                       : Neutron Porosity
GR.GAPI                       : Gamma Ray
~Parameter Information Block
~A  Depth       DCAL        RHOB        RHOC        DPOR        NPOR         GR     
# ...
  1856.8000      8.2687      2.5957      0.0806      3.2925     25.1827    130.6068
  1856.9000      8.2687      2.5842      0.0434      3.9870     25.2193    129.9329
  1857.0000      8.2673      2.5705      0.0635      4.8191     25.4429    129.5354
  1857.1000      8.2673      2.5526      0.0757      5.9041     25.4914    132.3227
  1857.2000      8.2673      2.5329      0.0155      7.0995     25.5457    138.1336
  1857.3000      8.2659      2.5206      0.0445      7.8414     26.0045    140.3628
  1857.4000      8.2659      2.5190     -0.0026      7.9393     26.5759    135.2366
  1857.5000      8.2660      2.5227     -0.0023      7.7176     26.5037    131.4572
  1857.6000      8.2660      2.5201      0.0300      7.8716     25.7956    135.2436
  1857.7000      8.2660      2.5061      0.0220      8.7195     25.1451    140.2418
  1857.8000      8.2666      2.4979     -0.0312      9.2196     24.8814    139.1373
  1857.9000      8.2666      2.5132     -0.0064      8.2907     24.9558    136.2648
  1858.0000      8.2641      2.5398      0.0361      6.6807     25.2854    139.3303
  1858.1000      8.2641      2.5585      0.0391      5.5431     25.7434    143.8979
  1858.2000      8.2641      2.5705      0.0202      4.8198     26.1600    143.9184
  1858.3000      8.2620      2.5784      0.0558      4.3399     26.0839    141.7076
  1858.4000      8.2620      2.5786      0.0328      4.3260     25.2189    139.4328
  1858.5000      8.2644      2.5756      0.0798      4.5098     24.4217    133.7625
  1858.6000      8.2644      2.5755      0.0582      4.5170     24.6187    123.4211
  1858.7000      8.2644      2.5753      0.0530      4.5275     25.3379    115.3429
  1858.8000      8.2672      2.5640      0.0473      5.2109     25.6494    115.2515
  1858.9000      8.2672      2.5405      0.0398      6.6393     25.1512    123.1416
  1859.0000      8.2679      2.5193      0.0227      7.9210     24.0122    133.3781
  1859.1000      8.2679      2.5073      0.0351      8.6491     22.7880    136.8398
  1859.2000      8.2679      2.4973      0.0211      9.2555     22.2580    134.3651
  1859.3000      8.2679      2.4943     -0.0036      9.4371     22.7957    135.2509
  1859.4000      8.2679      2.5096      0.0207      8.5083     23.6659    138.6057
  1859.5000      8.2668      2.5331      0.0373      7.0843     24.0633    134.1347
  1859.6000      8.2668      2.5441      0.0622      6.4155     24.0663    119.1725
  1859.7000      8.2668      2.5375      0.0399      6.8154     23.8147    104.6720
  1859.8000      8.2659      2.5242      0.0250      7.6257     23.4438    100.5676
  1859.9000      8.2659      2.5133      0.0057      8.2842     23.0014    102.7357
  1860.0000      8.2662      2.5028      0.0597      8.9226     22.2027    101.6456
  1860.1000      8.2662      2.4873      0.0198      9.8619     21.3661     96.8908
  1860.2000      8.2662      2.4724     -0.0279     10.7625     21.1601     94.9393
  1860.3000      8.2667      2.4655      0.0119     11.1814     21.5017     97.0926
  1860.4000      8.2667      2.4665     -0.0425     11.1218     21.8728    101.6303
  1860.5000      8.2680      2.4711      0.0159     10.8403     22.0775    106.5196
  1860.6000      8.2680      2.4719      0.0034     10.7955     22.4255    107.5746
  1860.7000      8.2680      2.4721      0.0088     10.7846     22.8805    105.3179
  1860.8000      8.2694      2.4782      0.0294     10.4100     22.7234    104.5835
  1860.9000      8.2694      2.4939      0.0196      9.4586     22.0733    104.7581
  1861.0000      8.2701      2.5241      0.0583      7.6288     21.7917    104.1453
  1861.1000      8.2701      2.5620      0.0753      5.3323     22.0102    104.7716
  1861.2000      8.2701      2.5914      0.0911      3.5535     22.3686    105.7281
  1861.3000      8.2687      2.6046      0.0635      2.7498     22.6707    103.7515
  1861.4000      8.2687      2.5990      0.0939      3.0906     22.7368    101.4819
  1861.5000      8.2665      2.5690      0.0427      4.9063     22.6080    104.3522
  1861.6000      8.2665      2.5263      0.0042      7.4945     22.5518    109.0269
  1861.7000      8.2665      2.5020     -0.0244      8.9686     22.4150    108.2084
  1861.8000      8.2689      2.5126      0.0221      8.3278     21.7915    104.0844
  1861.9000      8.2689      2.5404      0.0480      6.6408     21.0291    100.6184
  1862.0000      8.2749      2.5626      0.0679      5.2977     20.8394     96.0471
  1862.1000      8.2749      2.5795      0.0357      4.2734     21.1600     92.4264
  1862.2000      8.2749      2.5994      0.0729      3.0658     21.4013     94.9761
  1862.3000      8.2787      2.6208      0.0640      1.7688     21.5184    102.4477
  1862.4000      8.2787      2.6393      0.0369      0.6465     21.6519    108.5382
  1862.5000      8.2801      2.6477      0.0897      0.1388     21.5002    109.7467
  1862.6000      8.2801      2.6388      0.0755      0.6816     21.1714    106.9283
  1862.7000      8.2801      2.6241      0.0316      1.5689     21.2522    103.4504
  1862.8000      8.2800      2.6186      0.0380      1.9030     21.4301    100.8136
  1862.9000      8.2800      2.6196      0.0584      1.8409     20.9219     99.4020
  1863.0000      8.2788      2.6212      0.0681      1.7463     20.3662     99.8284
  1863.1000      8.2788      2.6246      0.0230      1.5382     20.7247     98.8757
  1863.2000      8.2788      2.6271      0.0541      1.3884     21.6868     95.1132
  1863.3000      8.2813      2.6254      0.0243      1.4904     22.2661     95.0152
  1863.4000      8.2813      2.6255      0.0593      1.4827     22.0010    101.2367
  1863.5000      8.2887      2.6214      0.0875      1.7342     21.4886    107.9193
  1863.6000      8.2887      2.6054      0.0588      2.7026     21.4945    111.5678
  1863.7000      8.2887      2.5927      0.0549      3.4723     22.0290    110.0834
  1863.8000      8.2933      2.5962      0.0452      3.2593     22.7433    104.1273
  1863.9000      8.2933      2.6065      0.0888      2.6377     23.2543    101.4547
  1864.0000      8.2934      2.6146      0.0516      2.1426     23.4502    103.7767
  1864.1000      8.2934      2.6211      0.0852      1.7497     23.7723    105.3669
  1864.2000      8.2934      2.6195      0.0545      1.8513     24.7082    107.4049
  1864.3000      8.2924      2.6025      0.0592      2.8806     26.0459    116.8494
  1864.4000      8.2924      2.5706      0.0151      4.8104     26.6320    130.6067
  1864.5000      8.2923      2.5395     -0.0050      6.6950     25.9245    137.8238
  1864.6000      8.2923      2.5251      0.0092      7.5686     24.8354    137.3380
  1864.7000      8.2923      2.5188      0.0233      7.9527     24.0446    137.2083
  1864.8000      8.2924      2.5133     -0.0364      8.2834     23.8549    141.5099
  1864.9000      8.2924      2.5207      0.0152      7.8379     24.6500    148.3188
  1865.0000      8.2924      2.5380      0.0263      6.7887     25.9385    155.3986
  1865.1000      8.2924      2.5520      0.0477      5.9400     26.6057    159.0273
  1865.2000      8.2924      2.5581      0.0587      5.5726     26.4967    153.8961
  1865.3000      8.2935      2.5514      0.0260      5.9754     26.3495    140.8824
  1865.4000      8.2935      2.5354      0.0068      6.9468     26.4950    129.3054
  1865.5000      8.2934      2.5292     -0.0100      7.3191     26.8018    123.8075
  1865.6000      8.2934      2.5485      0.0226      6.1517     27.4626    121.8491
  1865.7000      8.2934      2.5732      0.0868      4.6557     28.4360    124.0657
  1865.8000      8.2924      2.5763      0.0437      4.4654     28.7608    131.3964
  1865.9000      8.2924      2.5749     -0.0197      4.5495     27.9158    138.8226
  1866.0000      8.2935      2.5893      0.0551      3.6784     26.7305    142.1138
  1866.1000      8.2935      2.5981      0.1006      3.1470     26.0158    142.8057
  1866.2000      8.2935      2.5833      0.0412      4.0439     25.4166    140.9415
  1866.3000      8.2982      2.5681      0.0178      4.9647     24.6280    138.3055
