~Version Information
VERS.                      2.0: CWLS Log ASCII Standard - VERSION 2.0
WRAP.                       NO: One line per depth step
~Well Information Block
STRT.FT                -3.0000: 
STOP.FT              2043.2500: 
STEP.FT                 0.2500: 
NULL.                -999.2500: 
COMP.          Pioneer Natural Resources: COMPANY
WELL.           Galloway 32-13: WELL
FLD.           Purgatorie River: FIELD
LOC.           1809' FNL & 2004' FEL--: LOCATION
PROV.                       CO: PROVINCE
CNTY.               Las Animas: COUNTRY
SRVC.          Patterson Wireline: SERVICE COMPANY
DATE.          Thu Jul 14 13:02:15 2005: LOG DATE
UWI.           05 071 08423 00: UNIQUE WELL ID
~Curve Information Block
DEPT.FT            0 000 00 00: Depth
CCL.                          : Casing Collar Locator
TT3.usec                      : CBL 3' Travel Time
AMP3.mV                       : CBL 3' Amplitude
GR.GAPI                       : Gamma Ray
~Parameter Information Block
~A  Depth       CCL         TT3         AMP3         GR     
# ...
   667.0000      0.0000    857.9446      3.9004    129.7842
   667.2500      0.0000    858.8559      3.9376    124.0515
   667.5000      0.0000    859.2885      3.8935    117.6384
   667.7500      0.0000    859.5844      3.8119    113.1975
   668.0000      0.0000    859.8079      3.7632    111.8930
   668.2500      0.0000    859.9527      3.7918    113.3617
   668.5000      0.0000    860.0349      3.8813    116.4743
   668.7500      0.0000    860.0922      3.9664    120.1097
   669.0000      0.0000    860.1708      3.9849    123.5450
   669.2500      0.0000    860.2919      3.9299    126.4884
   669.5000      0.0000    860.4226      3.8569    129.0080
   669.7500      0.0000    860.4932      3.8355    131.3959
   670.0000      0.0000    860.4489      3.8866    133.6562
   670.2500      0.0000    860.2701      3.9657    134.9697
   670.5000      0.0000    859.7720      4.0107    134.2296
   670.7500      0.0000    858.2062      4.0035    131.5418
   671.0000      0.0000    853.7717      3.9821    128.7155
   671.2500      0.0000    843.7349      3.9942    127.6928
   671.5000      0.0000    825.8270      4.0468    128.5271
   671.7500      0.0000    800.1088      4.1048    129.1842
   672.0000      0.0000    769.1730      4.1375    127.3448
   672.2500      0.0000    736.5497      4.1531    122.4432
   672.5000      0.0000    705.7736      4.1802    116.2040
   672.7500      0.0000    680.5516      4.2233    111.2891
   673.0000      0.0000    663.9401      4.2535    109.2943
   673.2500      0.0000    656.7872      4.2450    109.7841
   673.5000      0.0000    657.5701      4.2075    110.9209
   673.7500      0.0000    663.6319      4.1709    110.9887
   674.0000      0.0000    672.5839      4.1502    109.7106
   674.2500      0.0000    683.7866      4.1393    108.2116
   674.5000      0.0000    699.3290      4.1338    107.3956
   674.7500      0.0000    722.5765      4.1410    106.5838
   675.0000      0.0000    754.0353      4.1591    104.2647
   675.2500      0.0000    788.4559      4.1644    100.0412
   675.5000      0.0000    817.0403      4.1325     95.2567
   675.7500      0.0000    833.1506      4.0707     91.7101
   676.0000      0.0000    835.8745      4.0150     90.0985
   676.2500      0.0000    829.0764      3.9912     89.6502
   676.5000      0.0000    818.6578      3.9851     89.0024
   676.7500      0.0000    810.5695      3.9591     87.4623
   677.0000      0.0000    808.9975      3.8950     85.5789
   677.2500      0.0000    814.1299      3.8155     84.4991
   677.5000      0.0000    821.7988      3.7666     84.8503
   677.7500      0.0000    826.6630      3.7803     86.4002
   678.0000      0.0000    826.0487      3.8489     88.5689
   678.2500      0.0000    820.5447      3.9337     90.8525
   678.5000      0.0000    811.7296      4.0003     92.8059
   678.7500      0.0000    800.4965      4.0504     94.1359
   679.0000      0.0000    787.4320      4.1115     95.0983
   679.2500      0.0000    773.3809      4.1965     96.5768
   679.5000      0.0000    758.8662      4.2804     99.1926
   679.7500      0.0000    743.7631      4.3277    102.1681
   680.0000      0.0000    728.3050      4.3328    103.6187
   680.2500      0.0000    713.9971      4.3214    102.3398
   680.5000      0.0000    702.9885      4.3192     98.9379
   680.7500      0.0000    696.7617      4.3364     95.0186
   681.0000      0.0000    696.0176      4.3742     91.9684
   681.2500      0.0000    701.8002      4.4235     90.8196
   681.5000      0.0000    715.7489      4.4631     92.5207
   681.7500      0.0000    738.0066      4.4786     97.6193
   682.0000      0.0000    764.9568      4.4750    105.7139
   682.2500      0.0000    790.5277      4.4608    115.2072
   682.5000      0.0000    810.5027      4.4310    123.5465
   682.7500      0.0000    824.8550      4.3812    128.3141
   683.0000      0.0000    835.8209      4.3259    128.9120
   683.2500      0.0000    844.8415      4.2860    127.2105
   683.5000      0.0000    851.8027      4.2672    126.0818
   683.7500      0.0000    856.2657      4.2648    127.1854
   684.0000      0.0000    858.4933      4.2779    130.1666
   684.2500      0.0000    859.3392      4.3046    133.6105
   684.5000      0.0000    859.6451      4.3330    136.5424
   684.7500      0.0000    859.8673      4.3488    139.1658
   685.0000      0.0000    860.0576      4.3448    142.2721
   685.2500      0.0000    860.0175      4.3224    146.0501
   685.5000      0.0000    859.5565      4.2976    149.6708
   685.7500      0.0000    858.9545      4.2934    151.9124
   686.0000      0.0000    859.4580      4.3023    151.8751
   686.2500      0.0000    862.7575      4.2685    149.1370
   686.5000      0.0000    868.6999      4.1455    143.6471
   686.7500      0.0000    873.3328      3.9641    135.6673
   687.0000      0.0000    870.9806      3.8060    125.6872
   687.2500      0.0000    859.8832      3.7204    114.3686
   687.5000      0.0000    845.1155      3.6985    102.7004
   687.7500      0.0000    834.1653      3.7136     92.1077
   688.0000     -1.3647    829.0563      3.7431     83.9412
   688.2500      0.0000    824.2467      3.7635     78.5433
   688.5000      0.0000    813.6644      3.7583     74.9990
   688.7500      0.0000    798.7374      3.7304     72.0399
   689.0000      0.0000    787.7195      3.6943     69.1808
   689.2500      0.0000    787.7733      3.6659     66.9466
   689.5000      0.0000    798.8224      3.6686     66.1208
   689.7500      0.0000    814.3918      3.7240     66.8528
   690.0000      0.0000    827.2811      3.8247     68.4421
   690.2500      0.0000    834.6141      3.9302     70.1441
   690.5000      0.0000    838.1757      3.9997     72.1468
   690.7500      0.0000    840.5960      4.0220     75.3713
   691.0000      0.0000    842.1075      4.0161     80.2504
   691.2500      0.0000    841.0550      4.0107     85.9781
   691.5000      0.0000    836.4552      4.0166     90.9909
   691.7500      0.0000    829.7214      4.0193     94.1128
   692.0000      0.0000    824.4678      4.0052     95.3407
   692.2500      0.0000    824.4139      3.9857     95.5404
   692.5000      0.0000    830.6458      3.9850     95.4065
   692.7500      0.0000    840.6995      4.0129     94.9527
   693.0000      0.0000    850.1444      4.0606     93.9207
   693.2500      0.0000    855.1118      4.1177     92.2218
   693.5000      0.0000    854.4121      4.1875     89.9129
   693.7500      0.0000    850.3183      4.2826     87.2215
   694.0000      0.0000    846.6655      4.4084     84.8399
   694.2500      0.0000    845.4175      4.5527     83.7195
   694.5000      0.0000    845.3326      4.6914     84.1058
   694.7500      0.0000    843.8361      4.8020     85.0302
   695.0000      0.0000    839.2655      4.8721     85.0829
   695.2500      0.0000    831.5996      4.9028     83.5970
   695.5000      0.0000    822.4969      4.9128     81.0419
   695.7500      0.0000    814.9745      4.9305     78.4689
   696.0000      0.0000    811.6649      4.9670     76.7226
   696.2500      0.0000    812.0802      5.0018     76.0157
   696.5000      0.0000    812.1198      5.0003     75.9663
   696.7500      0.0000    807.6772      4.9426     75.8966
   697.0000      0.0000    798.7234      4.8334     75.1597
   697.2500      0.0000    789.0163      4.6922     73.4576
   697.5000      0.0000    782.2612      4.5405     71.1331
   697.7500      0.0000    779.7720      4.3976     69.1608
   698.0000      0.0000    781.1698      4.2835     68.5371
   698.2500      0.0000    785.2205      4.2105     69.3806
   698.5000      0.0000    789.6177      4.1744     70.8062
   698.7500      0.0000    791.4957      4.1613     71.9521
   699.0000      0.0000    788.9409      4.1596     72.8351
   699.2500      0.0000    781.9556      4.1597     73.8227
   699.5000      0.0000    772.2034      4.1510     74.7451
   699.7500      0.0000    762.2644      4.1285     75.1891
   700.0000      0.0000    755.0480      4.0991     75.4068
   700.2500      0.0000    752.9409      4.0780     76.2596
