~Version Information
VERS.                      2.0: CWLS Log ASCII Standard - VERSION 2.0
WRAP.                       NO: One line per depth step
~Well Information Block
STRT.FT               664.0000: 
STOP.FT              1113.5000: 
STEP.FT                 0.1000: 
NULL.                -999.2500: 
COMP.          Petrogulf Corporation: COMPANY
WELL.          Great Plains 22-21R: WELL
FLD.           Purgatorie River: FIELD
LOC.           73' FNL & 1992' FWL: LOCATION
PROV.                 Colorado: PROVINCE
CNTY.               Las Animas: COUNTRY
SRVC.                Patterson: SERVICE COMPANY
DATE.          Thu Sep 08 08:02:28 2005: LOG DATE
UWI.                          : UNIQUE WELL ID
~Curve Information Block
DEPT.FT            0 000 00 00: Depth
DCAL.in                       : CDL Caliper
RHOB.g/cc                     : CDL Bulk Density
RHOC.g/cc                     : CDL Density Correction
DPOR.pu                       : CDL Density Porosity
GR.GAPI                       : Gamma Ray
NPOR.pu                       : Neutron Porosity
~Parameter Information Block
~A  Depth       DCAL        RHOB        RHOC        DPOR         GR         NPOR    
# ...
   808.0000      9.5061      1.2379      0.0286     85.5797     35.0876     32.5976
   808.1000      9.5061      1.2271     -0.0025     86.2391     40.0455     32.5170
   808.2000      9.5061      1.2317     -0.0028     85.9578     44.3263     32.5852
   808.3000      9.3565      1.2669      0.0070     83.8242     46.5595     32.9280
   808.4000      9.3565      1.3398      0.0609     79.4037     48.1366     33.3978
   808.5000      9.6996      1.4414      0.0835     73.2494     50.7080     33.6585
   808.6000      9.6996      1.5548      0.1079     66.3733     55.6419     33.7401
   808.7000      9.6996      1.6727      0.1059     59.2275     63.7438     33.7861
   808.8000     10.0350      1.7984      0.1598     51.6107     74.4207     33.5681
   808.9000     10.0350      1.9318      0.2083     43.5269     86.1033     33.1618
   809.0000      9.7530      2.0678      0.2471     35.2820     96.5085     32.9938
   809.1000      9.7530      2.2015      0.2281     27.1814    105.9511     32.9896
   809.2000      9.7530      2.3158      0.2273     20.2534    116.9936     32.8076
   809.3000      8.7161      2.3950      0.1663     15.4562    131.4771     32.5237
   809.4000      8.7161      2.4454      0.1583     12.4019    149.3322     32.4051
   809.5000      8.1342      2.4733      0.1486     10.7094    164.1658     32.3471
   809.6000      8.1342      2.4824      0.1098     10.1570    169.3910     31.9015
   809.7000      8.1342      2.4860      0.0706      9.9404    168.1276     30.9321
   809.8000      8.0989      2.4963      0.0605      9.3174    166.6689     29.9590
   809.9000      8.0989      2.5196      0.0753      7.9015    165.6711     29.5216
   810.0000      8.0982      2.5473      0.0792      6.2248    164.4806     29.4791
   810.1000      8.0982      2.5522      0.1013      5.9247    165.3848     29.1181
   810.2000      8.0982      2.5256      0.0398      7.5365    169.0164     28.2973
   810.3000      8.1169      2.4922      0.0569      9.5633    172.5648     27.6865
   810.4000      8.1169      2.4703      0.0188     10.8917    173.5906     27.6258
   810.5000      8.1098      2.4594      0.0247     11.5536    173.3338     27.8352
   810.6000      8.1098      2.4566      0.0059     11.7206    174.5662     27.8892
   810.7000      8.1098      2.4572      0.0546     11.6833    177.4242     27.7160
   810.8000      8.1589      2.4542      0.0254     11.8664    178.8193     27.6498
   810.9000      8.1589      2.4537      0.0221     11.8995    178.0213     27.8440
   811.0000      8.2571      2.4652      0.0776     11.1993    178.0340     28.2325
   811.1000      8.2571      2.4831      0.1056     10.1149    179.4651     28.6766
   811.2000      8.2571      2.4988      0.1067      9.1628    178.0096     28.9461
   811.3000      8.3479      2.5093      0.1341      8.5255    172.0026     29.0068
   811.4000      8.3479      2.5095      0.1411      8.5171    166.2754     29.1673
   811.5000      8.2251      2.5012      0.1088      9.0159    164.6687     29.3234
   811.6000      8.2251      2.4963      0.0839      9.3167    165.1225     29.0719
   811.7000      8.2251      2.4970      0.0690      9.2747    163.2125     28.6204
   811.8000      8.1357      2.4947      0.0784      9.4096    158.3744     28.6484
   811.9000      8.1357      2.4877      0.0255      9.8359    154.5109     29.2710
   812.0000      8.0688      2.4834      0.0116     10.0950    155.0294     29.7121
   812.1000      8.0688      2.4839      0.0151     10.0637    158.2851     29.6907
   812.2000      8.0688      2.4823      0.0778     10.1636    159.4745     29.7157
   812.3000      8.0726      2.4741      0.0539     10.6586    157.8250     29.7387
   812.4000      8.0726      2.4726      0.0434     10.7494    156.8570     29.2581
   812.5000      8.0619      2.4909      0.0347      9.6408    157.6122     28.2976
   812.6000      8.0619      2.5167      0.0842      8.0791    159.6622     27.4113
   812.7000      8.0619      2.5348      0.0611      6.9817    164.2115     26.8793
   812.8000      8.0504      2.5483      0.0893      6.1641    168.8172     26.4352
   812.9000      8.0504      2.5554      0.1382      5.7333    170.6998     26.1199
   813.0000      8.0384      2.5461      0.1002      6.2967    169.8727     26.2423
   813.1000      8.0384      2.5256      0.0867      7.5367    165.6812     26.6604
   813.2000      8.0384      2.5106      0.0715      8.4506    160.2583     26.9521
   813.3000      8.0579      2.5063      0.0785      8.7062    157.6372     26.8932
   813.4000      8.0579      2.5010      0.0761      9.0309    157.7924     26.6578
   813.5000      8.1335      2.4846      0.0856     10.0240    160.0119     26.5969
   813.6000      8.1335      2.4668      0.0122     11.1057    166.0667     26.7741
   813.7000      8.1335      2.4618      0.0292     11.4058    173.4199     27.0915
   813.8000      8.1583      2.4610      0.0732     11.4519    177.3151     27.5499
   813.9000      8.1583      2.4508      0.0642     12.0729    178.9926     28.0292
   814.0000      8.1778      2.4377      0.0462     12.8670    180.6012     28.2351
   814.1000      8.1778      2.4270      0.0833     13.5182    181.4539     28.1768
   814.2000      8.1778      2.4153      0.0358     14.2257    180.4006     28.0683
   814.3000      8.1725      2.4132      0.0236     14.3524    177.7706     27.9905
   814.4000      8.1725      2.4280      0.1102     13.4555    176.2138     27.9308
   814.5000      8.1607      2.4487      0.0663     12.2028    176.7821     27.9647
   814.6000      8.1607      2.4675      0.0453     11.0597    177.3173     28.0873
   814.7000      8.1607      2.4794      0.0779     10.3396    175.6120     28.0976
   814.8000      8.1560      2.4824      0.0499     10.1582    171.5370     28.0271
   814.9000      8.1560      2.4865      0.0742      9.9099    168.2907     28.1954
   815.0000      8.0982      2.4955      0.1173      9.3608    168.6316     28.5818
   815.1000      8.0982      2.5079      0.0758      8.6134    172.1345     28.6361
   815.2000      8.0982      2.5292      0.1060      7.3218    175.9993     27.9968
   815.3000      8.0034      2.5630      0.1124      5.2730    175.1080     27.1086
   815.4000      8.0034      2.6080      0.1531      2.5472    169.0383     26.8748
   815.5000      7.9728      2.6624      0.1701     -0.7513    163.1492     27.3434
   815.6000      7.9728      2.7226      0.1758     -4.4013    159.2988     27.7257
   815.7000      7.9728      2.7809      0.2024     -7.9352    154.4733     27.8411
   815.8000      7.9729      2.8323      0.1764    -11.0480    144.4360     28.0064
   815.9000      7.9729      2.8856      0.1902    -14.2762    130.8549     28.0399
   816.0000      7.9593      2.9622      0.1615    -18.9190    122.1856     27.7513
   816.1000      7.9593      3.0554      0.2265    -24.5714    120.2447     27.4076
   816.2000      7.9593      3.1106      0.2181    -27.9154    117.9597     26.9710
   816.3000      7.9749      3.1001      0.1320    -27.2796    111.4799     26.2083
   816.4000      7.9749      3.0560      0.1735    -24.6090    103.4849     25.4732
   816.5000      7.9256      3.0095      0.1237    -21.7906     96.1397     25.2287
   816.6000      7.9256      2.9579      0.1146    -18.6578     89.9936     25.2750
   816.7000      7.9256      2.8792      0.0823    -13.8936     86.7347     24.8574
   816.8000      7.8962      2.7767     -0.0485     -7.6811     87.0124     23.6635
   816.9000      7.8962      2.6841     -0.1265     -2.0640     88.1659     22.4257
   817.0000      7.8338      2.6156     -0.0652      2.0839     89.2422     21.8419
   817.1000      7.8338      2.5706     -0.0337      4.8108     91.5533     21.5081
   817.2000      7.8338      2.5671     -0.0064      5.0257     92.8688     20.7349
   817.3000      7.8317      2.6056      0.1215      2.6932     93.2727     19.5769
   817.4000      7.8317      2.6463      0.1803      0.2213     95.7095     18.5161
   817.5000      7.8949      2.6665      0.1505     -1.0018     99.0451     17.8683
