~Version Information
VERS.                      2.0: CWLS Log ASCII Standard - VERSION 2.0
WRAP.                       NO: One line per depth step
~Well Information Block
STRT.FT               800.0000: 
STOP.FT              1933.5000: 
STEP.FT                 0.2500: 
NULL.                -999.2500: 
COMP.          Pioneer Natural Resources: COMPANY
WELL.            Nova 11-14 Tr: WELL
FLD.           Purgatoire River: FIELD
LOC.           706' FNL & 1109' FWL: LOCATION
PROV.                 Colorado: PROVINCE
CNTY.               Las Animas: COUNTRY
SRVC.                Patterson: SERVICE COMPANY
DATE.          Wed Jul 20 23:28:11 2005: LOG DATE
UWI.           05 071 08434 00: UNIQUE WELL ID
~Curve Information Block
DEPT.FT            0 000 00 00: Depth
SN.Ohm-m                      : IEL Short Normal
SP.mV                         : IEL Spontaneous Potential
DIR.Ohm-m                     : IEL Induction Resistivity
GR.GAPI                       : Gamma Ray
~Parameter Information Block
~A  Depth        SN          SP         DIR          GR     
# ...
  1838.5000     27.3595     -1.7894     19.5093     97.1766
  1838.7500     28.5999     -1.6321     20.9020    100.4856
  1839.0000     29.8144     -1.4369     22.3131    104.3114
  1839.2500     31.0021     -1.1695     23.6146    104.7345
  1839.5000     32.0455     -0.8251     24.7061    101.3541
  1839.7500     32.8183     -0.4244     25.5368     97.2816
  1840.0000     33.3748      0.0039     26.1069     91.0104
  1840.2500     33.9968      0.4514     26.4522     87.8400
  1840.5000     34.9427      0.9407     26.6216     85.1723
  1840.7500     36.1737      1.5031     26.6488     84.5758
  1841.0000     37.4069      2.1510     26.5300     84.7149
  1841.2500     38.3509      2.8815     26.2258     85.0616
  1841.5000     38.8009      3.6999     25.6901     85.5198
  1841.7500     38.6248      4.6244     24.9087     85.6869
  1842.0000     37.7759      5.6587     23.9159     85.8018
  1842.2500     36.2916      6.7555     22.7865     86.1398
  1842.5000     34.2711      7.8082     21.6170     88.2015
  1842.7500     31.8634      8.6847     20.5080     91.1811
  1843.0000     29.2403      9.2816     19.5445     98.1860
  1843.2500     26.5850      9.5592     18.7794    104.3093
  1843.5000     24.0962      9.5359     18.2256    115.1064
  1843.7500     21.9198      9.2529     17.8618    122.6190
  1844.0000     20.0914      8.7404     17.6452    131.7560
  1844.2500     18.6293      8.0102     17.5265    134.7092
  1844.5000     17.5879      7.0839     17.4634    133.0198
  1844.7500     16.9755      6.0413     17.4299    128.2408
  1845.0000     16.8258      5.0367     17.4194    117.3817
  1845.2500     17.3786      4.2507     17.4459    108.5693
  1845.5000     18.9252      3.8066     17.5446     93.8215
  1845.7500     21.4407      3.7229     17.7712     83.3328
  1846.0000     24.5965      3.9321     18.1927     67.6460
  1846.2500     28.1272      4.3376     18.8682     58.0916
  1846.5000     31.9947      4.8669     19.8246     46.5296
  1846.7500     36.1659      5.4965     21.0410     41.0907
  1847.0000     40.3899      6.2478     22.4485     36.1465
  1847.2500     44.2979      7.1591     23.9487     34.5045
  1847.5000     47.6158      8.2485     25.4340     33.5291
  1847.7500     50.2248      9.4882     26.7966     33.4336
  1848.0000     52.1083     10.8123     27.9264     33.9637
  1848.2500     53.2843     12.1534     28.7130     35.0771
  1848.5000     53.7701     13.4749     29.0581     38.6581
  1848.7500     53.5725     14.7675     28.8973     42.3933
  1849.0000     52.6782     16.0274     28.2196     49.0788
  1849.2500     51.0804     17.2592     27.0735     53.5091
  1849.5000     48.8409     18.5093     25.5557     59.5917
  1849.7500     46.0863     19.8764     23.7918     63.4679
  1850.0000     42.9087     21.4563     21.9173     69.4962
  1850.2500     39.2797     23.2545     20.0583     73.8301
  1850.5000     35.1264     25.1499     18.3128     81.1260
  1850.7500     30.5318     26.9464     16.7399     86.7460
  1851.0000     25.7836     28.4641     15.3601     96.3598
  1851.2500     21.2774     29.5989     14.1644    103.2240
  1851.5000     17.4426     30.3362     13.1273    113.1740
  1851.7500     14.5220     30.7353     12.2201    118.9240
  1852.0000     12.3806     30.8978     11.4194    125.3847
  1852.2500     10.7613     30.9289     10.7084    128.0833
  1852.5000      9.5692     30.9185     10.0742    130.1715
  1852.7500      8.7823     30.9520      9.5060    130.8190
  1853.0000      8.3132     31.1159      8.9967    131.3459
  1853.2500      8.0382     31.4722      8.5447    131.3297
  1853.5000      7.8770     32.0199      8.1523    130.4982
  1853.7500      7.8238     32.6905      7.8222    129.7321
  1854.0000      7.8881     33.3875      7.5523    129.3037
  1854.2500      7.9969     34.0310      7.3349    129.7169
  1854.5000      8.0075     34.5756      7.1577    130.8270
  1854.7500      7.8508     35.0033      7.0069    131.4471
  1855.0000      7.6195     35.3165      6.8713    131.7444
  1855.2500      7.4329     35.5372      6.7454    131.4553
  1855.5000      7.2802     35.7029      6.6294    130.5578
  1855.7500      7.1049     35.8501      6.5265    130.0009
  1856.0000      6.9175     35.9960      6.4399    129.7895
  1856.2500      6.7524     36.1313      6.3704    130.2017
  1856.5000      6.6490     36.2326      6.3152    131.6175
  1856.7500      6.6420     36.2820      6.2689    132.9310
  1857.0000      6.6801     36.2807      6.2261    134.7794
  1857.2500      6.6641     36.2493      6.1838    135.4743
  1857.5000      6.5598     36.2187      6.1430    135.5396
  1857.7500      6.3733     36.2221      6.1066    135.2303
  1858.0000      6.0950     36.2861      6.0771    134.6899
  1858.2500      5.7177     36.4226      6.0553    134.2653
  1858.5000      5.2969     36.6289      6.0412    133.2747
  1858.7500      5.0000     36.8943      6.0357    132.3091
  1859.0000      4.9881     37.2013      6.0411    130.7052
  1859.2500      5.2189     37.5213      6.0603    129.8587
  1859.5000      5.4980     37.8164      6.0942    128.9225
  1859.7500      5.6754     38.0558      6.1412    127.9898
  1860.0000      5.7331     38.2351      6.1972    125.3967
  1860.2500      5.7497     38.3824      6.2569    123.2464
  1860.5000      5.8128     38.5390      6.3146    121.0424
  1860.7500      5.9926     38.7275      6.3659    120.9447
  1861.0000      6.3384     38.9377      6.4079    122.5203
  1861.2500      6.7503     39.1448      6.4405    123.8720
  1861.5000      6.9923     39.3352      6.4659    125.2339
  1861.7500      6.9860     39.5103      6.4885    125.8407
  1862.0000      6.8813     39.6706      6.5123    127.4552
  1862.2500      6.8045     39.8033      6.5382    129.3785
  1862.5000      6.7514     39.8870      6.5624    132.7659
  1862.7500      6.6981     39.9052      6.5782    134.4024
  1863.0000      6.6641     39.8554      6.5799    134.7437
  1863.2500      6.6465     39.7488      6.5668    133.5943
  1863.5000      6.5836     39.6039      6.5422    130.9091
  1863.7500      6.4336     39.4373      6.5103    129.2805
  1864.0000      6.2387     39.2537      6.4732    127.9357
  1864.2500      6.0708     39.0432      6.4312    127.7426
  1864.5000      5.9609     38.7886      6.3843    127.7039
  1864.7500      5.9004     38.4750      6.3345    127.3740
  1865.0000      5.8658     38.0888      6.2849    126.5399
  1865.2500      5.8419     37.6109      6.2392    126.4128
  1865.5000      5.8480     37.0195      6.1998    127.9196
  1865.7500      5.9077     36.3082      6.1687    129.9882
  1866.0000      6.0103     35.5052      6.1471    133.3246
  1866.2500      6.1539     34.6704      6.1357    134.7344
  1866.5000      6.3526     33.8734      6.1346    134.8299
  1866.7500      6.5501     33.1693      6.1422    133.8374
  1867.0000      6.6123     32.5831      6.1556    132.0179
  1867.2500      6.4477     32.1068      6.1712    131.2301
  1867.5000      6.0865     31.7079      6.1858    131.2600
  1867.7500      5.6678     31.3485      6.1979    132.2916
  1868.0000      5.3912     31.0028      6.2085    135.4450
  1868.2500      5.3604     30.6591      6.2207    138.1861
  1868.5000      5.4612     30.3100      6.2388    141.7847
  1868.7500      5.5714     29.9458      6.2671    143.1696
  1869.0000      5.7620     29.5635      6.3088    143.5105
  1869.2500      6.1154     29.1762      6.3666    142.6512
  1869.5000      6.5342     28.8102      6.4416    139.6579
  1869.7500      6.8630     28.4975      6.5332    136.6906
  1870.0000      7.0707     28.2733      6.6396    132.1340
  1870.2500      7.2175     28.1659      6.7583    130.0896
  1870.5000      7.3399     28.1798      6.8868    129.2384
  1870.7500      7.4628     28.2993      7.0217    129.5223
  1871.0000      7.6118     28.5264      7.1584    129.3383
  1871.2500      7.7440     28.9074      7.2918    128.1620
  1871.5000      7.7955     29.4992      7.4179    125.2257
  1871.7500      7.7691     30.2934      7.5344    123.2287
