~Version Information
VERS.                      2.0: CWLS Log ASCII Standard - VERSION 2.0
WRAP.                       NO: One line per depth step
~Well Information Block
STRT.FT               500.0000: 
STOP.FT              2732.5000: 
STEP.FT                 0.2500: 
NULL.                -999.2500: 
COMP.          Pioneer Natural Resources: COMPANY
WELL.          Dude Canyon 22-32: WELL
FLD.           Purgatoire River: FIELD
LOC.           1662' FNL & 2446' FWL----: LOCATION
PROV.                 Colorado: PROVINCE
CNTY.               Las Animas: COUNTRY
SRVC.                Patterson: SERVICE COMPANY
DATE.          Thu Mar 10 07:15:42 2005: LOG DATE
UWI.           05 071 08257 00: UNIQUE WELL ID
~Curve Information Block
DEPT.FT            0 000 00 00: Depth
DIR.Ohm-m                     : IEL Induction Resistivity
GR.GAPI                       : Gamma Ray
SN.Ohm-m                      : IEL Short Normal
SP.mV                         : IEL Spontaneous Potential
~Parameter Information Block
~A  Depth       DIR          GR          SN          SP     
# ...
  2577.0000      9.1339    103.6039     10.9463     42.9435
  2577.2500      8.7378    107.8290     10.7877     43.6325
  2577.5000      8.3944    113.5934     10.6154     43.9945
  2577.7500      8.1227    115.7754     10.4398     44.0967
  2578.0000      7.9323    115.2521     10.2638     44.0016
  2578.2500      7.8226    113.4367     10.0803     43.7571
  2578.5000      7.7850    112.4404      9.8765     43.3947
  2578.7500      7.8060    114.3341      9.6499     42.9358
  2579.0000      7.8712    119.7342      9.4264     42.3998
  2579.2500      7.9679    123.2746      9.2612     41.8088
  2579.5000      8.0863    127.2060      9.2206     41.1873
  2579.7500      8.2197    129.5029      9.3529     40.5559
  2580.0000      8.3639    133.4363      9.6688     39.9256
  2580.2500      8.5173    135.9595     10.1363     39.2952
  2580.5000      8.6810    138.0409     10.6914     38.6538
  2580.7500      8.8575    137.8230     11.2591     37.9877
  2581.0000      9.0490    135.4165     11.7747     37.2873
  2581.2500      9.2545    133.0710     12.1951     36.5514
  2581.5000      9.4692    129.9339     12.5018     35.7865
  2581.7500      9.6862    128.8599     12.7000     35.0020
  2582.0000      9.8999    129.1793     12.8139     34.2039
  2582.2500     10.1080    130.2813     12.8757     33.3897
  2582.5000     10.3102    131.7957     12.9108     32.5457
  2582.7500     10.5035    131.6501     12.9239     31.6474
  2583.0000     10.6783    128.2132     12.8967     30.6612
  2583.2500     10.8176    123.5853     12.7995     29.5465
  2583.5000     10.9022    114.5150     12.6155     28.2588
  2583.7500     10.9184    108.4697     12.3574     26.7556
  2584.0000     10.8640    101.2571     12.0667     25.0051
  2584.2500     10.7497     97.9754     11.7957     22.9971
  2584.5000     10.5953     95.3636     11.5879     20.7502
  2584.7500     10.4235     95.3377     11.4645     18.3133
  2585.0000     10.2546     97.9820     11.4197     15.7573
  2585.2500     10.1030    101.2143     11.4256     13.1626
  2585.5000      9.9762    107.7267     11.4451     10.6060
  2585.7500      9.8753    113.1953     11.4432      8.1552
  2586.0000      9.7984    122.9311     11.3933      5.8697
  2586.2500      9.7452    129.5910     11.2790      3.8090
  2586.5000      9.7209    137.1202     11.0928      2.0395
  2586.7500      9.7358    138.9473     10.8303      0.6389
  2587.0000      9.8015    135.6485     10.4908     -0.3081
  2587.2500      9.9269    129.9051     10.0921     -0.7214
  2587.5000     10.1149    118.6837      9.6970     -0.5438
  2587.7500     10.3616    111.3309      9.4275      0.2386
  2588.0000     10.6567    102.3647      9.4435      1.5807
  2588.2500     10.9816     97.9635      9.8806      3.3747
  2588.5000     11.3081     93.6542     10.7743      5.4614
  2588.7500     11.5988     92.3140     12.0202      7.6560
  2589.0000     11.8128     92.3843     13.4071      9.7790
  2589.2500     11.9148     93.5514     14.7091     11.6832
  2589.5000     11.8846     96.4430     15.7763     13.2664
  2589.7500     11.7231     98.7941     16.5609     14.4702
  2590.0000     11.4528    102.7569     17.0832     15.2665
  2590.2500     11.1140    105.8340     17.3842     15.6400
  2590.5000     10.7572    110.7602     17.5066     15.5729
  2590.7500     10.4345    113.3920     17.5032     15.0385
  2591.0000     10.1916    115.2559     17.4456     14.0050
  2591.2500     10.0642    115.5932     17.4179     12.4489
  2591.5000     10.0755    116.6944     17.5005     10.3743
  2591.7500     10.2381    118.2568     17.7619      7.8321
  2592.0000     10.5561    120.3111     18.2729      4.9295
  2592.2500     11.0307    120.0658     19.1469      1.8262
  2592.5000     11.6659    115.8608     20.6025     -1.2863
  2592.7500     12.4764    110.5024     23.0233     -4.2170
  2593.0000     13.4946     99.4681     26.9503     -6.8081
  2593.2500     14.7771     90.8230     32.9213     -8.9549
  2593.5000     16.4040     77.2464     41.1420    -10.6063
  2593.7500     18.4685     68.3996     51.1720    -11.7462
  2594.0000     21.0466     55.9022     61.9094    -12.3688
  2594.2500     24.1385     48.2345     71.9445    -12.4582
  2594.5000     27.5840     38.7089     80.0186    -11.9823
  2594.7500     30.9954     34.7605     85.2897    -10.9000
  2595.0000     33.8045     33.7639     87.3729     -9.1772
  2595.2500     35.4834     35.9515     86.3014     -6.8039
  2595.5000     35.8174     41.0200     82.4976     -3.8072
  2595.7500     34.9947     44.3231     76.7183     -0.2564
  2596.0000     33.4496     49.4212     69.9037      3.7391
  2596.2500     31.6248     54.4868     62.9343      8.0400
  2596.5000     29.8206     67.2889     56.4101     12.4907
  2596.7500     28.1666     79.4172     50.5804     16.9346
  2597.0000     26.6679    100.1170     45.4439     21.2277
  2597.2500     25.2768    112.9519     40.9150     25.2478
  2597.5000     23.9521    126.6752     36.9378     28.8990
  2597.7500     22.6886    130.8601     33.5088     32.1138
  2598.0000     21.5134    129.8804     30.6396     34.8532
  2598.2500     20.4621    125.6611     28.3161     37.1081
  2598.5000     19.5571    117.7605     26.4875     38.8982
  2598.7500     18.7994    114.2658     25.0801     40.2688
  2599.0000     18.1732    115.6334     24.0163     41.2822
  2599.2500     17.6571    121.5337     23.2260     42.0068
  2599.5000     17.2320    135.9011     22.6495     42.5054
  2599.7500     16.8854    147.1376     22.2357     42.8280
  2600.0000     16.6096    162.5484     21.9422     43.0100
  2600.2500     16.3979    170.0093     21.7390     43.0755
  2600.5000     16.2424    176.9087     21.6121     43.0424
  2600.7500     16.1338    180.7183     21.5609     42.9255
  2601.0000     16.0647    189.3559     21.5907     42.7367
  2601.2500     16.0352    197.7034     21.7055     42.4822
  2601.5000     16.0558    210.7669     21.9038     42.1602
  2601.7500     16.1458    215.8737     22.1792     41.7607
  2602.0000     16.3290    211.0794     22.5263     41.2697
  2602.2500     16.6256    197.9375     22.9471     40.6763
  2602.5000     17.0448    167.8093     23.4485     39.9799
  2602.7500     17.5793    146.3313     24.0268     39.1960
  2603.0000     18.2028    120.0331     24.6522     38.3554
  2603.2500     18.8728    107.8688     25.2613     37.4997
  2603.5000     19.5341     95.8595     25.7640     36.6717
  2603.7500     20.1223     90.8131     26.0616     35.9058
  2604.0000     20.5681     87.6622     26.0744     35.2201
  2604.2500     20.8125     88.9626     25.7762     34.6136
  2604.5000     20.8305     95.5089     25.2156     34.0687
  2604.7500     20.6478    101.7440     24.5026     33.5570
  2605.0000     20.3311    111.6038     23.7552     33.0489
  2605.2500     19.9544    117.7432     23.0419     32.5223
  2605.5000     19.5654    126.4694     22.3627     31.9695
  2605.7500     19.1724    132.4261     21.6774     31.3992
  2606.0000     18.7574    141.1832     20.9517     30.8330
  2606.2500     18.3025    145.7251     20.1875     30.2966
  2606.5000     17.8117    148.8931     19.4280     29.8100
  2606.7500     17.3145    148.8743     18.7471     29.3791
  2607.0000     16.8523    147.7718     18.2296     28.9925
  2607.2500     16.4588    147.1220     17.9437     28.6235
  2607.5000     16.1468    145.7466     17.9086     28.2370
  2607.7500     15.9060    144.0252     18.0742     27.7967
  2608.0000     15.7098    140.7598     18.3287     27.2732
  2608.2500     15.5281    139.0166     18.5411     26.6481
  2608.5000     15.3387    137.7294     18.6176     25.9161
  2608.7500     15.1347    137.4143     18.5378     25.0843
  2609.0000     14.9235    137.0863     18.3482     24.1689
  2609.2500     14.7206    136.7076     18.1258     23.1914
  2609.5000     14.5435    134.9158     17.9385     22.1741
  2609.7500     14.4061    132.3233     17.8218     21.1355
  2610.0000     14.3180    127.2555     17.7753     20.0881
  2610.2500     14.2838    124.8843     17.7752     19.0393
