~Version Information
VERS.                      2.0: CWLS Log ASCII Standard - VERSION 2.0
WRAP.                       NO: One line per depth step
~Well Information Block
STRT.FT               440.0000: 
STOP.FT              2735.2000: 
STEP.FT                 0.1000: 
NULL.                -999.2500: 
COMP.          Pioneer Natural Resources: COMPANY
WELL.              Cluck 21-25: WELL
FLD.           Purgatoire River: FIELD
LOC.           91' FNL & 1834' FWL--: LOCATION
PROV.                 Colorado: PROVINCE
CNTY.               Las Animas: COUNTRY
SRVC.                Patterson: SERVICE COMPANY
DATE.          Tue Jun 07 07:26:19 2005: LOG DATE
UWI.           05 071 08397 00: UNIQUE WELL ID
~Curve Information Block
DEPT.FT            0 000 00 00: Depth
DCAL.in                       : CDL Caliper
RHOB.g/cc                     : CDL Bulk Density
RHOC.g/cc                     : CDL Density Correction
DPOR.pu                       : CDL Density Porosity
NPOR.pu                       : Neutron Porosity
GR.GAPI                       : Gamma Ray
~Parameter Information Block
SNDERRM.mmho-m          0.0000: Medium Sonde Error Correction
~A  Depth       DCAL        RHOB        RHOC        DPOR        NPOR         GR     
   440.0000      8.1407      2.2631     -0.2211     23.4459     45.9797     86.8242
   440.1000      8.1407      2.2594     -0.2020     23.6748     45.9088     84.7828
   440.2000      8.1407      2.2593     -0.2109     23.6816     45.7542     84.7909
   440.3000      8.1392      2.2707     -0.2302     22.9902     45.8791     84.8650
   440.4000      8.1392      2.2921     -0.2006     21.6886     46.2311     82.1769
   440.5000      8.1397      2.3118     -0.1868     20.4945     46.3639     78.7893
   440.6000      8.1397      2.3185     -0.1764     20.0933     46.1880     80.2630
   440.7000      8.1397      2.3055     -0.1811     20.8766     45.8672     87.4944
   440.8000      8.1409      2.2768     -0.2466     22.6195     45.5856     93.5810
   440.9000      8.1409      2.2563     -0.2725     23.8592     45.4634     93.8570
   441.0000      8.1413      2.2623     -0.2625     23.4949     45.1761     93.6986
   441.1000      8.1413      2.2762     -0.2055     22.6524     44.5294     96.6136
   441.2000      8.1413      2.2719     -0.2516     22.9161     43.9695    100.1297
   441.3000      8.1408      2.2511     -0.2220     24.1743     43.8819    102.8009
   441.4000      8.1408      2.2291     -0.2589     25.5091     43.9558    103.1805
   441.5000      8.1403      2.2234     -0.2876     25.8559     43.7074     99.5618
   441.6000      8.1403      2.2398     -0.2254     24.8635     43.3694     95.1431
   441.7000      8.1403      2.2544     -0.1704     23.9762     43.2713     93.5982
   441.8000      8.1406      2.2454     -0.2100     24.5194     43.1267     91.4302
   441.9000      8.1406      2.2238     -0.2433     25.8313     42.7597     87.2558
   442.0000      8.1414      2.2012     -0.2134     27.2027     42.3525     85.6172
   442.1000      8.1414      2.1645     -0.2254     29.4227     41.9940     86.0261
   442.2000      8.1414      2.1048     -0.2513     33.0424     41.5521     84.0808
   442.3000      8.1403      2.0385     -0.3100     37.0599     40.7934     80.9478
   442.4000      8.1403      1.9919     -0.3562     39.8865     39.8922     78.8992
   442.5000      8.1382      1.9702     -0.3019     41.2018     39.0152     75.9932
   442.6000      8.1382      1.9578     -0.2947     41.9524     37.9149     72.7060
   442.7000      8.1382      1.9546     -0.2633     42.1447     36.2423     73.1937
   442.8000      8.1383      1.9774     -0.2502     40.7629     33.5461     78.7039
   442.9000      8.1383      2.0235     -0.1723     37.9701     29.9277     86.9618
   443.0000      8.1390      2.0609     -0.1179     35.7020     26.3251     93.2987
   443.1000      8.1390      2.0696     -0.1210     35.1754     23.1975     94.4605
   443.2000      8.1390      2.0666     -0.1034     35.3591     20.0523     93.9822
   443.3000      8.1382      2.0696      0.0200     35.1761     16.9525     95.5110
   443.4000      8.1382      2.0762      0.0780     34.7784     14.5910     99.0591
   443.5000      8.1458      2.0927      0.1414     33.7747     13.1192    101.5323
   443.6000      8.1458      2.1316      0.2134     31.4199     12.4064    100.5218
   443.7000      8.1458      2.1783      0.3191     28.5871     12.2708     98.1749
   443.8000      8.1980      2.1995      0.3057     27.3051     12.5831     97.1338
   443.9000      8.1980      2.1838      0.2275     28.2554     13.1832     97.7285
   444.0000      8.3207      2.1525      0.1654     30.1534     13.7566     97.9701
   444.1000      8.3207      2.1252      0.1813     31.8055     14.1399     97.2478
   444.2000      8.3207      2.1055      0.1578     32.9989     14.5825     97.2778
   444.3000      8.4559      2.0971      0.1433     33.5063     15.1943     97.2181
   444.4000      8.4559      2.0992      0.1639     33.3792     15.3606     94.4038
   444.5000      8.5259      2.0988      0.1609     33.4052     14.6684     89.8374
   444.6000      8.5259      2.0913      0.1459     33.8588     13.6389     86.7277
   444.7000      8.5259      2.0885      0.1325     34.0333     12.9398     86.5780
   444.8000      8.5337      2.0950      0.1711     33.6392     12.6340     88.2600
   444.9000      8.5337      2.1007      0.1572     33.2910     12.5879     89.6623
   445.0000      8.5171      2.0974      0.1672     33.4906     12.7535     89.6397
   445.1000      8.5171      2.0853      0.1346     34.2268     12.8374     88.3447
   445.2000      8.5171      2.0686      0.1485     35.2370     12.5807     86.6803
   445.3000      8.5030      2.0538      0.1021     36.1354     12.1622     85.7616
   445.4000      8.5030      2.0464      0.1469     36.5807     11.9180     85.8575
   445.5000      8.4939      2.0456      0.1227     36.6277     11.9537     84.9489
   445.6000      8.4939      2.0475      0.1515     36.5161     12.1682     82.2489
   445.7000      8.4939      2.0481      0.1450     36.4814     12.3108     81.6124
   445.8000      8.4839      2.0487      0.1457     36.4450     12.2510     86.1466
   445.9000      8.4839      2.0527      0.1578     36.2022     12.0555     91.9488
   446.0000      8.4756      2.0567      0.1524     35.9554     11.6734     94.8840
   446.1000      8.4756      2.0612      0.1527     35.6875     11.3082     96.8959
   446.2000      8.4756      2.0709      0.1658     35.0987     11.2125     99.1655
   446.3000      8.4671      2.0818      0.1882     34.4345     11.0455    100.3112
   446.4000      8.4671      2.0903      0.1551     33.9228     10.5755    101.1017
   446.5000      8.4597      2.1012      0.1864     33.2635     10.3721    104.5380
   446.6000      8.4597      2.1081      0.2144     32.8450     10.7676    108.1089
   446.7000      8.4597      2.0991      0.1992     33.3905     11.3700    104.9740
   446.8000      8.4609      2.0818      0.1526     34.4357     11.8418     96.8151
   446.9000      8.4609      2.0725      0.1503     35.0017     12.0149     91.2452
   447.0000      8.4688      2.0765      0.1329     34.7601     11.7155     89.1314
   447.1000      8.4688      2.0873      0.1710     34.1059     11.2495     87.3973
   447.2000      8.4688      2.0932      0.1647     33.7457     11.1624     85.2345
   447.3000      8.4762      2.0931      0.1452     33.7489     11.4602     83.7594
   447.4000      8.4762      2.0938      0.1600     33.7093     11.5838     86.0015
   447.5000      8.4868      2.0939      0.1662     33.7015     11.3446     92.0949
   447.6000      8.4868      2.0932      0.1428     33.7453     11.2768     97.7767
   447.7000      8.4868      2.0962      0.1467     33.5631     11.7413     99.8350
   447.8000      8.5054      2.0989      0.1607     33.3977     12.3559     97.0715
   447.9000      8.5054      2.0964      0.1463     33.5519     12.4949     91.0412
   448.0000      8.5230      2.0955      0.1257     33.6053     12.1858     88.4462
   448.1000      8.5230      2.1018      0.1414     33.2270     11.8692     91.6163
   448.2000      8.5230      2.1073      0.1697     32.8886     11.8553     93.6967
   448.3000      8.5310      2.1056      0.1345     32.9938     12.1149     91.0784
   448.4000      8.5310      2.0936      0.1529     33.7229     12.4510     88.0087
   448.5000      8.5336      2.0587      0.1572     35.8378     12.6606     88.9990
   448.6000      8.5336      1.9970      0.1103     39.5762     12.5902     93.2564
   448.7000      8.5336      1.9224      0.0865     44.0992     12.1799     96.3485
   448.8000      8.5364      1.8420      0.0723     48.9668     11.4545     96.6359
   448.9000      8.5364      1.7566      0.0079     54.1430     10.5084     95.7779
   449.0000      8.5385      1.6706      0.0067     59.3568      9.5792     93.4377
   449.1000      8.5385      1.5820     -0.0362     64.7278      8.7256     88.8485
   449.2000      8.5385      1.4788     -0.0075     70.9828      7.9344     84.9182
   449.3000      8.5290      1.3582     -0.0340     78.2939      7.5769     83.4481
   449.4000      8.5290      1.2527     -0.0490     84.6878      7.7395     82.5300
   449.5000      8.4955      1.2217     -0.0076     86.5639      8.1713     81.4671
