~Version Information
VERS.                      2.0: CWLS Log ASCII Standard - VERSION 2.0
WRAP.                       NO: One line per depth step
~Well Information Block
STRT.FT                -4.0000: 
STOP.FT              2464.0000: 
STEP.FT                 0.2500: 
NULL.                -999.2500: 
COMP.          Pioneer Natural Resources: COMPANY
WELL.            Rancher 12-35: WELL
FLD.           Purgatorie River: FIELD
LOC.           2131' FNL & 297' FWL--: LOCATION
PROV.                       CO: PROVINCE
CNTY.               Las Animas: COUNTRY
SRVC.                         : SERVICE COMPANY
DATE.          Wed Oct 20 13:17:53 2004: LOG DATE
UWI.                          : UNIQUE WELL ID
~Curve Information Block
DEPT.FT            0 000 00 00: Depth
GR.GAPI                       : Gamma Ray
CCL.                          : Casing Collar Locator
TT3.usec                      : CBL 3' Travel Time
AMP3.mV                       : CBL 3' Amplitude
~Parameter Information Block
~A  Depth        GR         CCL         TT3         AMP3    
# ...
   498.5000     98.4126      0.0000    833.2697     11.5905
   498.7500    100.8938      0.0000    837.6422     11.8757
   499.0000    106.2429      0.0000    845.6695     12.2182
   499.2500    112.6592      0.0000    851.9667     12.6192
   499.5000    118.0374      0.0000    850.5486     13.0553
   499.7500    120.7581      0.0000    840.5587     13.4874
   500.0000    120.1812      0.0000    826.4201     13.8872
   500.2500    116.8455      0.0000    812.3749     14.2522
   500.5000    112.3790      0.0000    797.5254     14.5927
   500.7500    108.6989      0.0000    776.2427     14.9095
   501.0000    106.6443      0.0000    744.3657     15.1858
   501.2500    105.3984      0.0000    707.0035     15.3992
   501.5000    103.7524      0.0000    679.5108     15.5405
   501.7500    101.9296      0.0000    676.6778     15.6150
   502.0000    101.3658      0.0000    699.4443     15.6190
   502.2500    102.4653      0.0000    734.3661     15.5188
   502.5000    103.7032      0.0000    765.7258     15.2637
   502.7500    103.4610      0.0000    785.5880     14.8247
   503.0000    101.6733      0.0000    793.8000     14.2175
   503.2500     99.1082      0.0000    793.2714     13.4906
   503.5000     96.0349      0.0000    787.3912     12.6984
   503.7500     92.2628      0.0000    780.1163     11.8824
   504.0000     87.9314      0.0000    775.7877     11.0634
   504.2500     83.8047      0.0000    777.2709     10.2475
   504.5000     80.9255      0.0000    784.0249      9.4387
   504.7500     79.8118      0.0000    792.5624      8.6513
   505.0000     79.7334      0.0000    799.1513      7.9166
   505.2500     79.0434      0.0000    802.0474      7.2759
   505.5000     76.6433      0.0000    801.7091      6.7592
   505.7500     73.1573      0.0000    799.7789      6.3665
   506.0000     70.4898      0.0000    797.7930      6.0766
   506.2500     70.4036      0.0000    796.0372      5.8707
   506.5000     73.6534      0.0000    793.4819      5.7418
   506.7500     79.8714      0.0000    789.2831      5.6869
   507.0000     87.4137      0.0000    784.2432      5.6961
   507.2500     93.5363      0.0000    780.2325      5.7496
   507.5000     95.8419      0.0000    778.3306      5.8191
   507.7500     94.1347      0.0000    778.1605      5.8792
   508.0000     90.5166      0.0000    778.9785      5.9218
   508.2500     87.3960      0.0000    780.5845      5.9609
   508.5000     85.6356      0.0000    782.8521      6.0190
   508.7500     84.6527      0.0000    784.9161      6.1086
   509.0000     83.9561      0.0000    785.2963      6.2253
   509.2500     84.1402      0.0000    782.9660      6.3501
   509.5000     86.2655      0.0000    778.3536      6.4571
   509.7500     90.5306      0.0000    773.1605      6.5245
   510.0000     95.6871      0.0000    769.0502      6.5451
   510.2500     99.5681      0.0000    766.6065      6.5272
   510.5000    100.1719      0.0000    765.4731      6.4869
   510.7500     96.8746      0.0000    765.1579      6.4387
   511.0000     91.1414      0.0000    765.5974      6.3903
   511.2500     85.7413      0.0000    767.2347      6.3471
   511.5000     82.6203      0.0000    770.7867      6.3186
   511.7500     81.5897      0.0000    776.7476      6.3138
   512.0000     81.1064      0.0000    784.7513      6.3338
   512.2500     79.8212      0.0000    793.3318      6.3703
   512.5000     77.3000      0.0000    800.6020      6.4074
   512.7500     74.0047      0.0000    805.4042      6.4235
   513.0000     71.0981      0.0000    807.8207      6.3984
   513.2500     69.9454      0.0000    808.6990      6.3281
   513.5000     71.2401      0.0000    808.8905      6.2314
   513.7500     74.3272      0.0000    808.8773      6.1350
   514.0000     77.4819      0.0000    808.8182      6.0546
   514.2500     79.0798      0.0000    808.7208      5.9899
   514.5000     78.5519      0.0000    808.5590      5.9344
   514.7500     76.3053      0.0000    808.2890      5.8866
   515.0000     73.0981      0.0000    807.7944      5.8507
   515.2500     69.6694      0.0000    806.8275      5.8286
   515.5000     66.6680      0.0000    805.1100      5.8134
   515.7500     64.6553      0.0000    802.7116      5.7930
   516.0000     64.1166      0.0000    800.3998      5.7625
   516.2500     65.3893      0.0000    799.2917      5.7313
   516.5000     68.3033      0.0000    799.8138      5.7147
   516.7500     71.8194      0.0000    801.0873      5.7148
   517.0000     74.3277      0.0000    801.6296      5.7142
   517.2500     74.6669      0.0000    800.7098      5.6883
   517.5000     72.8837      0.0000    798.9834      5.6175
   517.7500     70.0449      0.0000    797.8423      5.4828
   518.0000     67.5617      0.0000    798.3415      5.2722
   518.2500     66.6427      0.0000    801.2046      5.0159
   518.5000     67.8797      0.0000    807.7297      4.7982
   518.7500     71.0080      0.0000    819.1519      4.6906
   519.0000     75.1288      0.0000    833.8482      4.6784
   519.2500     79.0159      0.0000    846.5381      4.6930
   519.5000     81.0316      0.0000    852.6545      4.7040
   519.7500     79.4203      0.0000    853.0266      4.7381
   520.0000     73.7735      0.0000    851.9889      4.8194
   520.2500     66.2435      2.0000    851.7468      4.9334
   520.5000     60.4785      0.0000    851.6489      5.0433
   520.7500     58.8932      0.0000    851.8405      5.1235
   521.0000     60.9873      0.0000    853.1499      5.1757
   521.2500     64.2469      0.0000    853.1947      5.2178
   521.5000     66.4224      0.0000    846.8549      5.2581
   521.7500     66.9114      0.0000    831.9387      5.2979
   522.0000     66.3816      0.0000    812.0566      5.3676
   522.2500     65.6500      0.0000    793.3127      5.5228
   522.5000     65.1280      0.0000    779.7101      5.7792
   522.7500     64.9864      0.0000    771.8016      6.0805
   523.0000     65.2452      0.0000    768.1012      6.3437
   523.2500     65.4789      0.0000    766.8641      6.5151
   523.5000     64.9342      0.0000    767.0054      6.5822
   523.7500     63.3833      0.0000    768.2646      6.5628
   524.0000     61.5362      0.0000    771.0438      6.4939
   524.2500     60.2536      0.0000    775.9371      6.4196
   524.5000     59.6724      0.0000    782.9272      6.3730
   524.7500     59.3782      0.0000    790.8212      6.3653
   525.0000     59.1310      0.0000    797.6915      6.3841
   525.2500     59.1069      0.0000    801.9817      6.4031
   525.5000     59.5215      0.0000    803.2261      6.3965
   525.7500     60.4297      0.0000    802.0408      6.3524
   526.0000     62.1404      0.0000    799.7455      6.2793
   526.2500     65.2934      0.0000    797.5807      6.1999
   526.5000     69.8160      0.0000    795.6427      6.1308
   526.7500     74.1059      0.0000    792.7213      6.0692
   527.0000     76.2299      0.0000    787.7186      6.0049
   527.2500     76.1182      0.0000    781.1372      5.9410
   527.5000     76.0906      0.0000    774.7749      5.8953
   527.7500     79.2469      0.0000    770.1225      5.8818
   528.0000     87.5914      0.0000    767.4216      5.9011
   528.2500    101.0657      0.0000    766.0704      5.9471
   528.5000    117.4377      0.0000    765.4239      6.0120
   528.7500    133.1496      0.0000    765.1575      6.0811
   529.0000    145.0073      0.0000    765.2691      6.1317
   529.2500    151.4146      0.0000    766.0248      6.1442
   529.5000    152.2048      0.0000    767.7714      6.1196
   529.7500    148.0188      0.0000    770.4288      6.0872
   530.0000    140.3475      0.0000    773.0541      6.0934
   530.2500    131.6937      0.0000    774.2610      6.1746
   530.5000    124.7021      0.0000    773.4263      6.3316
   530.7500    120.4493      0.0000    771.3568      6.5269
   531.0000    117.8577      0.0000    769.5704      6.7071
   531.2500    115.4563      0.0000    769.1404      6.8297
   531.5000    113.6089      0.0000    770.2776      6.8846
   531.7500    114.3659      0.0000    772.4529      6.8980
