~Version Information
VERS.                      2.0: CWLS Log ASCII Standard - VERSION 2.0
WRAP.                       NO: One line per depth step
~Well Information Block
STRT.FT               420.0000: 
STOP.FT              1528.5000: 
STEP.FT                 0.2500: 
NULL.                -999.2500: 
COMP.          Evergreen Operating Corporation: COMPANY
WELL.              Chase 21-10: WELL
FLD.           Purgatoire River: FIELD
LOC.           1122' FNL & 1544' FWL: LOCATION
PROV.                       CO: PROVINCE
CNTY.               Las Animas: COUNTRY
SRVC.                         : SERVICE COMPANY
DATE.          Sun May 23 21:20:45 2004: LOG DATE
UWI.           05 071 08006 00: UNIQUE WELL ID
~Curve Information Block
DEPT.FT            0 000 00 00: Depth
SN.Ohm-m                      : IEL Short Normal
SP.mV                         : IEL Spontaneous Potential
DIR.Ohm-m                     : IEL Induction Resistivity
GR.GAPI                       : Gamma Ray
~Parameter Information Block
~A  Depth        SN          SP         DIR          GR     
# ...
   855.5000     33.7656    106.2715     26.1724     86.1189
   855.7500     33.8263    106.3520     26.7004     84.2569
   856.0000     33.5894    106.4164     27.3491     83.4407
   856.2500     33.1535    106.4582     28.0727     83.7623
   856.5000     32.6459    106.4726     28.7888     85.3794
   856.7500     32.1798    106.4572     29.4037     87.4482
   857.0000     31.8314    106.4125     29.8392     91.9994
   857.2500     31.6450    106.3415     30.0531     95.4191
   857.5000     31.6519    106.2499     30.0524     99.7619
   857.7500     31.8823    106.1448     29.8935    101.5236
   858.0000     32.3551    106.0347     29.6697    101.9318
   858.2500     33.0521    105.9276     29.4872    100.7670
   858.5000     33.8984    105.8308     29.4376     97.8246
   858.7500     34.7676    105.7502     29.5716     96.0278
   859.0000     35.5165    105.6891     29.8819     95.1546
   859.2500     36.0336    105.6488     30.3003     96.2220
   859.5000     36.2699    105.6286     30.7128     99.9409
   859.7500     36.2338    105.6256     30.9860    103.2963
   860.0000     35.9541    105.6357     30.9996    108.9873
   860.2500     35.4423    105.6541     30.6750    112.9823
   860.5000     34.6846    105.6758     29.9905    118.3684
   860.7500     33.6662    105.6967     28.9813    120.6199
   861.0000     32.4005    105.7138     27.7212    120.5692
   861.2500     30.9354    105.7256     26.2976    118.1272
   861.5000     29.3337    105.7328     24.7899    112.3010
   861.7500     27.6509    105.7376     23.2583    108.5275
   862.0000     25.9309    105.7439     21.7453    105.6605
   862.2500     24.2172    105.7562     20.2825    106.3787
   862.5000     22.5597    105.7791     18.8972    110.7524
   862.7500     21.0067    105.8164     17.6135    114.6910
   863.0000     19.5905    105.8705     16.4486    120.3762
   863.2500     18.3217    105.9419     15.4110    123.8209
   863.5000     17.1970    106.0293     14.5015    129.0349
   863.7500     16.2109    106.1295     13.7165    132.5542
   864.0000     15.3596    106.2380     13.0507    136.8914
   864.2500     14.6394    106.3491     12.4970    138.4887
   864.5000     14.0431    106.4567     12.0450    138.6653
   864.7500     13.5605    106.5545     11.6787    137.8017
   865.0000     13.1798    106.6367     11.3786    136.5683
   865.2500     12.8902    106.6979     11.1249    136.5562
   865.5000     12.6823    106.7340     10.9033    138.1579
   865.7500     12.5491    106.7423     10.7093    140.0732
   866.0000     12.4860    106.7222     10.5480    143.4711
   866.2500     12.4905    106.6749     10.4314    145.4985
   866.5000     12.5600    106.6040     10.3736    146.9818
   866.7500     12.6889    106.5148     10.3864    146.3953
   867.0000     12.8649    106.4140     10.4774    143.3590
   867.2500     13.0675    106.3085     10.6490    140.7795
   867.5000     13.2705    106.2053     10.8996    137.6249
   867.7500     13.4510    106.1101     11.2239    136.0273
   868.0000     13.6016    106.0273     11.6125    133.1195
   868.2500     13.7404    105.9591     12.0518    130.4106
   868.5000     13.9095    105.9061     12.5229    126.3807
   868.7500     14.1617    105.8673     13.0032    125.1220
   869.0000     14.5394    105.8404     13.4678    126.9724
   869.2500     15.0585    105.8226     13.8934    130.3902
   869.5000     15.7044    105.8110     14.2609    136.5131
   869.7500     16.4395    105.8034     14.5588    139.8241
   870.0000     17.2142    105.7984     14.7854    142.1637
   870.2500     17.9759    105.7961     14.9477    141.6463
   870.5000     18.6716    105.7978     15.0569    137.7914
   870.7500     19.2484    105.8060     15.1218    133.5327
   871.0000     19.6525    105.8242     15.1436    125.8323
   871.2500     19.8310    105.8562     15.1144    120.9011
   871.5000     19.7390    105.9054     15.0170    116.1964
   871.7500     19.3565    105.9744     14.8282    115.9681
   872.0000     18.7081    106.0638     14.5255    119.7094
   872.2500     17.8726    106.1726     14.0970    123.4846
   872.5000     16.9683    106.2976     13.5499    128.5552
   872.7500     16.1153    106.4337     12.9129    131.0508
   873.0000     15.3923    106.5746     12.2293    134.0114
   873.2500     14.8122    106.7134     11.5464    135.7027
   873.5000     14.3300    106.8430     10.9052    136.9028
   873.7500     13.8784    106.9566     10.3344    135.6101
   874.0000     13.4077    107.0487      9.8487    129.0160
   874.2500     12.9075    107.1147      9.4505    122.0579
   874.5000     12.3986    107.1516      9.1334    111.6666
   874.7500     11.9098    107.1581      8.8857    107.7631
   875.0000     11.4593    107.1343      8.6925    109.8542
   875.2500     11.0524    107.0823      8.5370    116.4899
   875.5000     10.6917    107.0054      8.4025    131.0395
   875.7500     10.3847    106.9085      8.2756    141.1862
   876.0000     10.1430    106.7976      8.1506    153.4247
   876.2500      9.9744    106.6792      8.0312    158.3898
   876.5000      9.8762    106.5601      7.9296    160.6034
   876.7500      9.8352    106.4465      7.8615    159.4708
   877.0000      9.8314    106.3438      7.8414    157.1938
   877.2500      9.8451    106.2557      7.8776    157.2078
   877.5000      9.8632    106.1845      7.9716    160.0221
   877.7500      9.8829    106.1309      8.1190    162.2417
   878.0000      9.9105    106.0941      8.3125    163.2324
   878.2500      9.9579    106.0723      8.5443    162.0937
   878.5000     10.0378    106.0630      8.8058    159.5074
   878.7500     10.1613    106.0636      9.0856    158.3237
   879.0000     10.3372    106.0717      9.3672    158.1056
   879.2500     10.5678    106.0854      9.6300    158.9064
   879.5000     10.8436    106.1038      9.8536    160.7966
   879.7500     11.1416    106.1274     10.0246    161.7800
   880.0000     11.4294    106.1576     10.1405    161.5842
   880.2500     11.6754    106.1968     10.2092    159.9805
   880.5000     11.8564    106.2482     10.2446    155.6964
   880.7500     11.9598    106.3145     10.2597    152.3038
   881.0000     11.9815    106.3979     10.2611    148.0188
   881.2500     11.9239    106.4990     10.2479    146.2699
   881.5000     11.7943    106.6169     10.2127    144.9622
   881.7500     11.6043    106.7486     10.1455    144.3515
   882.0000     11.3680    106.8894     10.0367    143.4694
   882.2500     11.1019    107.0335      9.8805    143.3698
   882.5000     10.8243    107.1744      9.6777    144.8763
   882.7500     10.5545    107.3055      9.4369    146.8385
   883.0000     10.3092    107.4204      9.1741    149.4961
   883.2500     10.0992    107.5138      8.9089    149.7305
   883.5000      9.9286    107.5817      8.6599    146.1832
   883.7500      9.7963    107.6218      8.4406    141.2218
   884.0000      9.6988    107.6335      8.2572    131.5896
   884.2500      9.6314    107.6180      8.1093    125.1987
   884.5000      9.5889    107.5785      7.9927    117.6396
   884.7500      9.5652    107.5195      7.9026    114.2900
   885.0000      9.5540    107.4462      7.8371    111.1527
   885.2500      9.5479    107.3643      7.7974    109.7323
   885.5000      9.5386    107.2793      7.7872    108.1638
   885.7500      9.5172    107.1959      7.8108    107.8092
   886.0000      9.4786    107.1180      7.8730    109.7112
   886.2500      9.4261    107.0485      7.9791    113.4438
   886.5000      9.3741    106.9891      8.1356    122.8849
   886.7500      9.3469    106.9405      8.3501    130.7488
   887.0000      9.3730    106.9020      8.6296    142.3658
   887.2500      9.4789    106.8720      8.9788    148.8766
   887.5000      9.6902    106.8474      9.3990    156.0853
   887.7500     10.0403    106.8250      9.8878    159.1391
   888.0000     10.5834    106.8012     10.4414    160.7545
   888.2500     11.4051    106.7734     11.0584    159.3512
   888.5000     12.6183    106.7404     11.7432    152.6012
   888.7500     14.3370    106.7032     12.5073    144.8293
