~Version Information
VERS.                      2.0: CWLS Log ASCII Standard - VERSION 2.0
WRAP.                       NO: One line per depth step
~Well Information Block
STRT.FT                -7.7500: 
STOP.FT              2394.2500: 
STEP.FT                 0.2500: 
NULL.                -999.2500: 
COMP.      PIONEER NATURAL RESOURCES  : COMPANY
WELL.         NOMAD 32-10  : WELL
FLD.                          : FIELD
LOC.      SWNE 10 32S 66W 6PM : LOCATION
PROV.                         : PROVINCE
CNTY.                         : COUNTRY
SRVC.                         : SERVICE COMPANY
DATE.          Thu Aug 26 13:45:47 2004: LOG DATE
UWI.      005 071 08127  : UNIQUE WELL ID
~Curve Information Block
DEPT.FT            0 000 00 00: Depth
CCL.                          : Casing Collar Locator
TT3.usec                      : CBL 3' Travel Time
AMP3.mV                       : CBL 3' Amplitude
GR.GAPI                       : Gamma Ray
~Parameter Information Block
~A  Depth       CCL         TT3         AMP3         GR     
# ...
  1432.7500      0.0000    721.1324      3.4800    122.2868
  1433.0000      0.0000    704.7968      3.4978    128.5594
  1433.2500      0.0000    682.5167      3.5417    133.9241
  1433.5000      0.0000    653.4570      3.5955    136.8147
  1433.7500      0.0000    620.4442      3.6434    136.5420
  1434.0000      0.0000    590.3234      3.6677    133.3968
  1434.2500      0.0000    570.4997      3.6545    128.9012
  1434.5000      0.0000    564.7023      3.6013    125.3941
  1434.7500      0.0000    571.6357      3.5164    124.2742
  1435.0000      0.0000    586.8385      3.4212    124.5732
  1435.2500      0.0000    604.9901      3.3543    124.0667
  1435.5000      0.0000    621.2939      3.3547    121.8404
  1435.7500      0.0000    632.8076      3.4265    118.9393
  1436.0000      0.0000    639.2229      3.5315    116.5591
  1436.2500      0.0000    641.5009      3.6284    114.6862
  1436.5000      0.0000    640.0500      3.7057    112.8615
  1436.7500      0.0000    635.6043      3.7663    111.6036
  1437.0000      0.0000    631.5863      3.8004    112.3347
  1437.2500      0.0000    633.0953      3.7978    115.6649
  1437.5000      0.0000    642.2173      3.7815    120.0812
  1437.7500      0.0000    655.8751      3.8034    122.7636
  1438.0000      0.0000    669.3788      3.9002    121.7264
  1438.2500      0.0000    680.7071      4.0561    116.9920
  1438.5000      0.0000    690.2457      4.2138    110.0811
  1438.7500      0.0000    697.9989      4.3207    102.8942
  1439.0000      0.0000    702.8080      4.3574     96.9220
  1439.2500      0.0000    703.7314      4.3251     93.0476
  1439.5000      0.0000    700.9261      4.2181     92.0533
  1439.7500      0.0000    694.9872      4.0285     95.0242
  1440.0000      0.0000    685.6882      3.7755    102.4973
  1440.2500      0.0000    671.0939      3.5222    113.0002
  1440.5000      0.0000    647.8362      3.3442    123.1384
  1440.7500      0.0000    613.4151      3.2705    129.8439
  1441.0000      0.0000    569.8916      3.2595    132.6131
  1441.2500      0.0000    525.0469      3.2449    133.1983
  1441.5000      0.0000    488.0240      3.2031    133.2069
  1441.7500      0.0000    463.2017      3.1717    132.6891
  1442.0000      0.0000    448.9105      3.2042    131.3043
  1442.2500      0.0000    441.1823      3.3117    130.1822
  1442.5000      0.0000    437.3911      3.4422    131.7854
  1442.7500      0.0000    437.0916      3.5160    137.5514
  1443.0000      0.0000    441.7225      3.4883    145.6647
  1443.2500      0.0000    453.9674      3.3862    151.4538
  1443.5000      0.0000    475.8358      3.2884    150.6371
  1443.7500      0.0000    506.0721      3.2637    142.4682
  1444.0000      0.0000    540.3210      3.3202    129.6346
  1444.2500      0.0000    574.8941      3.4086    115.7820
  1444.5000      0.0000    609.4075      3.4777    103.8406
  1444.7500      0.0000    644.5647      3.5294     95.6734
  1445.0000      0.0000    678.2339      3.6115     91.6233
  1445.2500      0.0000    705.2480      3.7498     90.3580
  1445.5000      0.0000    721.3389      3.8978     90.1729
  1445.7500      0.0000    726.7858      3.9653     90.6183
  1446.0000      0.0000    726.1963      3.8977     92.4531
  1446.2500      0.0000    725.0634      3.7229     96.1788
  1446.5000      0.0000    726.3303      3.5274    101.1504
  1446.7500      0.0000    729.6580      3.3922    106.1307
  1447.0000      0.0000    733.6413      3.3459    110.2820
  1447.2500      0.0000    738.2140      3.3651    113.5896
  1447.5000      0.0000    744.5503      3.4096    116.6407
  1447.7500      0.0000    752.8363      3.4499    119.9519
  1448.0000      0.0000    760.9410      3.4634    123.1803
  1448.2500      0.0000    765.4672      3.4327    125.2823
  1448.5000      0.0000    763.9042      3.3655    125.8644
  1448.7500      0.0000    756.1334      3.3096    125.9213
  1449.0000      0.0000    744.5932      3.3261    126.7636
  1449.2500      0.0000    733.0482      3.4437    128.7696
  1449.5000      0.0000    724.5510      3.6400    131.7605
  1449.7500      0.0000    720.0540      3.8662    136.0166
  1450.0000      0.0000    718.6248      4.0801    141.9165
  1450.2500      0.0000    718.7004      4.2609    148.5895
  1450.5000      0.0000    719.2817      4.4069    153.7392
  1450.7500      0.0000    720.5722      4.5240    155.0593
  1451.0000      0.0000    723.9759      4.6143    151.9197
  1451.2500      0.0000    731.2607      4.6712    146.1996
  1451.5000      0.0000    742.9601      4.6846    141.5393
  1451.7500      0.0000    757.0887      4.6517    141.0102
  1452.0000      0.0000    769.7405      4.5859    145.0164
  1452.2500      0.0000    777.6587      4.5117    151.4402
  1452.5000      0.0000    780.4123      4.4429    157.4617
  1452.7500      0.0000    779.7507      4.3715    161.0257
  1453.0000      0.0000    777.0121      4.2791    161.3085
  1453.2500      0.0000    772.0648      4.1531    158.6423
  1453.5000      0.0000    764.9977      3.9945    154.0886
  1453.7500      0.0000    757.5279      3.8199    148.8291
  1454.0000      0.0000    751.6461      3.6578    143.7052
  1454.2500      0.0000    747.5799      3.5282    139.0205
  1454.5000      0.0000    744.2497      3.4205    134.6834
  1454.7500      0.0000    741.2829      3.3062    130.6707
  1455.0000      0.0000    739.2715      3.1756    127.3991
  1455.2500      0.0000    738.0719      3.0523    125.6033
  1455.5000      0.0000    736.1865      2.9684    125.8702
  1455.7500      0.0000    732.3436      2.9375    128.2050
  1456.0000      0.0000    726.9207      2.9479    132.0031
  1456.2500      0.0000    721.1806      2.9720    136.6269
  1456.5000      0.0000    715.4580      2.9873    141.9916
  1456.7500      0.0000    708.2663      2.9930    147.9719
  1457.0000      0.0000    697.3359      2.9990    153.2462
  1457.2500      0.0000    682.5416      2.9987    155.8568
  1457.5000      0.0000    668.5402      2.9701    155.2729
  1457.7500      0.0000    662.9513      2.9062    152.9057
  1458.0000      0.0000    670.0124      2.8324    150.3409
  1458.2500      0.0000    686.6790      2.7828    147.8921
  1458.5000      0.0000    705.9274      2.7635    144.7621
  1458.7500      0.0000    722.1574      2.7453    139.7296
  1459.0000      0.0000    732.4741      2.7012    131.9150
  1459.2500      0.0000    735.0164      2.6467    121.8356
  1459.5000      0.0000    728.3904      2.6271    111.7890
  1459.7500      0.0000    712.4903      2.6632    104.7519
  1460.0000      0.0000    688.4608      2.7308    102.7075
  1460.2500      0.0000    657.0927      2.7974    105.7077
  1460.5000      0.0000    618.1706      2.8577    112.1156
  1460.7500      0.0000    573.1746      2.9263    119.8896
  1461.0000      0.0000    528.5662      3.0057    127.9158
  1461.2500      0.0000    494.2029      3.0756    135.8907
  1461.5000      0.0000    478.2229      3.1170    142.9920
  1461.7500      0.0000    484.4805      3.1294    147.5863
  1462.0000      0.0000    512.9830      3.1185    148.7706
  1462.2500      0.0000    559.1453      3.0849    147.4957
  1462.5000      0.0000    612.8218      3.0331    145.5869
  1462.7500      0.0000    661.7226      2.9848    144.1699
  1463.0000      0.0000    697.7197      2.9760    143.3179
  1463.2500      0.0000    719.3884      3.0246    142.3727
  1463.5000      0.0000    729.7224      3.0945    140.3059
  1463.7500      0.0000    733.5557      3.1091    136.7450
  1464.0000      2.0000    736.1656      3.0148    132.9789
  1464.2500      2.0000    741.0300      2.8309    131.0300
  1464.5000      0.0000    747.4985      2.6452    131.2316
  1464.7500      0.0000    751.5333      2.5635    131.3257
  1465.0000      0.0000    749.4985      2.6444    128.5655
  1465.2500      0.0000    741.2474      2.8637    122.3540
  1465.5000      0.0000    729.9029      3.1319    114.1745
  1465.7500      0.0000    719.2600      3.3543    105.6100
  1466.0000      0.0000    711.4171      3.4900     97.8406
