~Version Information
VERS.                      2.0: CWLS Log ASCII Standard - VERSION 2.0
WRAP.                       NO: One line per depth step
~Well Information Block
STRT.FT               780.0000: 
STOP.FT              3152.2500: 
STEP.FT                 0.2500: 
NULL.                -999.2500: 
COMP.          Pioneer Natural Resources: COMPANY
WELL.            Paradise 13-8: WELL
FLD.           Purgatoire River: FIELD
LOC.           1896' FSL & 1120' FWL: LOCATION
PROV.                 Colorado: PROVINCE
CNTY.               Las Animas: COUNTRY
SRVC.                Patterson: SERVICE COMPANY
DATE.          Sat Jan 22 20:39:47 2005: LOG DATE
UWI.           05 071 07946 00: UNIQUE WELL ID
~Curve Information Block
DEPT.FT            0 000 00 00: Depth
SN.Ohm-m                      : IEL Short Normal
SP.mV                         : IEL Spontaneous Potential
DIR.Ohm-m                     : IEL Induction Resistivity
GR.GAPI                       : Gamma Ray
~Parameter Information Block
~A  Depth        SN          SP         DIR          GR     
# ...
  1416.5000   2000.0000   2000.0000     19.3841    108.6050
  1416.7500   2000.0000   2000.0000     19.7905    105.8364
  1417.0000   2000.0000   2000.0000     20.1733    104.5119
  1417.2500   2000.0000   2000.0000     20.5139    105.7822
  1417.5000   2000.0000   2000.0000     20.8123    110.1058
  1417.7500   2000.0000   2000.0000     21.0755    113.7511
  1418.0000   2000.0000   2000.0000     21.2992    119.0231
  1418.2500   2000.0000   2000.0000     21.4641    121.8991
  1418.5000   2000.0000   2000.0000     21.5561    124.7802
  1418.7500   2000.0000   2000.0000     21.5877    125.5481
  1419.0000   2000.0000   2000.0000     21.5974    124.8476
  1419.2500   2000.0000   2000.0000     21.6285    123.4257
  1419.5000   2000.0000   2000.0000     21.7120    120.9166
  1419.7500   2000.0000   2000.0000     21.8653    119.4999
  1420.0000   2000.0000   2000.0000     22.1013    117.6034
  1420.2500   2000.0000   2000.0000     22.4335    115.8500
  1420.5000   2000.0000   2000.0000     22.8713    111.4286
  1420.7500   2000.0000   2000.0000     23.4072    107.1706
  1421.0000   2000.0000   2000.0000     24.0016     99.2275
  1421.2500   2000.0000   2000.0000     24.5703     92.9524
  1421.5000   2000.0000   2000.0000     24.9862     81.6510
  1421.7500   2000.0000   2000.0000     25.1104     72.9142
  1422.0000   2000.0000   2000.0000     24.8459     59.7074
  1422.2500   2000.0000   2000.0000     24.1815     52.5487
  1422.5000   2000.0000   2000.0000     23.1897     46.8371
  1422.7500   2000.0000   2000.0000     21.9854     46.9654
  1423.0000   2000.0000   2000.0000     20.6841     52.6837
  1423.2500   2000.0000   2000.0000     19.3811     59.6425
  1423.5000   2000.0000   2000.0000     18.1492     73.6263
  1423.7500   2000.0000   2000.0000     17.0383     84.2495
  1424.0000   2000.0000   2000.0000     16.0748     99.5831
  1424.2500   2000.0000   2000.0000     15.2625    107.9214
  1424.5000   2000.0000   2000.0000     14.5895    116.1165
  1424.7500   2000.0000   2000.0000     14.0378    118.7031
  1425.0000   2000.0000   2000.0000     13.5907    119.4325
  1425.2500   2000.0000   2000.0000     13.2344    118.8294
  1425.5000   2000.0000   2000.0000     12.9567    118.0283
  1425.7500   2000.0000   2000.0000     12.7449    118.3485
  1426.0000   2000.0000   2000.0000     12.5845    120.6652
  1426.2500   2000.0000   2000.0000     12.4594    123.2262
  1426.5000   2000.0000   2000.0000     12.3527    127.7699
  1426.7500   2000.0000   2000.0000     12.2483    130.9353
  1427.0000   2000.0000   2000.0000     12.1313    135.9129
  1427.2500   2000.0000   2000.0000     11.9884    139.5890
  1427.5000   2000.0000   2000.0000     11.8107    145.7630
  1427.7500   2000.0000   2000.0000     11.5996    149.9870
  1428.0000   2000.0000   2000.0000     11.3704    155.1788
  1428.2500   2000.0000   2000.0000     11.1485    157.0818
  1428.5000   2000.0000   2000.0000     10.9610    157.1710
  1428.7500   2000.0000   2000.0000     10.8274    155.7803
  1429.0000   2000.0000   2000.0000     10.7569    152.5744
  1429.2500   2000.0000   2000.0000     10.7489    150.1335
  1429.5000   2000.0000   2000.0000     10.7965    146.3116
  1429.7500   2000.0000   2000.0000     10.8902    143.6695
  1430.0000   2000.0000   2000.0000     11.0202    139.6127
  1430.2500   2000.0000   2000.0000     11.1786    136.9605
  1430.5000   2000.0000   2000.0000     11.3611    133.3238
  1430.7500   2000.0000   2000.0000     11.5688    131.2680
  1431.0000   2000.0000   2000.0000     11.8076    129.0517
  1431.2500   2000.0000   2000.0000     12.0859    128.3313
  1431.5000   2000.0000   2000.0000     12.4069    128.1337
  1431.7500   2000.0000   2000.0000     12.7610    127.9051
  1432.0000   2000.0000   2000.0000     13.1219    125.9396
  1432.2500   2000.0000   2000.0000     13.4514    123.2451
  1432.5000   2000.0000   2000.0000     13.7121    118.3167
  1432.7500   2000.0000   2000.0000     13.8819    115.7337
  1433.0000   2000.0000   2000.0000     13.9610    114.5856
  1433.2500   2000.0000   2000.0000     13.9694    115.7212
  1433.5000   2000.0000   2000.0000     13.9369    119.1527
  1433.7500   2000.0000   2000.0000     13.8919    121.7834
  1434.0000   2000.0000   2000.0000     13.8519    125.3345
  1434.2500   2000.0000   2000.0000     13.8212    127.1098
  1434.5000   2000.0000   2000.0000     13.7967    128.3227
  1434.7500   2000.0000   2000.0000     13.7810    127.9343
  1435.0000   2000.0000   2000.0000     13.7911    125.6237
  1435.2500   2000.0000   2000.0000     13.8535    123.1418
  1435.5000   2000.0000   2000.0000     13.9894    118.4162
  1435.7500   2000.0000   2000.0000     14.2028    114.9843
  1436.0000   2000.0000   2000.0000     14.4779    110.5652
  1436.2500   2000.0000   2000.0000     14.7847    108.8167
  1436.5000   2000.0000   2000.0000     15.0868    108.3589
  1436.7500   2000.0000   2000.0000     15.3482    108.9976
  1437.0000   2000.0000   2000.0000     15.5403    110.0958
  1437.2500   2000.0000   2000.0000     15.6461    110.6552
  1437.5000   2000.0000   2000.0000     15.6604    112.0502
  1437.7500   2000.0000   2000.0000     15.5828    114.0591
  1438.0000   2000.0000   2000.0000     15.4132    118.9269
  1438.2500   2000.0000   2000.0000     15.1543    122.7750
  1438.5000   2000.0000   2000.0000     14.8200    128.0577
  1438.7500   2000.0000   2000.0000     14.4416    130.9190
  1439.0000   2000.0000   2000.0000     14.0644    134.3668
  1439.2500   2000.0000   2000.0000     13.7371    136.0455
  1439.5000   2000.0000   2000.0000     13.5023    137.0054
  1439.7500   2000.0000   2000.0000     13.3913    136.3849
  1440.0000   2000.0000   2000.0000     13.4251    133.9586
  1440.2500   2000.0000   2000.0000     13.6153    131.6945
  1440.5000   2000.0000   2000.0000     13.9623    127.1807
  1440.7500   2000.0000   2000.0000     14.4499    122.8410
  1441.0000   2000.0000   2000.0000     15.0416    113.3338
  1441.2500   2000.0000   2000.0000     15.6825    104.9874
  1441.5000   2000.0000   2000.0000     16.3089     90.8641
  1441.7500   2000.0000   2000.0000     16.8640     81.8232
  1442.0000   2000.0000   2000.0000     17.3126     71.4412
  1442.2500   2000.0000   2000.0000     17.6492     67.7228
  1442.5000   2000.0000   2000.0000     17.8955     67.5777
  1442.7500   2000.0000   2000.0000     18.0858     70.7935
  1443.0000   2000.0000   2000.0000     18.2472     78.9840
  1443.2500   2000.0000   2000.0000     18.3880     85.0909
  1443.5000   2000.0000   2000.0000     18.5040     91.8573
  1443.7500   2000.0000   2000.0000     18.5998     93.2534
  1444.0000   2000.0000   2000.0000     18.7075     90.2451
  1444.2500   2000.0000   2000.0000     18.8902     85.8771
  1444.5000   2000.0000   2000.0000     19.2242     78.5406
  1444.7500   2000.0000   2000.0000     19.7703     74.5386
  1445.0000   2000.0000   2000.0000     20.5454     71.2259
  1445.2500   2000.0000   2000.0000     21.5078     71.0244
  1445.5000   2000.0000   2000.0000     22.5680     73.6842
  1445.7500   2000.0000   2000.0000     23.6167     77.4436
  1446.0000   2000.0000   2000.0000     24.5519     85.9829
  1446.2500   2000.0000   2000.0000     25.2820     93.1502
  1446.5000   2000.0000   2000.0000     25.7250    104.5454
  1446.7500   2000.0000   2000.0000     25.8315    111.6538
  1447.0000   2000.0000   2000.0000     25.6241    120.5873
  1447.2500   2000.0000   2000.0000     25.2054    124.8952
  1447.5000   2000.0000   2000.0000     24.7159    127.8520
  1447.7500   2000.0000   2000.0000     24.2777    127.1597
  1448.0000   2000.0000   2000.0000     23.9660    122.8263
  1448.2500   2000.0000   2000.0000     23.8190    118.6454
  1448.5000   2000.0000   2000.0000     23.8590    111.7421
  1448.7500   2000.0000   2000.0000     24.1016    107.1180
  1449.0000   2000.0000   2000.0000     24.5411    100.5240
  1449.2500   2000.0000   2000.0000     25.1277     96.5263
  1449.5000   2000.0000   2000.0000     25.7605     91.4285
  1449.7500   2000.0000   2000.0000     26.3146     88.8827
