~Version Information
 VERS.                                  2.0 : CWLS LAS VERSION
 WRAP.                                   NO : WRAPING MODE
 SWARE .                 MController 2.5.0J : SOFTWARE VERSION
~Well Information
 WELL.                         State 16-43R : WELL
 COMP.                Petrogulf Corporation : COMPANY
 FLD.                      Purgatoire River : FIELD
 LOC.                NE/SE Sec 16 T33S R67W : LOCATION
 DATE.                             08/09/05 : DATE(S) LOGGED
 SRVC.       BLANCO Geological Services LLC : SERVICE COMPANY
 STAT.                                   CO : STATE
 CNTY.                           Las Animas : COUNTY
 CTRY.                                  USA : COUNTRY
 API.                       05-071-08338-00 : API NUMBER
 STRT.FT                               0.00 : START DEPTH
 STOP.FT                            1565.00 : STOP DEPTH
 STEP.FT                               1.00 : DEPTH INCREMENT
 NULL.                                -9999 : NULL VALUE
~Curve information
 DEPTH.FT                                   :
 ROP.MIN/FT                                 :
 GAS.UNITS                                  :
~ASCII Log data
# ...
       400.0         0.30         87.8 
       401.0         0.40         87.8 
       402.0         0.47         84.5 
       403.0         0.23         82.3 
       404.0         0.27         80.5 
       405.0         0.10         75.4 
       406.0         0.33         77.5 
       407.0         0.20         85.4 
       408.0         0.17        177.8 
       409.0         0.27        266.5 
       410.0         0.22        254.5 
       411.0         0.17        186.4 
       412.0         0.23        149.2 
       413.0         0.23        117.0 
       414.0         0.23        100.5 
       415.0         0.23         90.0 
       416.0         0.80         84.4 
       417.0         0.23         79.7 
       418.0         0.23         78.7 
       419.0         0.23         78.6 
       420.0         0.30         78.6 
       421.0         0.28         78.4 
       422.0         0.23         78.1 
       423.0         0.23         77.8 
       424.0         0.20         77.8 
       425.0         0.23         77.6 
       426.0         0.27         77.6 
       427.0         0.27         76.8 
       428.0         0.23         75.8 
       429.0         0.23         75.5 
       430.0         0.23         75.9 
       431.0         0.20         76.7 
       432.0         0.23         77.3 
       433.0         0.23         78.5 
       434.0         0.17         78.3 
       435.0         0.20         77.9 
       436.0         0.18         78.3 
       437.0         0.20         78.1 
       438.0         0.17         75.4 
       439.0         0.20         73.6 
       440.0         0.20         75.7 
       441.0         0.23        108.5 
       442.0         0.17        196.2 
       443.0         0.23        216.3 
       444.0         0.20        196.4 
       445.0         0.17        153.3 
       446.0         0.83        124.9 
       447.0         0.27         80.0 
       448.0         0.35         78.1 
       449.0         0.40         76.5 
       450.0         0.27         76.1 
       451.0         0.23         76.1 
       452.0         0.37         75.9 
       453.0         0.37         76.1 
       454.0         0.30         76.0 
       455.0         0.37         76.4 
       456.0         0.33         76.5 
       457.0         0.40         76.4 
       458.0         0.35         77.0 
       459.0         0.37         77.1 
       460.0         0.37         77.3 
       461.0         0.30         77.0 
       462.0         0.37         77.0 
       463.0         0.30         77.0 
       464.0         0.33         76.9 
       465.0         0.33         76.8 
       466.0         0.33         76.6 
       467.0         0.35         76.2 
       468.0         0.33         76.1 
       469.0         0.33         76.0 
       470.0         0.37         76.1 
       471.0         0.33         78.3 
       472.0         0.33         80.8 
       473.0         0.33         89.8 
       474.0         0.33        135.3 
       475.0         0.33        357.9 
       476.0         1.68        354.3 
       477.0         0.30        160.4 
       478.0         0.27        165.5 
       479.0         0.23        171.6 
       480.0         0.20        176.9 
       481.0         0.17        183.4 
       482.0         0.37        197.7 
       483.0         0.23        207.9 
       484.0         0.13        214.0 
       485.0         0.17        221.0 
       486.0         0.15        229.6 
       487.0         0.17        239.6 
       488.0         0.27        254.6 
       489.0         0.47        273.5 
       490.0         0.53        283.0 
       491.0         0.53        283.5 
       492.0         0.53        281.2 
       493.0         0.53        281.6 
       494.0         0.58        287.6 
       495.0         0.40        294.9 
       496.0         0.27        293.8 
       497.0         0.17        273.1 
       498.0         0.17        261.8 
       499.0         0.17        251.0 
       500.0         0.20        253.5 
       501.0         0.23        273.1 
       502.0         0.23       1662.3 
       503.0         0.23       1914.3 
       504.0         0.30       1819.7 
       505.0         0.37       1310.0 
       506.0         1.22       1001.2 
       507.0         0.40        838.7 
       508.0         0.27        834.9 
       509.0         0.30        834.6 
       510.0         0.33        837.1 
       511.0         0.27        837.1 
       512.0         0.27        835.8 
       513.0         0.28        834.2 
       514.0         0.30        831.4 
       515.0         0.33        828.2 
       516.0         0.33        826.9 
       517.0         0.37        817.4 
       518.0         0.33        820.6 
       519.0         0.23        819.6 
       520.0         0.27        822.5 
       521.0         0.23        826.6 
       522.0         0.23        831.1 
       523.0         0.22        830.7 
       524.0         0.20        837.1 
       525.0         0.23        872.0 
       526.0         0.27        886.3 
       527.0         0.23        869.8 
       528.0         0.33        823.8 
       529.0         0.37        813.6 
       530.0         0.40        800.3 
       531.0         0.20        819.6 
       532.0         0.27       1121.8 
       533.0         0.23       1529.6 
       534.0         0.18       1522.0 
       535.0         0.20       1375.7 
       536.0         1.17       1201.8 
       537.0         0.23        859.6 
       538.0         0.40        853.0 
       539.0         0.40        846.6 
       540.0         0.42        837.4 
       541.0         0.37        833.9 
       542.0         0.37        836.8 
       543.0         0.33        833.6 
       544.0         0.30        832.0 
       545.0         0.27        827.9 
       546.0         0.23        832.0 
       547.0         0.27        837.4 
       548.0         0.27        839.0 
       549.0         0.23        833.9 
       550.0         0.23        830.4 
       551.0         0.23        837.4 
       552.0         0.20        841.5 
       553.0         0.25        841.2 
       554.0         0.30        842.2 
       555.0         0.27        842.5 
       556.0         0.17        843.1 
       557.0         0.20        843.4 
       558.0         0.27        842.2 
       559.0         0.27        845.3 
       560.0         0.27        848.2 
       561.0         0.27        845.7 
       562.0         0.30        833.3 
       563.0         0.30        818.0 
       564.0         0.35        850.1 
       565.0         0.43       1558.5 
       566.0         1.80       1584.5 
       567.0         0.33        844.1 
       568.0         0.27        837.4 
       569.0         0.27        833.3 
       570.0         0.25        831.1 
       571.0         0.27        829.8 
       572.0         0.23        829.5 
       573.0         0.23        832.3 
       574.0         0.27        834.9 
       575.0         0.23        835.2 
       576.0         0.30        833.9 
       577.0         0.27        829.5 
       578.0         0.27        833.3 
       579.0         0.30        876.4 
       580.0         0.30        904.1 
       581.0         0.27        874.9 
       582.0         0.25        823.4 
       583.0         0.20        821.5 
       584.0         0.23        827.9 
       585.0         0.27        833.3 
       586.0         0.17        837.7 
       587.0         0.20        837.7 
       588.0         0.30        835.5 
       589.0         0.23        826.6 
       590.0         0.27        849.2 
       591.0         0.37        848.2 
       592.0         0.37        822.8 
       593.0         0.27        849.2 
       594.0         0.28       1495.7 
       595.0         0.43       1566.1 
       596.0         1.07       1301.7 
       597.0         0.30        895.2 
       598.0         0.17        886.0 
       599.0         0.40        862.5 
