~Version Information
VERS.                      2.0: CWLS Log ASCII Standard - VERSION 2.0
WRAP.                       NO: One line per depth step
~Well Information Block
STRT.FT               510.0000: 
STOP.FT              1861.5000: 
STEP.FT                 0.1000: 
NULL.                -999.2500: 
COMP.          Pioneer Natural Resources: COMPANY
WELL.           Guajardo 24-16: WELL
FLD.           Purgatoire River: FIELD
LOC.           883' FSL & 2147' FWL: LOCATION
PROV.                 Colorado: PROVINCE
CNTY.               Las Animas: COUNTRY
SRVC.                Patterson: SERVICE COMPANY
DATE.          Mon Aug 08 09:13:01 2005: LOG DATE
UWI.           05 071 08377 00: UNIQUE WELL ID
~Curve Information Block
DEPT.FT            0 000 00 00: Depth
DCAL.in                       : CDL Caliper
RHOB.g/cc                     : CDL Bulk Density
RHOC.g/cc                     : CDL Density Correction
DPOR.pu                       : CDL Density Porosity
GR.GAPI                       : Gamma Ray
NPOR.pu                       : Neutron Porosity
~Parameter Information Block
~A  Depth       DCAL        RHOB        RHOC        DPOR         GR         NPOR    
# ...
  1402.8000      8.1428      2.5385      0.1081      6.7587    161.1415     26.0289
  1402.9000      8.1428      2.5245      0.0122      7.6046    162.0754     25.5902
  1403.0000      8.1227      2.5060      0.0484      8.7252    163.6994     25.6237
  1403.1000      8.1227      2.4972      0.0155      9.2624    168.1649     25.8395
  1403.2000      8.1227      2.4951     -0.0200      9.3883    171.3587     26.0194
  1403.3000      8.1116      2.5002     -0.0005      9.0812    167.0988     26.0959
  1403.4000      8.1116      2.5089      0.0137      8.5511    157.3535     25.8377
  1403.5000      8.1099      2.5166      0.0169      8.0870    154.3730     25.5582
  1403.6000      8.1099      2.5268      0.0221      7.4657    163.2470     25.5965
  1403.7000      8.1099      2.5370      0.0543      6.8496    170.5321     25.4831
  1403.8000      8.0934      2.5368      0.0309      6.8609    164.4588     24.7181
  1403.9000      8.0934      2.5333      0.0293      7.0707    153.7464     23.8549
  1404.0000      8.0957      2.5399      0.0476      6.6743    151.4790     23.5474
  1404.1000      8.0957      2.5463      0.0664      6.2857    156.6859     23.5862
  1404.2000      8.0957      2.5400      0.0161      6.6687    159.0888     23.3418
  1404.3000      8.0941      2.5269     -0.0283      7.4588    154.7899     23.0057
  1404.4000      8.0941      2.5171      0.0139      8.0552    149.2537     23.3083
  1404.5000      8.0783      2.5142      0.0360      8.2298    146.3103     23.8152
  1404.6000      8.0783      2.5200      0.0181      7.8811    148.1757     23.7796
  1404.7000      8.0783      2.5332      0.0391      7.0808    153.4658     23.5842
  1404.8000      8.0536      2.5476      0.0415      6.2067    155.5804     23.6941
  1404.9000      8.0536      2.5569      0.0309      5.6412    151.8354     23.7589
  1405.0000      8.0492      2.5560      0.0646      5.6970    143.5355     23.6074
  1405.1000      8.0492      2.5464      0.0244      6.2761    135.6845     23.4917
  1405.2000      8.0492      2.5335      0.0518      7.0587    135.1140     23.2069
  1405.3000      8.0410      2.5185      0.0252      7.9669    140.5033     22.5195
  1405.4000      8.0410      2.5108      0.0091      8.4334    142.7706     21.7998
  1405.5000      8.0440      2.5229      0.0229      7.7044    138.7253     21.6583
  1405.6000      8.0440      2.5467      0.0688      6.2636    137.0280     22.1458
  1405.7000      8.0440      2.5618      0.0433      5.3479    140.3093     22.3936
  1405.8000      8.0398      2.5631      0.0692      5.2678    142.8432     22.0506
  1405.9000      8.0398      2.5573      0.0577      5.6174    146.1077     21.9297
  1406.0000      8.0286      2.5418      0.0545      6.5563    149.5918     22.4507
  1406.1000      8.0286      2.5143      0.0434      8.2268    149.4308     22.8296
  1406.2000      8.0286      2.4865      0.0113      9.9072    150.9245     22.5419
  1406.3000      8.0328      2.4731     -0.0118     10.7239    154.7048     22.1956
  1406.4000      8.0328      2.4750      0.0487     10.6062    154.6101     22.1675
  1406.5000      8.0481      2.4859     -0.0326      9.9425    152.0475     22.1421
  1406.6000      8.0481      2.5019      0.0276      8.9778    148.0107     22.0075
  1406.7000      8.0481      2.5161      0.0398      8.1131    144.3646     22.1291
  1406.8000      8.0521      2.5315      0.0192      7.1847    148.1332     22.2620
  1406.9000      8.0521      2.5518      0.0509      5.9494    156.6506     21.9976
  1407.0000      8.0527      2.5594      0.0834      5.4928    159.2467     21.8466
  1407.1000      8.0527      2.5436      0.0067      6.4464    151.8670     22.0952
  1407.2000      8.0527      2.5208      0.0060      7.8293    140.9352     22.4183
  1407.3000      8.0481      2.5048     -0.0203      8.7992    135.0803     22.6587
  1407.4000      8.0481      2.5040      0.0339      8.8485    133.6434     22.7630
  1407.5000      8.0450      2.5206      0.0478      7.8426    131.8389     22.6340
  1407.6000      8.0450      2.5415      0.0707      6.5774    128.5206     22.3815
  1407.7000      8.0450      2.5512      0.1034      5.9885    123.5500     21.8217
  1407.8000      8.0540      2.5460      0.0890      6.3035    119.3122     21.0971
  1407.9000      8.0540      2.5334      0.0686      7.0683    119.4129     20.9667
  1408.0000      8.0330      2.5272      0.0201      7.4418    124.0258     21.6985
  1408.1000      8.0330      2.5316      0.0380      7.1788    127.4272     22.6018
  1408.2000      8.0330      2.5356      0.0266      6.9325    125.4850     22.6711
  1408.3000      8.0285      2.5330      0.0481      7.0893    122.1753     21.8795
  1408.4000      8.0285      2.5376      0.0639      6.8106    121.4656     20.9904
  1408.5000      8.0254      2.5635      0.0837      5.2444    123.1101     20.3426
  1408.6000      8.0254      2.5951      0.1127      3.3260    122.9824     19.9589
  1408.7000      8.0254      2.6041      0.1317      2.7840    117.9278     19.9869
  1408.8000      8.0085      2.5879      0.0968      3.7621    113.5541     20.6046
  1408.9000      8.0085      2.5747      0.0648      4.5652    117.6469     21.5791
  1409.0000      8.0147      2.5866      0.0865      3.8395    128.3242     22.0567
  1409.1000      8.0147      2.6148      0.1047      2.1305    133.2221     21.6795
  1409.2000      8.0147      2.6261      0.1327      1.4494    127.0274     21.1742
  1409.3000      8.0274      2.6070      0.0352      2.6036    121.7564     20.9578
  1409.4000      8.0274      2.5817      0.0743      4.1397    124.9147     20.8904
  1409.5000      8.0295      2.5628      0.0060      5.2877    127.6164     21.0786
  1409.6000      8.0295      2.5470      0.0221      6.2450    124.7971     21.3164
  1409.7000      8.0295      2.5425     -0.0023      6.5151    121.8092     20.9842
  1409.8000      8.0298      2.5492      0.0693      6.1085    119.1354     20.2495
  1409.9000      8.0298      2.5523      0.0582      5.9184    112.3791     19.8465
  1410.0000      8.0324      2.5536      0.0112      5.8437    105.9718     19.9494
  1410.1000      8.0324      2.5595      0.0431      5.4850    103.7870     20.1276
  1410.2000      8.0324      2.5588      0.0407      5.5297    102.2992     20.0398
  1410.3000      8.0375      2.5504     -0.0065      6.0340     99.6156     20.0052
  1410.4000      8.0375      2.5461      0.0570      6.2948     96.9125     20.4489
  1410.5000      8.0353      2.5378      0.0360      6.7974     96.4716     20.9061
  1410.6000      8.0353      2.5122      0.0497      8.3514     97.4551     20.8325
  1410.7000      8.0353      2.4753      0.0395     10.5904     96.4983     20.4999
  1410.8000      8.0310      2.4499     -0.0283     12.1267     93.9161     19.9806
  1410.9000      8.0310      2.4501     -0.0070     12.1130     93.8248     19.4329
  1411.0000      8.0326      2.4677     -0.0016     11.0491     98.0197     19.4675
  1411.1000      8.0326      2.4946      0.0312      9.4176    100.5598     20.1731
  1411.2000      8.0326      2.5240      0.0439      7.6347     97.8137     20.9019
  1411.3000      8.0331      2.5393      0.0855      6.7108     93.4693     21.2088
  1411.4000      8.0331      2.5391     -0.0018      6.7211     89.4802     21.2161
  1411.5000      8.0200      2.5357      0.0694      6.9282     85.4254     20.9217
  1411.6000      8.0200      2.5238      0.0276      7.6499     84.1395     20.4832
  1411.7000      8.0200      2.5032      0.0178      8.8989     86.2942     20.4298
  1411.8000      8.0326      2.4860      0.0352      9.9382     87.2666     20.8394
  1411.9000      8.0326      2.4694      0.0160     10.9483     84.1603     21.3978
  1412.0000      8.0284      2.4512      0.0096     12.0463     80.2107     21.7298
  1412.1000      8.0284      2.4440      0.0459     12.4876     79.0482     21.4612
  1412.2000      8.0284      2.4509      0.0185     12.0643     79.5683     20.6943
  1412.3000      8.0271      2.4638      0.0239     11.2878     77.4974     19.9293
