~Version Information
VERS.                      2.0: CWLS Log ASCII Standard - VERSION 2.0
WRAP.                       NO: One line per depth step
~Well Information Block
STRT.FT               575.0000: 
STOP.FT              2016.2000: 
STEP.FT                 0.1000: 
NULL.                -999.2500: 
COMP.          Pioneer Natural Resources: COMPANY
WELL.          Bucksnort 41-35: WELL
FLD.           Purgatoire River: FIELD
LOC.           117' FNL & 463' FEL--: LOCATION
PROV.                 Colorado: PROVINCE
CNTY.               Las Animas: COUNTRY
SRVC.                Patterson: SERVICE COMPANY
DATE.          Thu Jul 21 15:01:23 2005: LOG DATE
UWI.           05 071 08401 00: UNIQUE WELL ID
~Curve Information Block
DEPT.FT            0 000 00 00: Depth
DCAL.in                       : CDL Caliper
RHOB.g/cc                     : CDL Bulk Density
RHOC.g/cc                     : CDL Density Correction
DPOR.pu                       : CDL Density Porosity
NPOR.pu                       : Neutron Porosity
GR.GAPI                       : Gamma Ray
~Parameter Information Block
~A  Depth       DCAL        RHOB        RHOC        DPOR        NPOR         GR     
# ...
  1141.4000      7.9238      2.5348      0.0983      6.9807     17.1686     80.6579
  1141.5000      7.9238      2.5203      0.0262      7.8619     17.5189     84.1318
  1141.6000      7.9238      2.5251      0.0712      7.5709     17.8113     86.8834
  1141.7000      7.9238      2.5383      0.0816      6.7719     17.7473     84.7977
  1141.8000      7.9231      2.5451      0.0564      6.3557     17.4086     82.8308
  1141.9000      7.9231      2.5451      0.0852      6.3555     17.0358     88.6558
  1142.0000      7.9221      2.5389      0.0791      6.7338     16.7184     99.0536
  1142.1000      7.9221      2.5293      0.0611      7.3160     16.5384    104.1619
  1142.2000      7.9221      2.5216      0.0197      7.7836     16.3161    100.6822
  1142.3000      7.9200      2.5141      0.0628      8.2372     15.5769     94.3603
  1142.4000      7.9200      2.5025      0.0663      8.9372     14.8080     90.2860
  1142.5000      7.9202      2.5001      0.0077      9.0820     14.9806     87.2877
  1142.6000      7.9202      2.5169      0.0646      8.0690     15.9579     82.7816
  1142.7000      7.9202      2.5364      0.0675      6.8843     16.9114     78.5662
  1142.8000      7.9221      2.5426      0.0562      6.5109     17.5510     77.8982
  1142.9000      7.9221      2.5370      0.0540      6.8506     17.8454     80.7621
  1143.0000      7.9237      2.5317      0.0413      7.1695     17.7554     86.9352
  1143.1000      7.9237      2.5302      0.0502      7.2601     17.4177     94.4562
  1143.2000      7.9237      2.5246      0.0638      7.5986     16.9322     97.3257
  1143.3000      7.9266      2.5152      0.0479      8.1718     16.5011     92.8504
  1143.4000      7.9266      2.5093      0.0485      8.5285     16.5076     85.0569
  1143.5000      7.9286      2.5121      0.0315      8.3589     16.6156     81.2966
  1143.6000      7.9286      2.5278      0.0243      7.4085     16.3539     83.6746
  1143.7000      7.9286      2.5489      0.0738      6.1273     16.0462     87.0950
  1143.8000      7.9283      2.5573      0.0751      5.6209     15.7584     88.4246
  1143.9000      7.9283      2.5498      0.0550      6.0717     15.5256     88.2789
  1144.0000      7.9272      2.5374      0.0761      6.8250     15.8035     88.6149
  1144.1000      7.9272      2.5338      0.0349      7.0432     16.3106     90.2020
  1144.2000      7.9272      2.5482      0.0838      6.1686     16.3070     89.9046
  1144.3000      7.9255      2.5652      0.0973      5.1374     16.0134     85.8530
  1144.4000      7.9255      2.5640      0.1053      5.2136     15.9570     82.6032
  1144.5000      7.9230      2.5491      0.0652      6.1147     16.2710     80.6298
  1144.6000      7.9230      2.5370      0.0553      6.8505     16.9305     78.4745
  1144.7000      7.9230      2.5320      0.0187      7.1531     17.4701     81.2734
  1144.8000      7.9217      2.5263      0.0880      7.4990     17.5380     90.1450
  1144.9000      7.9217      2.5113      0.0410      8.4091     17.6004     95.3582
  1145.0000      7.9210      2.4944      0.0245      9.4276     17.6692     90.9378
  1145.1000      7.9210      2.4876      0.0352      9.8437     17.1549     84.6919
  1145.2000      7.9210      2.4884      0.0248      9.7948     16.2657     84.6004
  1145.3000      7.9200      2.4905      0.0149      9.6696     15.8070     88.4287
  1145.4000      7.9200      2.4933      0.0284      9.4984     15.9390     90.6487
  1145.5000      7.9189      2.5012      0.0457      9.0164     16.2540     88.9729
  1145.6000      7.9189      2.5090      0.0602      8.5455     16.4618     86.7459
  1145.7000      7.9189      2.5013      0.0757      9.0145     16.6038     88.5856
  1145.8000      7.9190      2.4809      0.0289     10.2496     17.0703     94.3812
  1145.9000      7.9190      2.4706      0.0112     10.8709     17.7697     99.5018
  1146.0000      7.9207      2.4765      0.0528     10.5170     18.1689    102.9801
  1146.1000      7.9207      2.4843      0.0499     10.0445     18.2121    105.7044
  1146.2000      7.9207      2.4892      0.0367      9.7429     18.2610    102.2339
  1146.3000      7.9226      2.4947      0.0243      9.4130     18.4761     91.4660
  1146.4000      7.9226      2.4980      0.0378      9.2140     18.7008     82.8924
  1146.5000      7.9239      2.4953      0.0459      9.3742     18.7670     81.3062
  1146.6000      7.9239      2.4929      0.0312      9.5198     18.3081     82.5490
  1146.7000      7.9239      2.5000      0.0338      9.0921     17.1626     83.3876
  1146.8000      7.9240      2.5115      0.0624      8.3919     15.8111     83.7692
  1146.9000      7.9240      2.5179      0.0324      8.0065     15.0630     84.6456
  1147.0000      7.9248      2.5177      0.0443      8.0209     15.1858     86.2174
  1147.1000      7.9248      2.5107      0.0339      8.4402     15.6516     84.5832
  1147.2000      7.9248      2.5050      0.0240      8.7894     16.2438     77.2582
  1147.3000      7.9258      2.5104      0.0479      8.4634     17.1202     70.2665
  1147.4000      7.9258      2.5172      0.0974      8.0497     17.7531     69.9439
  1147.5000      7.9247      2.5151      0.0538      8.1753     17.7780     75.2836
  1147.6000      7.9247      2.5141      0.0252      8.2350     17.7621     80.1671
  1147.7000      7.9247      2.5216      0.0565      7.7841     17.8597     80.1296
  1147.8000      7.9238      2.5344      0.0263      7.0040     17.5430     77.0239
  1147.9000      7.9238      2.5489      0.0600      6.1272     16.8590     74.7217
  1148.0000      7.9242      2.5576      0.0720      5.6000     16.4221     73.2047
  1148.1000      7.9242      2.5644      0.0417      5.1899     16.5781     70.2777
  1148.2000      7.9242      2.5778      0.0633      4.3773     17.2057     68.7581
  1148.3000      7.9233      2.5830      0.1122      4.0608     17.8191     71.6785
  1148.4000      7.9233      2.5637      0.0646      5.2300     17.8848     78.3929
  1148.5000      7.9233      2.5353      0.0313      6.9536     17.5361     85.9819
  1148.6000      7.9233      2.5208      0.0176      7.8318     17.2478     90.3105
  1148.7000      7.9233      2.5170      0.0349      8.0631     16.9304     89.1045
  1148.8000      7.9245      2.5054      0.0503      8.7624     16.4592     83.9774
  1148.9000      7.9245      2.4883     -0.0056      9.8003     16.3741     79.8766
  1149.0000      7.9256      2.4843      0.0251     10.0437     16.9878     77.9795
  1149.1000      7.9256      2.4955      0.0242      9.3608     17.4990     74.8180
  1149.2000      7.9256      2.5097      0.0489      8.5031     17.0799     72.1209
  1149.3000      7.9252      2.5143      0.0868      8.2237     16.2517     75.1587
  1149.4000      7.9252      2.5055      0.0517      8.7593     16.1432     81.8694
  1149.5000      7.9223      2.4915      0.0382      9.6043     17.0487     86.3531
  1149.6000      7.9223      2.4849      0.0447     10.0090     17.9086     85.9558
  1149.7000      7.9223      2.4906      0.0338      9.6625     17.9217     83.0478
  1149.8000      7.9183      2.5002      0.0753      9.0762     17.6282     81.9313
  1149.9000      7.9183      2.5014      0.0530      9.0035     17.4119     82.9788
  1150.0000      7.9148      2.4968      0.0418      9.2849     16.9628     82.4148
  1150.1000      7.9148      2.4950      0.0641      9.3929     16.3339     77.2074
  1150.2000      7.9148      2.4954      0.0659      9.3668     16.1180     71.0194
  1150.3000      7.9115      2.4936      0.0425      9.4804     16.3861     69.4802
  1150.4000      7.9115      2.4886      0.0442      9.7809     16.5966     74.1696
  1150.5000      7.9082      2.4831      0.0364     10.1125     16.5962     81.9128
  1150.6000      7.9082      2.4803      0.0539     10.2833     16.5128     88.1808
  1150.7000      7.9082      2.4817      0.0159     10.1972     16.3434     90.0611
  1150.8000      7.9060      2.4865      0.0341      9.9076     16.2963     85.7534
  1150.9000      7.9060      2.4903      0.0552      9.6781     16.4143     79.5954
