~Version Information
VERS.                      2.0: CWLS Log ASCII Standard - VERSION 2.0
WRAP.                       NO: One line per depth step
~Well Information Block
STRT.FT                -6.0000: 
STOP.FT              2490.5000: 
STEP.FT                 0.2500: 
NULL.                -999.2500: 
COMP.          Pioneer Natural Resources: COMPANY
WELL.          Aztec Federal 41-15: WELL
FLD.           Purgatorie River: FIELD
LOC.           706' FNL & 1253' FEL--: LOCATION
CNTY.               Las Animas: COUNTY
SRVC.          Superior Well Services: SERVICE COMPANY
DATE.          Wed May 28 14-18-16 2008: LOG DATE
UWI.           05 071 08342 00: UNIQUE WELL ID
STAT.                       CO: STATE
~Curve Information Block
DEPT.FT            0 000 00 00: Depth
GR.GAPI                       : Gamma Ray
CCL.                          : Casing Collar Locator
AMP3FT.mV                     : AMP3FT Amplitude
TT3FT.usec                    : 3FT Travel Time
AMP5FT.mV                     : AMP5FT Amplitude
~Parameter Information Block
~A  Depth        GR         CCL        AMP3FT      TT3FT       AMP5FT   
# ...
  1310.0000    123.9469      0.0000      8.3604    615.5478      3.2131
  1310.2500    125.1710      0.0000      7.2122    629.9948      3.1433
  1310.5000    128.2370      0.0000      6.3269    637.5011      3.0150
  1310.7500    130.7410      0.0000      5.6750    640.6321      2.8508
  1311.0000    131.6235      0.0000      5.1924    641.6697      2.6796
  1311.2500    131.4316      0.0000      4.8382    641.9265      2.5208
  1311.5000    131.5482      0.0000      4.5971    641.9001      2.3813
  1311.7500    133.1541      0.0000      4.4488    641.5141      2.2651
  1312.0000    136.3485      0.0000      4.3508    639.9523      2.1783
  1312.2500    139.6046      0.0000      4.2580    635.1633      2.1259
  1312.5000    140.2464      0.0000      4.1536    623.7629      2.1053
  1312.7500    136.6396      0.0000      4.0526    602.7130      2.1034
  1313.0000    130.3878      0.0000      3.9760    572.5750      2.1011
  1313.2500    125.4746      0.0000      3.9241    539.0164      2.0823
  1313.5000    124.6921      0.0000      3.8746    509.5967      2.0434
  1313.7500    127.3718      0.0000      3.7988    488.5977      1.9954
  1314.0000    130.5929      0.0000      3.6785    475.5822      1.9565
  1314.2500    131.9434      0.0000      3.5172    468.1506      1.9399
  1314.5000    131.1664      0.0000      3.3401    464.4715      1.9449
  1314.7500    129.8391      0.0000      3.1819    463.6030      1.9600
  1315.0000    129.7929      0.0000      3.0685    465.2268      1.9745
  1315.2500    131.6720      0.0000      3.0060    470.0044      1.9861
  1315.5000    134.7662      0.0000      2.9813    479.6400      1.9956
  1315.7500    137.8463      0.0000      2.9727    495.6741      2.0036
  1316.0000    139.9173      0.0000      2.9634    517.8162      2.0138
  1316.2500    140.5811      0.0000      2.9474    543.7333      2.0343
  1316.5000    140.2762      0.0000      2.9251    570.4374      2.0708
  1316.7500    140.0011      0.0000      2.8969    595.1859      2.1182
  1317.0000    140.2801      0.0000      2.8623    615.4093      2.1598
  1317.2500    140.3299      0.0000      2.8252    629.3289      2.1761
  1317.5000    138.5869      0.0000      2.7977    637.0714      2.1583
  1317.7500    134.1724      0.0000      2.7925    640.4647      2.1170
  1318.0000    127.7649      0.0000      2.8082    641.6221      2.0741
  1318.2500    121.2612      0.0000      2.8293    641.9278      2.0446
  1318.5000    116.8387      0.0000      2.8423    641.9890      2.0316
  1318.7500    115.8994      0.0000      2.8464    642.0000      2.0385
  1319.0000    118.1902      0.0000      2.8467    642.0000      2.0798
  1319.2500    121.9100      0.0000      2.8458    642.0000      2.1720
  1319.5000    125.3398      0.0000      2.8426    641.9911      2.3042
  1319.7500    128.6289      0.0000      2.8338    641.9297      2.4177
  1320.0000    133.3623      0.0000      2.8142    641.6255      2.4349
  1320.2500    139.9162      0.0000      2.7822    640.4173      2.3285
  1320.5000    145.8173      0.0000      2.7467    636.7290      2.1522
  1320.7500    147.4246      0.0000      2.7266    628.0538      1.9900
  1321.0000    143.0806      0.0000      2.7357    612.4878      1.8873
  1321.2500    134.3417      0.0000      2.7680    591.5554      1.8375
  1321.5000    124.6176      0.0000      2.8024    571.2582      1.8142
  1321.7500    116.9475      0.0000      2.8217    558.5530      1.8000
  1322.0000    112.5412      0.0000      2.8239    555.6710      1.7925
  1322.2500    110.6920      0.0000      2.8155    557.8767      1.7978
  1322.5000    110.0029      0.0000      2.8001    556.7993      1.8186
  1322.7500    109.9332      0.0000      2.7753    546.8079      1.8474
  1323.0000    111.2503      0.0000      2.7418    529.5761      1.8712
  1323.2500    114.9898      0.0000      2.7092    512.7812      1.8830
  1323.5000    121.0527      0.0000      2.6892    504.2083      1.8870
  1323.7500    127.8279      0.0000      2.6833    507.1841      1.8892
  1324.0000    133.2058      0.0000      2.6807    520.2776      1.8879
  1324.2500    135.9574      0.0000      2.6704    539.3284      1.8794
  1324.5000    136.1450      0.0000      2.6539    559.6506      1.8690
  1324.7500    134.4685      0.0000      2.6441    577.7026      1.8691
  1325.0000    131.6942      0.0000      2.6502    592.2205      1.8892
  1325.2500    128.8641      0.0000      2.6653    604.2656      1.9268
  1325.5000    127.4699      0.0000      2.6721    615.4431      1.9693
  1325.7500    128.6306      0.0000      2.6596    625.7536      1.9999
  1326.0000    132.0147      0.0000      2.6320    633.7861      2.0040
  1326.2500    136.0111      0.0000      2.6022    638.6688      1.9789
  1326.5000    139.1586      0.0000      2.5814    640.9319      1.9403
  1326.7500    141.2267      0.0000      2.5765    641.7330      1.9125
  1327.0000    142.9844      0.0000      2.5920    641.9474      1.9084
  1327.2500    145.3294      0.0000      2.6273    641.9919      1.9178
  1327.5000    148.6760      0.0000      2.6705    642.0000      1.9202
  1327.7500    152.4946      0.0000      2.7016    642.0000      1.9057
  1328.0000    155.0842      0.0000      2.7095    642.0000      1.8823
  1328.2500    154.3165      0.0000      2.7009    642.0000      1.8651
  1328.5000    149.2343      0.0000      2.6865    642.0000      1.8640
  1328.7500    141.0322      0.0000      2.6658    642.0000      1.8796
  1329.0000    132.4702     -2.4976      2.6346    642.0000      1.9053
  1329.2500    126.3332     -1.5747      2.5977    642.0000      1.9311
  1329.5000    124.0275      0.0000      2.5677    642.0000      1.9482
  1329.7500    124.9606      0.0000      2.5536    642.0000      1.9532
  1330.0000    126.9492      0.0000      2.5533    642.0000      1.9476
  1330.2500    127.5604      0.0000      2.5526    642.0000      1.9333
  1330.5000    125.6341      0.0000      2.5316    642.0000      1.9108
  1330.7500    121.6408      0.0000      2.4812    642.0000      1.8814
  1331.0000    116.4838      0.0000      2.4134    642.0000      1.8513
  1331.2500    110.4888      0.0000      2.3509    642.0000      1.8318
  1331.5000    104.0137      0.0000      2.3065    642.0000      1.8304
  1331.7500     98.2494      0.0000      2.2758    642.0000      1.8449
  1332.0000     94.4924      0.0000      2.2506    642.0000      1.8646
  1332.2500     92.8982      0.0000      2.2326    642.0000      1.8792
  1332.5000     92.5413      0.0000      2.2303    642.0000      1.8859
  1332.7500     92.3933      0.0000      2.2426    642.0000      1.8905
  1333.0000     91.8062      0.0000      2.2552    642.0000      1.8985
  1333.2500     90.4347      0.0000      2.2558    642.0000      1.9083
  1333.5000     88.2985      0.0000      2.2463    642.0000      1.9125
  1333.7500     86.0184      0.0000      2.2366    642.0000      1.9088
  1334.0000     84.6825      0.0000      2.2308    642.0000      1.9029
  1334.2500     85.0639      0.0000      2.2243    642.0000      1.9026
  1334.5000     86.7830      0.0000      2.2130    642.0000      1.9102
  1334.7500     88.4476      0.0000      2.1976    642.0000      1.9208
  1335.0000     88.8846      0.0000      2.1811    642.0000      1.9267
  1335.2500     88.0544      0.0000      2.1642    642.0000      1.9239
  1335.5000     86.5902      0.0000      2.1506    642.0000      1.9160
  1335.7500     85.0075      0.0000      2.1538    642.0000      1.9108
  1336.0000     83.8622      0.0000      2.1919    642.0000      1.9091
  1336.2500     84.0506      0.0000      2.2723    642.0000      1.9027
  1336.5000     86.0860      0.0000      2.3793    642.0000      1.8836
  1336.7500     89.1572      0.0000      2.4809    642.0000      1.8550
  1337.0000     91.5189      0.0000      2.5513    642.0000      1.8296
  1337.2500     92.0521      0.0000      2.5889    642.0000      1.8213
  1337.5000     91.2804      0.0000      2.6113    642.0000      1.8373
  1337.7500     90.7962      0.0000      2.6365    642.0000      1.8748
