~Version Information
VERS.                      2.0: CWLS Log ASCII Standard - VERSION 2.0
WRAP.                       NO: One line per depth step
~Well Information Block
STRT.FT               840.0000: 
STOP.FT              2019.0000: 
STEP.FT                 0.2500: 
NULL.                -999.2500: 
COMP.          Petrogulf Corporation: COMPANY
WELL.           Lavedure 7-44R: WELL
FLD.           Purgatorie River: FIELD
LOC.           946' FSL & 521' FEL: LOCATION
PROV.                 Colorado: PROVINCE
CNTY.               Las Animas: COUNTRY
SRVC.                Patterson: SERVICE COMPANY
DATE.          Mon Sep 26 08:35:42 2005: LOG DATE
UWI.                          : UNIQUE WELL ID
~Curve Information Block
DEPT.FT            0 000 00 00: Depth
SP.mV                         : DIL Spontaneous Potential
RILD.Ohm-m                    : DIL Deep Resistivity
RILM.Ohm-m                    : DIL Medium Resistivity
RLL3.Ohm-m                    : DIL Shallow Resistivity
GR.GAPI                       : Gamma Ray
~Parameter Information Block
~A  Depth        SP         RILD        RILM        RLL3         GR     
# ...
   980.0000    120.4701     39.2071     43.7253     55.5205     89.3457
   980.2500    120.6757     38.8573     42.7905     56.5702     99.9338
   980.5000    121.0937     39.7453     42.8283     57.2485     82.1384
   980.7500    121.5900     39.3343     44.2236     57.5115     86.4989
   981.0000    122.1547     39.9536     44.1807     57.7542     84.9564
   981.2500    122.7612     40.0820     43.0158     57.3147     83.2702
   981.5000    123.3729     40.8665     44.0177     56.1828     60.7501
   981.7500    124.0926     40.1860     42.6652     55.0165     59.4042
   982.0000    124.8149     41.4216     43.8135     53.9944     61.2066
   982.2500    125.3302     39.9477     43.7574     53.4382     61.5153
   982.5000    125.7062     40.7396     44.2589     52.8699     60.7941
   982.7500    126.0325     40.5490     43.4300     52.0955     68.1354
   983.0000    126.3455     41.2939     44.0431     51.8982     80.8572
   983.2500    126.5374     40.9277     44.4996     52.5559     92.0407
   983.5000    126.6721     41.4083     44.7927     52.8229     76.4246
   983.7500    126.8549     41.1909     46.5938     52.5488     80.8564
   984.0000    126.9677     41.5204     48.4902     53.3013     67.0076
   984.2500    127.0115     42.2563     46.3557     54.9382     65.4407
   984.5000    126.9827     41.9768     49.1295     53.8119     73.3182
   984.7500    126.9380     42.8590     48.1302     50.7905     69.0904
   985.0000    126.8991     42.6422     47.2111     50.9619     85.5748
   985.2500    126.9242     43.0691     50.4040     53.9344     84.7116
   985.5000    127.0531     42.1603     50.2115     55.7575     79.0796
   985.7500    127.1806     40.5813     51.8925     56.9378     74.2233
   986.0000    127.4108     40.4890     51.4181     59.0085     75.0780
   986.2500    127.6939     37.6035     52.7522     61.6486     70.6302
   986.5000    127.9493     36.1573     49.7330     65.2268     69.5639
   986.7500    128.1530     34.4087     49.2914     70.1239     68.9506
   987.0000    128.2723     31.4909     45.9367     74.7660     79.4340
   987.2500    128.4264     29.6500     41.2843     73.6979     74.1560
   987.5000    128.5565     27.1475     35.4800     63.9117     78.1222
   987.7500    128.6634     25.8146     29.8339     46.5651     69.0343
   988.0000    128.7304     24.1683     25.3496     27.4176     76.1184
   988.2500    128.7772     22.3037     22.3890     17.4278     85.1315
   988.5000    128.8109     20.6794     20.2815     15.0682    102.4318
   988.7500    128.8148     19.4017     18.8420     15.4835    120.2842
   989.0000    128.8138     18.3514     17.7936     17.0925    129.3562
   989.2500    128.8135     17.8053     16.8267     18.8828    140.0378
   989.5000    128.8746     17.0978     15.9873     19.2957    147.4814
   989.7500    128.9796     16.3972     14.8206     16.6920    158.0690
   990.0000    129.1002     15.6635     14.1165     14.4921    131.4993
   990.2500    129.3020     15.1219     13.7922     12.5577    116.6312
   990.5000    129.5309     14.8728     13.7501     13.6619    129.2087
   990.7500    129.7839     14.3934     14.0037     14.9911    131.5389
   991.0000    130.0936     14.1094     14.3947     16.8433    121.3492
   991.2500    130.3806     14.0112     14.6607     18.8804    127.7343
   991.5000    130.5824     13.4517     14.8227     20.7191    131.8777
   991.7500    130.6350     13.0084     14.6252     22.9814    118.5797
   992.0000    130.5938     12.6430     14.1397     23.6470    144.2503
   992.2500    130.5605     12.6576     13.4989     21.6077    125.6185
   992.5000    130.4968     12.5849     12.7665     17.3447    111.2227
   992.7500    130.3476     12.5888     12.1175     14.6256    120.5879
   993.0000    130.2106     12.8082     11.7148     13.3084    131.7243
   993.2500    130.0347     12.7391     11.4566     12.7790    128.4725
   993.5000    129.8026     12.6624     11.3677     11.8314    149.7631
   993.7500    129.5583     12.7202     11.3610     11.9861    156.3975
   994.0000    129.3392     12.8972     11.4281     13.4887    140.8652
   994.2500    129.2104     12.9311     11.4823     13.6117    136.5024
   994.5000    129.1058     13.0347     11.7125     13.3989    160.2782
   994.7500    128.9858     13.2116     12.0182     14.2595    153.0861
   995.0000    128.8452     13.4218     12.3249     16.0004    135.5069
   995.2500    128.7340     13.5887     12.8526     19.1399    142.0465
   995.5000    128.7000     14.1143     13.4530     20.9235    148.5315
   995.7500    128.6291     14.5294     14.2795     20.2199    129.2739
   996.0000    128.4590     15.2500     15.1133     18.4175    128.5519
   996.2500    128.1912     15.9529     16.3427     19.8346    126.4102
   996.5000    127.6922     16.7753     17.7506     23.7127    143.3414
   996.7500    127.0570     17.5570     19.5247     27.8083    123.6053
   997.0000    126.4157     17.8835     21.0161     31.6943    105.0967
   997.2500    125.8306     18.5744     22.4311     39.1625    105.0586
   997.5000    125.2040     18.5510     23.8017     45.5221    120.2280
   997.7500    124.6747     18.7538     24.3175     45.6912    132.0432
   998.0000    124.1574     18.2867     23.8903     40.6194    102.5820
   998.2500    123.7333     18.1778     22.7390     35.5508     85.5853
   998.5000    123.3858     17.8164     21.1752     31.2720     88.9346
   998.7500    123.0587     17.4972     19.6131     25.4312     89.2105
   999.0000    122.8152     17.3164     18.6788     18.2291    113.7283
   999.2500    122.5794     16.9954     17.8348     15.0305    116.0498
   999.5000    122.4761     16.4406     17.1009     15.0410     96.6678
   999.7500    122.4483     15.7833     16.3310     16.0160    103.2587
  1000.0000    122.5470     15.0905     15.8987     17.3165    147.1509
  1000.2500    122.7570     14.4704     15.2848     16.6139    133.8705
  1000.5000    123.0090     13.8443     14.4963     15.8481    110.8771
  1000.7500    123.3099     13.2883     13.8240     14.9694    130.8333
  1001.0000    123.5214     12.7654     13.1110     15.3059    107.9712
  1001.2500    123.6303     12.1907     12.4337     14.3859    136.4641
  1001.5000    123.6410     11.7757     12.0366     13.4269    122.5345
  1001.7500    123.6192     11.4354     11.7792     13.3925    137.0448
  1002.0000    123.5005     11.1510     11.5641     13.8138    140.3988
  1002.2500    123.4109     10.9311     11.1838     14.6617    138.7022
  1002.5000    123.3756     10.7123     10.7073     14.6562    134.9384
  1002.7500    123.3370     10.6351     10.1730     13.6447    133.5813
  1003.0000    123.2788     10.5325      9.6759     12.1089    138.0891
  1003.2500    123.2461     10.5861      9.4665     10.4953    130.7449
  1003.5000    123.2638     10.5893      9.3333     10.1210    134.3914
  1003.7500    123.2686     10.7653      9.3573     10.1927    144.4042
  1004.0000    123.2880     10.9863      9.4957     10.5909    141.2085
  1004.2500    123.3416     11.1120      9.8380     12.4593    157.1642
  1004.5000    123.4851     11.0716     10.2022     13.4626    152.0233
  1004.7500    123.7058     11.1011     10.6453     12.8946    168.4717
  1005.0000    123.9883     11.0718     11.0993     14.2867    158.6891
  1005.2500    124.1966     11.1262     11.5884     17.2513    150.8357
  1005.5000    124.3535     10.9969     11.9649     18.9927    162.1670
  1005.7500    124.4144     11.1243     12.3752     18.9973    159.2332
  1006.0000    124.4261     11.1420     12.5679     21.8177    144.2944
  1006.2500    124.4821     11.2860     12.4151     24.4763    125.6067
  1006.5000    124.5982     11.4474     12.2486     21.6655    131.2695
  1006.7500    124.7557     11.6669     12.0077     16.0409    153.9227
  1007.0000    124.9624     11.9146     11.7329     15.1075    138.6261
  1007.2500    125.1962     11.9086     11.6262     14.9746    117.9885
  1007.5000    125.4862     12.1748     11.6519     13.6740     98.1673
  1007.7500    125.8226     12.2641     11.6100     13.5104    114.0831
