~Version Information
VERS.                      2.0: CWLS Log ASCII Standard - VERSION 2.0
WRAP.                       NO: One line per depth step
~Well Information Block
STRT.FT               375.0000: 
STOP.FT              2795.7000: 
STEP.FT                 0.1000: 
NULL.                -999.2500: 
COMP.          Pioneer Natural Resources: COMPANY
WELL.              Getem 21-23: WELL
FLD.           Purgatoire River: FIELD
LOC.           2623' FWL & 790' FNL--: LOCATION
PROV.                 Colorado: PROVINCE
CNTY.               Las Animas: COUNTRY
SRVC.                Patterson: SERVICE COMPANY
DATE.          Mon Jun 20 07:26:21 2005: LOG DATE
UWI.           05 071 08411 00: UNIQUE WELL ID
~Curve Information Block
DEPT.FT            0 000 00 00: Depth
DCAL.in                       : CDL Caliper
RHOB.g/cc                     : CDL Bulk Density
RHOC.g/cc                     : CDL Density Correction
DPOR.pu                       : CDL Density Porosity
NPOR.pu                       : Neutron Porosity
GR.GAPI                       : Gamma Ray
~Parameter Information Block
~A  Depth       DCAL        RHOB        RHOC        DPOR        NPOR         GR     
# ...
   691.8000      8.0529      2.5491      0.0565      6.1163     27.8763    147.5017
   691.9000      8.0529      2.5609      0.0736      5.4013     27.7887    141.9066
   692.0000      8.0544      2.5660      0.0705      5.0918     27.3905    137.3354
   692.1000      8.0544      2.5565      0.0915      5.6647     26.7864    140.7719
   692.2000      8.0544      2.5374      0.0579      6.8267     26.3770    147.2639
   692.3000      8.0531      2.5208      0.0455      7.8291     26.4210    146.9904
   692.4000      8.0531      2.5173      0.0233      8.0449     26.7611    139.0422
   692.5000      8.0524      2.5235      0.0710      7.6688     26.9367    131.9131
   692.6000      8.0524      2.5336      0.0235      7.0569     26.9151    130.1074
   692.7000      8.0524      2.5462      0.0986      6.2884     26.9317    131.5087
   692.8000      8.0543      2.5546      0.0802      5.7820     27.0832    134.0759
   692.9000      8.0543      2.5562      0.0654      5.6856     27.2753    133.6900
   693.0000      8.0546      2.5558      0.1009      5.7104     27.1499    129.2810
   693.1000      8.0546      2.5569      0.0567      5.6395     26.9564    126.9701
   693.2000      8.0546      2.5590      0.0893      5.5133     27.3509    128.8660
   693.3000      8.0524      2.5592      0.0972      5.5049     28.0696    130.8719
   693.4000      8.0524      2.5565      0.0793      5.6675     28.4575    130.5667
   693.5000      8.0494      2.5523      0.0924      5.9231     28.4119    129.2489
   693.6000      8.0494      2.5457      0.0703      6.3216     28.0856    128.6310
   693.7000      8.0494      2.5333      0.1113      7.0703     27.7363    129.1060
   693.8000      8.0449      2.5185      0.0791      7.9683     27.6378    130.0222
   693.9000      8.0449      2.5094      0.0752      8.5225     27.7796    130.3700
   694.0000      8.0439      2.5013      0.0900      9.0106     28.0148    130.9653
   694.1000      8.0439      2.4915      0.0819      9.6058     28.3317    133.2521
   694.2000      8.0439      2.4979      0.0739      9.2162     28.6261    136.4724
   694.3000      8.0485      2.5269      0.1174      7.4618     28.7915    139.5439
   694.4000      8.0485      2.5569      0.1246      5.6441     28.9189    141.7618
   694.5000      8.0516      2.5733      0.0931      4.6494     29.0036    143.0664
   694.6000      8.0516      2.5786      0.1109      4.3271     28.8675    143.9401
   694.7000      8.0516      2.5727      0.1440      4.6838     28.5293    142.9528
   694.8000      8.0504      2.5523      0.0927      5.9228     28.0438    138.5402
   694.9000      8.0504      2.5261      0.0878      7.5104     27.5878    135.0375
   695.0000      8.0506      2.5170      0.0583      8.0612     27.3980    136.4659
   695.1000      8.0506      2.5362      0.1015      6.8992     27.4258    140.1885
   695.2000      8.0506      2.5518      0.2111      5.9524     27.4805    141.8161
   695.3000      8.0532      2.5266      0.1122      7.4785     27.4846    140.1642
   695.4000      8.0532      2.4787      0.0400     10.3838     27.5463    137.5975
   695.5000      8.0531      2.4505      0.0219     12.0909     27.5415    138.3593
   695.6000      8.0531      2.4554     -0.0063     11.7919     27.3545    142.5894
   695.7000      8.0531      2.4813      0.0484     10.2248     27.2175    141.4802
   695.8000      8.0519      2.5081      0.0846      8.6007     27.3012    132.5414
   695.9000      8.0519      2.5182      0.1230      7.9874     27.6091    126.6373
   696.0000      8.0527      2.5098      0.0954      8.4969     27.9203    129.6110
   696.1000      8.0527      2.5022      0.0765      8.9594     27.8381    137.0364
   696.2000      8.0527      2.5138      0.0857      8.2567     27.6115    143.2607
   696.3000      8.0517      2.5406      0.0982      6.6275     27.8291    145.9158
   696.4000      8.0517      2.5593      0.1062      5.4997     28.0875    141.9816
   696.5000      8.0469      2.5454      0.1163      6.3371     27.8987    135.0280
   696.6000      8.0469      2.5062      0.0453      8.7148     27.5414    132.8338
   696.7000      8.0469      2.4807      0.0116     10.2614     27.4196    133.7280
   696.8000      8.0391      2.4834      0.0694     10.0983     27.6551    134.1057
   696.9000      8.0391      2.4944      0.0658      9.4324     27.8934    135.2752
   697.0000      8.0314      2.5096      0.0327      8.5097     27.9675    141.6984
   697.1000      8.0314      2.5347      0.0868      6.9892     27.9943    154.3463
   697.2000      8.0314      2.5544      0.1199      5.7955     27.9860    164.5757
   697.3000      8.0270      2.5544      0.1021      5.7948     28.0755    161.6465
   697.4000      8.0270      2.5441      0.1036      6.4174     28.3747    145.6030
   697.5000      8.0261      2.5461      0.1004      6.2951     28.5780    130.8508
   697.6000      8.0261      2.5728      0.1494      4.6782     28.4903    131.0201
   697.7000      8.0261      2.6132      0.1873      2.2310     28.4671    143.0802
   697.8000      8.0259      2.6368      0.2424      0.8008     28.9118    152.8612
   697.9000      8.0259      2.6211      0.1528      1.7507     29.5411    152.6234
   698.0000      8.0246      2.5861      0.0624      3.8698     29.7779    146.0299
   698.1000      8.0246      2.5623      0.0737      5.3160     29.6377    139.3742
   698.2000      8.0246      2.5486      0.0576      6.1447     29.5231    134.9223
   698.3000      8.0238      2.5369      0.0619      6.8518     29.4131    132.5533
   698.4000      8.0238      2.5314      0.0565      7.1902     29.0972    133.4668
   698.5000      8.0242      2.5353      0.0738      6.9519     28.8296    136.8711
   698.6000      8.0242      2.5415      0.0882      6.5755     28.5126    138.4747
   698.7000      8.0242      2.5451      0.0774      6.3574     27.8207    138.7612
   698.8000      8.0243      2.5445      0.1037      6.3953     26.9627    140.7962
   698.9000      8.0243      2.5358      0.0672      6.9208     26.2665    142.4366
   699.0000      8.0255      2.5297      0.0543      7.2922     25.8794    140.2063
   699.1000      8.0255      2.5370      0.0789      6.8476     25.7379    135.2233
   699.2000      8.0255      2.5483      0.0694      6.1641     25.7540    130.6466
   699.3000      8.0267      2.5542      0.0732      5.8056     25.9379    127.2729
   699.4000      8.0267      2.5596      0.1296      5.4773     26.1697    122.6094
   699.5000      8.0277      2.5727      0.0959      4.6875     26.4256    115.9868
   699.6000      8.0277      2.5852      0.1595      3.9276     26.8525    114.4056
   699.7000      8.0277      2.5779      0.0932      4.3694     27.2912    121.1178
   699.8000      8.0288      2.5596      0.0575      5.4802     27.2173    126.6527
   699.9000      8.0288      2.5459      0.1038      6.3067     26.8718    128.1233
   700.0000      8.0285      2.5239      0.0631      7.6409     26.8494    132.6556
   700.1000      8.0285      2.4874      0.0360      9.8518     26.6122    137.5301
   700.2000      8.0285      2.4561     -0.0176     11.7486     25.5813    135.9617
   700.3000      8.0266      2.4474      0.0007     12.2767     24.5550    131.9230
   700.4000      8.0266      2.4593      0.0054     11.5554     24.3242    129.3334
   700.5000      8.0261      2.4782      0.0292     10.4115     24.6698    126.4721
   700.6000      8.0261      2.4971      0.0412      9.2695     25.1578    124.8843
   700.7000      8.0261      2.5245      0.0588      7.6079     25.4326    123.1191
   700.8000      8.0282      2.5565      0.0899      5.6696     25.2229    116.4663
   700.9000      8.0282      2.5632      0.1129      5.2622     24.6104    107.7738
   701.0000      8.0293      2.5362      0.0662      6.8952     23.9590    101.6980
   701.1000      8.0293      2.5058      0.0399      8.7374     23.6706    100.8574
   701.2000      8.0293      2.4921      0.0400      9.5717     23.8107    104.5725
   701.3000      8.0280      2.4897      0.0164      9.7145     24.0952    107.3557
