~Version Information
VERS.                      2.0: CWLS Log ASCII Standard - VERSION 2.0
WRAP.                       NO: One line per depth step
~Well Information Block
STRT.FT               830.0000: 
STOP.FT              3122.7500: 
STEP.FT                 0.2500: 
NULL.                -999.2500: 
COMP.          Pioneer Natural Resources: COMPANY
WELL.              Stones 24-8: WELL
FLD.           Purgatoire River: FIELD
LOC.           648' FSL & 2264' FWL: LOCATION
PROV.                 Colorado: PROVINCE
CNTY.               Las Animas: COUNTRY
SRVC.                Patterson: SERVICE COMPANY
DATE.          Wed Jan 19 12:44:32 2005: LOG DATE
UWI.           05 071 07945 00: UNIQUE WELL ID
~Curve Information Block
DEPT.FT            0 000 00 00: Depth
SN.Ohm-m                      : IEL Short Normal
SP.mV                         : IEL Spontaneous Potential
DIR.Ohm-m                     : IEL Induction Resistivity
GR.GAPI                       : Gamma Ray
~Parameter Information Block
~A  Depth        SN          SP         DIR          GR     
# ...
   964.0000   2000.0000   2000.0000     20.3852     81.2424
   964.2500   2000.0000   2000.0000     20.0045     87.1386
   964.5000   2000.0000   2000.0000     19.5537     97.8989
   964.7500   2000.0000   2000.0000     19.0477    105.6719
   965.0000   2000.0000   2000.0000     18.4944    116.6152
   965.2500   2000.0000   2000.0000     17.9018    122.6343
   965.5000   2000.0000   2000.0000     17.2856    129.3084
   965.7500   2000.0000   2000.0000     16.6682    132.5009
   966.0000   2000.0000   2000.0000     16.0716    136.3570
   966.2500   2000.0000   2000.0000     15.5120    138.6655
   966.5000   2000.0000   2000.0000     15.0008    141.5014
   966.7500   2000.0000   2000.0000     14.5472    142.4897
   967.0000   2000.0000   2000.0000     14.1616    142.1528
   967.2500   2000.0000   2000.0000     13.8583    141.1151
   967.5000   2000.0000   2000.0000     13.6528    140.0970
   967.7500   2000.0000   2000.0000     13.5534    140.7988
   968.0000   2000.0000   2000.0000     13.5499    144.2529
   968.2500   2000.0000   2000.0000     13.6089    147.3001
   968.5000   2000.0000   2000.0000     13.6813    150.8304
   968.7500   2000.0000   2000.0000     13.7234    151.7095
   969.0000   2000.0000   2000.0000     13.7167    151.1410
   969.2500   2000.0000   2000.0000     13.6732    150.4487
   969.5000   2000.0000   2000.0000     13.6216    150.5589
   969.7500   2000.0000   2000.0000     13.5896    151.5757
   970.0000   2000.0000   2000.0000     13.5946    153.3010
   970.2500   2000.0000   2000.0000     13.6441    153.7659
   970.5000   2000.0000   2000.0000     13.7376    153.3133
   970.7500   2000.0000   2000.0000     13.8649    152.8474
   971.0000   2000.0000   2000.0000     14.0062    152.8448
   971.2500   2000.0000   2000.0000     14.1364    153.4514
   971.5000   2000.0000   2000.0000     14.2344    154.9842
   971.7500   2000.0000   2000.0000     14.2881    155.9680
   972.0000   2000.0000   2000.0000     14.2945    155.9951
   972.2500   2000.0000   2000.0000     14.2552    154.2000
   972.5000   2000.0000   2000.0000     14.1756    148.5538
   972.7500   2000.0000   2000.0000     14.0661    143.6762
   973.0000   2000.0000   2000.0000     13.9461    136.8126
   973.2500   2000.0000   2000.0000     13.8429    133.3781
   973.5000   2000.0000   2000.0000     13.7829    130.2248
   973.7500   2000.0000   2000.0000     13.7810    129.1436
   974.0000   2000.0000   2000.0000     13.8338    128.0987
   974.2500   2000.0000   2000.0000     13.9243    127.1343
   974.5000   2000.0000   2000.0000     14.0323    124.3870
   974.7500   2000.0000   2000.0000     14.1443    121.5136
   975.0000   2000.0000   2000.0000     14.2573    116.0917
   975.2500   2000.0000   2000.0000     14.3755    112.2834
   975.5000   2000.0000   2000.0000     14.5055    107.2254
   975.7500   2000.0000   2000.0000     14.6502    104.7491
   976.0000   2000.0000   2000.0000     14.8055    103.0619
   976.2500   2000.0000   2000.0000     14.9593    103.4539
   976.5000   2000.0000   2000.0000     15.0938    105.6263
   976.7500   2000.0000   2000.0000     15.1911    107.2410
   977.0000   2000.0000   2000.0000     15.2402    108.6824
   977.2500   2000.0000   2000.0000     15.2430    108.9653
   977.5000   2000.0000   2000.0000     15.2134    109.2617
   977.7500   2000.0000   2000.0000     15.1687    109.8407
   978.0000   2000.0000   2000.0000     15.1213    111.2334
   978.2500   2000.0000   2000.0000     15.0776    112.0497
   978.5000   2000.0000   2000.0000     15.0453    112.2600
   978.7500   2000.0000   2000.0000     15.0381    111.5870
   979.0000   2000.0000   2000.0000     15.0719    109.9036
   979.2500   2000.0000   2000.0000     15.1513    108.7848
   979.5000   2000.0000   2000.0000     15.2591    107.4929
   979.7500   2000.0000   2000.0000     15.3594    106.9606
   980.0000   2000.0000   2000.0000     15.4144    106.9457
   980.2500   2000.0000   2000.0000     15.4061    107.6667
   980.5000   2000.0000   2000.0000     15.3448    109.8847
   980.7500   2000.0000   2000.0000     15.2592    111.9622
   981.0000   2000.0000   2000.0000     15.1777    115.5064
   981.2500   2000.0000   2000.0000     15.1151    117.6979
   981.5000   2000.0000   2000.0000     15.0693    119.7385
   981.7500   2000.0000   2000.0000     15.0256    119.9086
   982.0000   2000.0000   2000.0000     14.9632    118.6095
   982.2500   2000.0000   2000.0000     14.8654    117.2547
   982.5000   2000.0000   2000.0000     14.7295    115.6522
   982.7500   2000.0000   2000.0000     14.5726    115.4300
   983.0000   2000.0000   2000.0000     14.4270    116.6704
   983.2500   2000.0000   2000.0000     14.3260    118.1777
   983.5000   2000.0000   2000.0000     14.2872    120.2689
   983.7500   2000.0000   2000.0000     14.3048    121.0304
   984.0000   2000.0000   2000.0000     14.3550    121.2497
   984.2500   2000.0000   2000.0000     14.4100    121.1366
   984.5000   2000.0000   2000.0000     14.4515    120.9459
   984.7500   2000.0000   2000.0000     14.4745    120.6257
   985.0000   2000.0000   2000.0000     14.4813    119.1002
   985.2500   2000.0000   2000.0000     14.4742    117.0928
   985.5000   2000.0000   2000.0000     14.4551    113.1417
   985.7500   2000.0000   2000.0000     14.4290    110.7989
   986.0000   2000.0000   2000.0000     14.4050    109.1666
   986.2500   2000.0000   2000.0000     14.3923    109.4332
   986.5000   2000.0000   2000.0000     14.3938    111.0180
   986.7500   2000.0000   2000.0000     14.4014    112.5521
   987.0000   2000.0000   2000.0000     14.3982    116.0147
   987.2500   2000.0000   2000.0000     14.3648    119.3882
   987.5000   2000.0000   2000.0000     14.2887    125.2146
   987.7500   2000.0000   2000.0000     14.1720    128.3559
   988.0000   2000.0000   2000.0000     14.0299    129.9962
   988.2500   2000.0000   2000.0000     13.8839    128.8576
   988.5000   2000.0000   2000.0000     13.7521    125.3076
   988.7500   2000.0000   2000.0000     13.6429    122.9880
   989.0000   2000.0000   2000.0000     13.5554    120.9519
   989.2500   2000.0000   2000.0000     13.4847    120.5216
   989.5000   2000.0000   2000.0000     13.4291    120.2600
   989.7500   2000.0000   2000.0000     13.3936    119.7474
   990.0000   2000.0000   2000.0000     13.3866    118.0793
   990.2500   2000.0000   2000.0000     13.4126    116.5425
   990.5000   2000.0000   2000.0000     13.4696    114.3360
   990.7500   2000.0000   2000.0000     13.5539    113.3457
   991.0000   2000.0000   2000.0000     13.6679    112.6613
   991.2500   2000.0000   2000.0000     13.8232    112.3451
   991.5000   2000.0000   2000.0000     14.0327    111.3741
   991.7500   2000.0000   2000.0000     14.2996    110.3833
   992.0000   2000.0000   2000.0000     14.6133    108.8763
   992.2500   2000.0000   2000.0000     14.9582    107.9884
   992.5000   2000.0000   2000.0000     15.3260    106.4763
   992.7500   2000.0000   2000.0000     15.7194    105.0176
   993.0000   2000.0000   2000.0000     16.1434    101.7314
   993.2500   2000.0000   2000.0000     16.5927     98.6836
   993.5000   2000.0000   2000.0000     17.0500     92.8952
   993.7500   2000.0000   2000.0000     17.4945     88.4528
   994.0000   2000.0000   2000.0000     17.9146     81.5010
   994.2500   2000.0000   2000.0000     18.3134     77.1281
   994.5000   2000.0000   2000.0000     18.7021     72.0833
   994.7500   2000.0000   2000.0000     19.0871     70.4130
   995.0000   2000.0000   2000.0000     19.4638     70.7075
   995.2500   2000.0000   2000.0000     19.8188     72.0507
   995.5000   2000.0000   2000.0000     20.1405     73.7809
   995.7500   2000.0000   2000.0000     20.4268     73.9616
   996.0000   2000.0000   2000.0000     20.6833     72.8472
   996.2500   2000.0000   2000.0000     20.9155     71.7080
   996.5000   2000.0000   2000.0000     21.1203     70.1347
   996.7500   2000.0000   2000.0000     21.2868     69.3583
   997.0000   2000.0000   2000.0000     21.4044     68.8076
   997.2500   2000.0000   2000.0000     21.4728     68.9744
