~Version Information
VERS.                      2.0: CWLS Log ASCII Standard - VERSION 2.0
WRAP.                       NO: One line per depth step
~Well Information Block
STRT.FT               390.0000: 
STOP.FT               902.2000: 
STEP.FT                 0.1000: 
NULL.                -999.2500: 
COMP.          Pioneer Natural Resources: COMPANY
WELL.              Venom 32-22: WELL
FLD.           Purgatoire River: FIELD
LOC.           2307' FNL & 2024' FEL----: LOCATION
PROV.                 Colorado: PROVINCE
CNTY.               Las Animas: COUNTRY
SRVC.                Patterson: SERVICE COMPANY
DATE.          Wed May 11 08:31:39 2005: LOG DATE
UWI.           05 071 08361 00: UNIQUE WELL ID
~Curve Information Block
DEPT.FT            0 000 00 00: Depth
DCAL.in                       : CDL Caliper
RHOB.g/cc                     : CDL Bulk Density
RHOC.g/cc                     : CDL Density Correction
DPOR.pu                       : CDL Density Porosity
NPOR.pu                       : Neutron Porosity
GR.GAPI                       : Gamma Ray
~Parameter Information Block
~A  Depth       DCAL        RHOB        RHOC        DPOR        NPOR         GR     
# ...
   706.8000      7.9776      2.5621      0.0230      5.3257     23.2584     99.8926
   706.9000      7.9776      2.5507      0.0042      6.0169     22.6952     97.1088
   707.0000      7.9853      2.5414      0.0600      6.5795     23.8772     94.5942
   707.1000      7.9853      2.5306      0.0168      7.2362     27.4159     93.6257
   707.2000      7.9853      2.5325     -0.0261      7.1199     28.3679     92.0707
   707.3000      7.9978      2.5535      0.0518      5.8509     24.3280     93.8090
   707.4000      7.9978      2.5766      0.0579      4.4510     20.4301    102.4501
   707.5000      8.0100      2.5875      0.0620      3.7864     21.3227    112.0274
   707.6000      8.0100      2.5873      0.0578      3.7983     24.9463    115.7699
   707.7000      8.0100      2.5817      0.0718      4.1416     25.1634    115.1448
   707.8000      8.0123      2.5791      0.0666      4.2990     21.7116    114.3833
   707.9000      8.0123      2.5894      0.0667      3.6731     19.8498    112.2849
   708.0000      8.0046      2.6073      0.0779      2.5899     20.5004    104.6109
   708.1000      8.0046      2.6127      0.1173      2.2614     21.4363     94.3295
   708.2000      8.0046      2.5940      0.0809      3.3953     21.3350     89.7073
   708.3000      7.9981      2.5613      0.0429      5.3747     20.1310     91.9895
   708.4000      7.9981      2.5338      0.0492      7.0394     19.6878     96.2413
   708.5000      7.9954      2.5259      0.0142      7.5238     21.1281     98.8784
   708.6000      7.9954      2.5398      0.0719      6.6771     22.2682    102.7772
   708.7000      7.9954      2.5583      0.1023      5.5589     21.1903    112.6543
   708.8000      7.9909      2.5654      0.0448      5.1287     19.4841    119.3996
   708.9000      7.9909      2.5704      0.0464      4.8260     19.2555    111.6744
   709.0000      7.9779      2.5894      0.0448      3.6728     20.0820     98.2427
   709.1000      7.9779      2.6240      0.0802      1.5787     20.1190     92.2072
   709.2000      7.9779      2.6609      0.1362     -0.6621     19.5891     91.7163
   709.3000      7.9633      2.6931      0.0823     -2.6127     20.6059     89.8145
   709.4000      7.9633      2.7204      0.1594     -4.2664     22.7477     86.5649
   709.5000      7.9547      2.7360      0.1177     -5.2149     22.9681     84.7850
   709.6000      7.9547      2.7400      0.1373     -5.4540     20.5921     83.5749
   709.7000      7.9547      2.7362      0.1106     -5.2221     18.8057     79.6201
   709.8000      7.9522      2.7283      0.0789     -4.7479     18.5606     73.2256
   709.9000      7.9522      2.7190      0.0782     -4.1788     17.7462     67.6814
   710.0000      7.9565      2.6958      0.1137     -2.7755     16.9119     64.6047
   710.1000      7.9565      2.6558      0.0029     -0.3516     18.4980     65.7248
   710.2000      7.9565      2.6223      0.0054      1.6812     21.0630     71.4953
   710.3000      7.9621      2.6125      0.0152      2.2748     20.6993     77.9868
   710.4000      7.9621      2.6230      0.0608      1.6377     18.4875     79.4423
   710.5000      7.9645      2.6410      0.0839      0.5467     18.7977     75.1238
   710.6000      7.9645      2.6505      0.1146     -0.0326     22.5002     72.0775
   710.7000      7.9645      2.6392      0.0966      0.6573     26.1866     74.1908
   710.8000      7.9618      2.6183      0.0102      1.9222     26.8872     77.7366
   710.9000      7.9618      2.6103      0.0648      2.4080     26.2492     84.8378
   711.0000      7.9545      2.6112      0.0614      2.3506     26.5063     98.1291
   711.1000      7.9545      2.6101      0.0867      2.4195     26.6598    108.6363
   711.2000      7.9545      2.6071      0.0582      2.5988     25.4028    109.5075
   711.3000      7.9485      2.6000      0.0929      3.0273     23.8477    104.2865
   711.4000      7.9485      2.5895      0.0713      3.6656     23.3742     98.1598
   711.5000      7.9459      2.5795      0.1094      4.2708     24.5367     96.9422
   711.6000      7.9459      2.5661      0.0616      5.0869     26.1827     99.5604
   711.7000      7.9459      2.5503      0.0405      6.0434     25.5160     98.2099
   711.8000      7.9402      2.5445      0.0332      6.3956     22.9051     94.0164
   711.9000      7.9402      2.5608      0.0551      5.4076     21.4468     94.8544
   712.0000      7.9382      2.5896      0.0784      3.6605     22.0521     99.3287
   712.1000      7.9382      2.6025      0.1080      2.8802     22.5075    102.0595
   712.2000      7.9382      2.5932      0.0206      3.4413     19.9761    103.7505
   712.3000      7.9389      2.5876      0.0360      3.7798     16.3230    106.7068
   712.4000      7.9389      2.5993      0.0689      3.0706     16.0822    109.9263
   712.5000      7.9365      2.6150      0.0961      2.1219     18.9233    111.1552
   712.6000      7.9365      2.6237      0.1277      1.5943     20.6759    108.6073
   712.7000      7.9365      2.6283      0.1197      1.3160     21.3664    103.1367
   712.8000      7.9338      2.6318      0.1217      1.1060     24.0180     97.4168
   712.9000      7.9338      2.6320      0.0631      1.0918     27.3497     93.3677
   713.0000      7.9289      2.6338      0.0634      0.9842     28.3377     89.8418
   713.1000      7.9289      2.6415      0.1070      0.5152     27.3471     86.5484
   713.2000      7.9289      2.6441      0.1000      0.3564     26.1185     84.9012
   713.3000      7.9231      2.6325      0.0849      1.0597     25.6973     82.0697
   713.4000      7.9231      2.6181      0.0156      1.9319     26.7068     78.0063
   713.5000      7.9253      2.6187      0.0161      1.8977     28.1501     77.1839
   713.6000      7.9253      2.6234      0.1030      1.6125     27.8411     79.4751
   713.7000      7.9253      2.6050      0.0051      2.7247     26.1899     82.2682
   713.8000      7.9315      2.5734      0.0005      4.6413     25.8630     83.2783
   713.9000      7.9315      2.5590     -0.0199      5.5148     27.1977     81.3429
   714.0000      7.9415      2.5643      0.0161      5.1950     27.2394     78.1079
   714.1000      7.9415      2.5701     -0.0263      4.8452     24.1852     77.0088
   714.2000      7.9415      2.5633     -0.0465      5.2563     20.8561     78.0063
   714.3000      7.9535      2.5502     -0.0475      6.0507     21.3259     78.4858
   714.4000      7.9535      2.5519      0.0206      5.9468     26.0685     80.6039
   714.5000      7.9565      2.5745      0.0491      4.5762     29.8553     87.7910
   714.6000      7.9565      2.5980      0.0877      3.1527     26.9290     94.8224
   714.7000      7.9565      2.6106      0.0608      2.3880     20.2326     96.4949
   714.8000      7.9499      2.6284      0.0394      1.3082     16.7804     93.8556
   714.9000      7.9499      2.6533      0.0892     -0.1996     17.5703     89.2299
   715.0000      7.9464      2.6609      0.0545     -0.6611     20.2594     84.2833
   715.1000      7.9464      2.6428      0.0759      0.4340     22.4731     82.0776
   715.2000      7.9464      2.6121      0.0599      2.2970     23.0981     85.0224
   715.3000      7.9461      2.5878      0.0168      3.7676     23.6716     89.2413
   715.4000      7.9461      2.5819      0.0868      4.1258     25.1991     89.6390
   715.5000      7.9450      2.5869      0.0549      3.8272     25.7318     88.1334
   715.6000      7.9450      2.5981      0.0466      3.1474     23.9544     87.2893
   715.7000      7.9450      2.6183      0.0527      1.9222     21.8059     84.8675
   715.8000      7.9488      2.6368      0.0737      0.7976     21.5034     82.9482
   715.9000      7.9488      2.6386      0.0757      0.6888     23.2032     85.9642
   716.0000      7.9535      2.6182      0.0931      1.9302     26.2208     93.4995
   716.1000      7.9535      2.5842      0.0223      3.9897     28.6146    100.9844
   716.2000      7.9535      2.5571      0.0271      5.6284     27.8698    101.1653
   716.3000      7.9582      2.5459      0.0335      6.3090     25.5266     93.8390
