~Version Information
VERS.                      2.0: CWLS Log ASCII Standard - VERSION 2.0
WRAP.                       NO: One line per depth step
~Well Information Block
STRT.FT               250.0000: 
STOP.FT              2600.7000: 
STEP.FT                 0.1000: 
NULL.                -999.2500: 
COMP.          Pioneer Natural Resources: COMPANY
WELL.              Quack 22-24: WELL
FLD.           Purgatoire River: FIELD
LOC.           2492' FNL & 2459' FWL--: LOCATION
PROV.                 Colorado: PROVINCE
CNTY.               Las Animas: COUNTRY
SRVC.                Patterson: SERVICE COMPANY
DATE.          Mon Jun 13 08:03:15 2005: LOG DATE
UWI.            05 071 0840200: UNIQUE WELL ID
~Curve Information Block
DEPT.FT            0 000 00 00: Depth
DCAL.in                       : CDL Caliper
RHOB.g/cc                     : CDL Bulk Density
RHOC.g/cc                     : CDL Density Correction
DPOR.pu                       : CDL Density Porosity
NPOR.pu                       : Neutron Porosity
GR.GAPI                       : Gamma Ray
~Parameter Information Block
~A  Depth       DCAL        RHOB        RHOC        DPOR        NPOR         GR     
# ...
  1181.2000      8.1556      2.6076      0.0464      2.5673     26.4784    135.9773
  1181.3000      8.1558      2.5945      0.0356      3.3616     26.5874    142.3827
  1181.4000      8.1558      2.5663      0.0239      5.0703     28.2010    147.2303
  1181.5000      8.1578      2.5316      0.0505      7.1752     29.4862    147.9265
  1181.6000      8.1578      2.4963      0.0275      9.3127     28.2083    144.2349
  1181.7000      8.1578      2.4807     -0.0001     10.2625     26.5316    137.8157
  1181.8000      8.1605      2.4925      0.0569      9.5428     26.0489    131.8799
  1181.9000      8.1605      2.5094      0.0962      8.5199     26.1373    129.8089
  1182.0000      8.1614      2.5129      0.0712      8.3087     26.5228    134.5862
  1182.1000      8.1614      2.5105      0.0604      8.4575     26.8404    146.4466
  1182.2000      8.1614      2.5099      0.0347      8.4922     27.1881    159.7681
  1182.3000      8.1611      2.4983      0.0625      9.1954     28.1809    168.2086
  1182.4000      8.1611      2.4633      0.0299     11.3171     29.2452    167.5984
  1182.5000      8.1626      2.4188     -0.0010     14.0148     29.4391    159.2471
  1182.6000      8.1626      2.3836     -0.0060     16.1454     28.2567    151.3422
  1182.7000      8.1626      2.3558     -0.0135     17.8314     26.3807    147.8971
  1182.8000      8.1649      2.3302     -0.0349     19.3844     25.5896    146.6264
  1182.9000      8.1649      2.3129     -0.0001     20.4277     26.0126    148.1629
  1183.0000      8.1662      2.3093      0.0228     20.6480     26.5030    153.2842
  1183.1000      8.1662      2.3184      0.0420     20.0989     27.0756    153.6156
  1183.2000      8.1662      2.3403      0.0240     18.7685     28.0379    141.6513
  1183.3000      8.1639      2.3738      0.0674     16.7366     28.5117    126.3560
  1183.4000      8.1639      2.4096      0.1094     14.5714     28.2331    122.8263
  1183.5000      8.1565      2.4406      0.0946     12.6902     27.4826    129.5233
  1183.6000      8.1565      2.4716      0.1340     10.8094     26.1447    133.2243
  1183.7000      8.1565      2.5080      0.1481      8.6062     25.0025    130.7552
  1183.8000      8.1471      2.5389      0.1673      6.7330     24.8354    128.9059
  1183.9000      8.1471      2.5422      0.1566      6.5354     25.3073    126.7493
  1184.0000      8.1399      2.5142      0.0911      8.2288     25.9541    120.6783
  1184.1000      8.1399      2.4780      0.0440     10.4259     26.9093    116.7798
  1184.2000      8.1399      2.4545      0.0300     11.8475     28.5007    119.0421
  1184.3000      8.1361      2.4431      0.0584     12.5423     30.2121    123.4564
  1184.4000      8.1361      2.4367      0.0127     12.9275     30.2680    128.5785
  1184.5000      8.1337      2.4349      0.0403     13.0349     28.4863    135.8602
  1184.6000      8.1337      2.4371      0.0617     12.9020     27.0800    141.8333
  1184.7000      8.1337      2.4560      0.0533     11.7553     26.8084    141.4242
  1184.8000      8.1326      2.5150      0.0778      8.1804     26.9096    139.0435
  1184.9000      8.1326      2.6125      0.1399      2.2698     27.4462    141.1209
  1185.0000      8.1335      2.7170      0.1959     -4.0581     28.6939    145.7515
  1185.1000      8.1335      2.8001      0.2074     -9.0996     29.5962    144.6502
  1185.2000      8.1335      2.8499      0.1942    -12.1180     29.1500    135.5452
  1185.3000      8.1356      2.8597      0.1715    -12.7117     28.1647    128.2258
  1185.4000      8.1356      2.8326      0.1613    -11.0683     27.7563    129.2814
  1185.5000      8.1391      2.7889      0.0935     -8.4185     27.5679    132.5785
  1185.6000      8.1391      2.7534      0.0571     -6.2655     27.0682    130.0799
  1185.7000      8.1391      2.7340      0.0032     -5.0881     26.4513    126.9671
  1185.8000      8.1506      2.7184      0.0070     -4.1436     26.3156    131.4736
  1185.9000      8.1506      2.6908     -0.0763     -2.4747     26.8203    139.8206
  1186.0000      8.1841      2.6501     -0.0774     -0.0067     27.4094    144.2352
  1186.1000      8.1841      2.5994     -0.0587      3.0696     27.6273    141.8121
  1186.2000      8.1841      2.5514     -0.0396      5.9786     27.6336    137.5952
  1186.3000      8.2277      2.5299      0.0689      7.2782     27.6622    138.3965
  1186.4000      8.2277      2.5351      0.1284      6.9629     27.4908    142.8182
  1186.5000      8.2432      2.5454      0.1066      6.3403     27.5995    145.1806
  1186.6000      8.2432      2.5480      0.0694      6.1805     28.5160    142.8209
  1186.7000      8.2432      2.5434      0.0504      6.4603     29.3298    138.6466
  1186.8000      8.2334      2.5334      0.0712      7.0677     28.9752    136.5233
  1186.9000      8.2334      2.5223      0.0457      7.7384     28.1074    137.2149
  1187.0000      8.2200      2.5199      0.0552      7.8853     28.0943    137.9225
  1187.1000      8.2200      2.5230      0.0701      7.6971     29.1288    138.3869
  1187.2000      8.2200      2.5161      0.0865      8.1139     30.0414    139.3993
  1187.3000      8.2132      2.4931      0.0767      9.5101     29.8558    138.8449
  1187.4000      8.2132      2.4648      0.0342     11.2215     29.6188    136.0610
  1187.5000      8.2134      2.4486      0.0324     12.2076     30.4330    135.0423
  1187.6000      8.2134      2.4495      0.0104     12.1515     31.0251    138.8015
  1187.7000      8.2134      2.4524      0.0625     11.9756     30.1210    143.1987
  1187.8000      8.2149      2.4341      0.0316     13.0834     29.1247    143.1580
  1187.9000      8.2149      2.3944      0.0234     15.4932     29.1664    139.7889
  1188.0000      8.2147      2.3562      0.0269     17.8037     29.2427    135.7790
  1188.1000      8.2147      2.3353      0.0064     19.0727     29.1440    132.8157
  1188.2000      8.2147      2.3201      0.0704     19.9909     29.6850    131.8714
  1188.3000      8.2207      2.2822      0.0744     22.2907     29.9531    131.6636
  1188.4000      8.2207      2.2046      0.0463     26.9932     29.2751    133.6927
  1188.5000      8.2339      2.0991     -0.0203     33.3892     29.1283    137.5546
  1188.6000      8.2339      1.9903     -0.0165     39.9828     30.3771    135.3150
  1188.7000      8.2339      1.8916     -0.0603     45.9641     31.8549    124.3880
  1188.8000      8.2271      1.8046     -0.0678     51.2393     32.5291    114.8646
  1188.9000      8.2271      1.7282     -0.0237     55.8641     33.3088    113.4459
  1189.0000      8.1881      1.6693     -0.0342     59.4367     34.8142    114.0327
  1189.1000      8.1881      1.6427     -0.0411     61.0481     35.5739    109.5891
  1189.2000      8.1881      1.6543      0.0127     60.3454     34.8538    103.6958
  1189.3000      8.1581      1.6948      0.0454     57.8903     34.0057    104.4572
  1189.4000      8.1581      1.7513      0.1182     54.4663     33.2933    109.1635
  1189.5000      8.1511      1.8133      0.1367     50.7104     32.3364    108.9633
  1189.6000      8.1511      1.8732      0.1679     47.0770     31.7186    105.9799
  1189.7000      8.1511      1.9293      0.1456     43.6802     31.4077    105.4607
  1189.8000      8.1526      1.9880      0.1468     40.1221     30.7409    104.5525
  1189.9000      8.1526      2.0496      0.1742     36.3872     29.9121    100.9625
  1190.0000      8.1570      2.0995      0.1685     33.3659     29.6929    101.1622
  1190.1000      8.1570      2.1208      0.1616     32.0751     30.4913    108.6584
  1190.2000      8.1570      2.1084      0.1054     32.8248     31.4330    115.9624
  1190.3000      8.1597      2.0721      0.0754     35.0220     31.3023    117.9989
  1190.4000      8.1597      2.0259      0.0376     37.8214     30.5242    117.7510
  1190.5000      8.1601      1.9735      0.0520     41.0001     30.5693    116.6666
  1190.6000      8.1601      1.9076     -0.0033     44.9915     32.1209    113.5611
  1190.7000      8.1601      1.8284     -0.0296     49.7952     34.2363    109.7077
