~Version Information
VERS.                      2.0: CWLS Log ASCII Standard - VERSION 2.0
WRAP.                       NO: One line per depth step
~Well Information Block
STRT.FT               898.0000: 
STOP.FT              2360.0000: 
STEP.FT                 0.2500: 
NULL.                -999.2500: 
COMP.          Pioneer Natural Resources: COMPANY
WELL.             Trimax 44-23: WELL
FLD.           Purgatoire River: FIELD
LOC.           527' FSL & 1064' FEL: LOCATION
PROV.                 Colorado: PROVINCE
CNTY.               Las Animas: COUNTRY
SRVC.                Patterson: SERVICE COMPANY
DATE.          Sun Mar 13 04:57:04 2005: LOG DATE
UWI.           05 071 08326 00: UNIQUE WELL ID
~Curve Information Block
DEPT.FT            0 000 00 00: Depth
SN.Ohm-m                      : IEL Short Normal
SP.mV                         : IEL Spontaneous Potential
DIR.Ohm-m                     : IEL Induction Resistivity
GR.GAPI                       : Gamma Ray
~Parameter Information Block
~A  Depth        SN          SP         DIR          GR     
# ...
   998.5000   2000.0000   2000.0000     10.3076    145.9337
   998.7500   2000.0000   2000.0000     10.0082    146.5299
   999.0000   2000.0000   2000.0000      9.8160    147.8404
   999.2500   2000.0000   2000.0000      9.7384    148.6431
   999.5000   2000.0000   2000.0000      9.7687    149.7356
   999.7500   2000.0000   2000.0000      9.8891    150.5417
  1000.0000   2000.0000   2000.0000     10.0761    151.6046
  1000.2500   2000.0000   2000.0000     10.3078    151.7276
  1000.5000   2000.0000   2000.0000     10.5715    150.0778
  1000.7500   2000.0000   2000.0000     10.8648    147.3038
  1001.0000   2000.0000   2000.0000     11.1900    140.2814
  1001.2500   2000.0000   2000.0000     11.5487    133.7809
  1001.5000   2000.0000   2000.0000     11.9430    121.7256
  1001.7500   2000.0000   2000.0000     12.3833    112.4574
  1002.0000   2000.0000   2000.0000     12.8950     97.6317
  1002.2500   2000.0000   2000.0000     13.5162     88.1718
  1002.5000   2000.0000   2000.0000     14.2853     77.1295
  1002.7500   2000.0000   2000.0000     15.2230     73.2490
  1003.0000   2000.0000   2000.0000     16.3146     73.7361
  1003.2500   2000.0000   2000.0000     17.4984     77.7660
  1003.5000   2000.0000   2000.0000     18.6641     86.5159
  1003.7500   2000.0000   2000.0000     19.6670     91.7874
  1004.0000   2000.0000   2000.0000     20.3700     95.3724
  1004.2500   2000.0000   2000.0000     20.7077     94.1539
  1004.5000   2000.0000   2000.0000     20.7249     88.3582
  1004.7500   2000.0000   2000.0000     20.5372     83.6401
  1005.0000   2000.0000   2000.0000     20.2437     78.1911
  1005.2500   2000.0000   2000.0000     19.8741     76.5664
  1005.5000   2000.0000   2000.0000     19.4098     77.2298
  1005.7500   2000.0000   2000.0000     18.8387     79.2888
  1006.0000   2000.0000   2000.0000     18.1796     83.8740
  1006.2500   2000.0000   2000.0000     17.4600     87.4253
  1006.5000   2000.0000   2000.0000     16.6882     92.9257
  1006.7500   2000.0000   2000.0000     15.8541     96.7788
  1007.0000   2000.0000   2000.0000     14.9532    103.5105
  1007.2500   2000.0000   2000.0000     14.0032    108.8428
  1007.5000   2000.0000   2000.0000     13.0417    117.5908
  1007.7500   2000.0000   2000.0000     12.1120    123.3609
  1008.0000   2000.0000   2000.0000     11.2514    131.2409
  1008.2500   2000.0000   2000.0000     10.4857    135.8645
  1008.5000   2000.0000   2000.0000      9.8300    141.9391
  1008.7500   2000.0000   2000.0000      9.2906    145.4568
  1009.0000   2000.0000   2000.0000      8.8658    149.8891
  1009.2500   2000.0000   2000.0000      8.5448    152.2863
  1009.5000   2000.0000   2000.0000      8.3075    155.1074
  1009.7500   2000.0000   2000.0000      8.1267    156.3296
  1010.0000   2000.0000   2000.0000      7.9719    156.5880
  1010.2500   2000.0000   2000.0000      7.8175    155.4852
  1010.5000   2000.0000   2000.0000      7.6496    152.0197
  1010.7500   2000.0000   2000.0000      7.4691    148.6062
  1011.0000   2000.0000   2000.0000      7.2879    141.9436
  1011.2500   2000.0000   2000.0000      7.1211    136.8724
  1011.5000   2000.0000   2000.0000      6.9803    130.0033
  1011.7500   2000.0000   2000.0000      6.8711    127.0875
  1012.0000   2000.0000   2000.0000      6.7926    126.2830
  1012.2500   2000.0000   2000.0000      6.7396    127.9388
  1012.5000   2000.0000   2000.0000      6.7052    132.5780
  1012.7500   2000.0000   2000.0000      6.6838    136.4706
  1013.0000   2000.0000   2000.0000      6.6713    142.8256
  1013.2500   2000.0000   2000.0000      6.6642    147.0701
  1013.5000   2000.0000   2000.0000      6.6568    152.6142
  1013.7500   2000.0000   2000.0000      6.6423    155.2304
  1014.0000   2000.0000   2000.0000      6.6155    157.1730
  1014.2500   2000.0000   2000.0000      6.5762    157.4917
  1014.5000   2000.0000   2000.0000      6.5296    157.8045
  1014.7500   2000.0000   2000.0000      6.4835    158.5573
  1015.0000   2000.0000   2000.0000      6.4456    160.4550
  1015.2500   2000.0000   2000.0000      6.4215    161.5547
  1015.5000   2000.0000   2000.0000      6.4147    161.9602
  1015.7500   2000.0000   2000.0000      6.4258    161.4935
  1016.0000   2000.0000   2000.0000      6.4521    160.6194
  1016.2500   2000.0000   2000.0000      6.4888    160.2963
  1016.5000   2000.0000   2000.0000      6.5317    160.0681
  1016.7500   2000.0000   2000.0000      6.5782    159.7354
  1017.0000   2000.0000   2000.0000      6.6271    158.3516
  1017.2500   2000.0000   2000.0000      6.6753    156.5901
  1017.5000   2000.0000   2000.0000      6.7179    152.5356
  1017.7500   2000.0000   2000.0000      6.7513    148.9988
  1018.0000   2000.0000   2000.0000      6.7795    143.0348
  1018.2500   2000.0000   2000.0000      6.8159    139.2152
  1018.5000   2000.0000   2000.0000      6.8782    135.0146
  1018.7500   2000.0000   2000.0000      6.9802    133.8867
  1019.0000   2000.0000   2000.0000      7.1253    134.9230
  1019.2500   2000.0000   2000.0000      7.3085    136.8682
  1019.5000   2000.0000   2000.0000      7.5221    140.1973
  1019.7500   2000.0000   2000.0000      7.7621    142.1301
  1020.0000   2000.0000   2000.0000      8.0303    144.4433
  1020.2500   2000.0000   2000.0000      8.3308    145.6277
  1020.5000   2000.0000   2000.0000      8.6661    146.6706
  1020.7500   2000.0000   2000.0000      9.0349    146.7463
  1021.0000   2000.0000   2000.0000      9.4368    145.9956
  1021.2500   2000.0000   2000.0000      9.8793    145.0419
  1021.5000   2000.0000   2000.0000     10.3802    142.9492
  1021.7500   2000.0000   2000.0000     10.9630    140.8979
  1022.0000   2000.0000   2000.0000     11.6467    136.0376
  1022.2500   2000.0000   2000.0000     12.4397    130.9707
  1022.5000   2000.0000   2000.0000     13.3383    119.8078
  1022.7500   2000.0000   2000.0000     14.3342    110.0559
  1023.0000   2000.0000   2000.0000     15.4188     93.2256
  1023.2500   2000.0000   2000.0000     16.5736     81.7100
  1023.5000   2000.0000   2000.0000     17.7412     66.1754
  1023.7500   2000.0000   2000.0000     18.7983     58.0437
  1024.0000   2000.0000   2000.0000     19.5738     50.0295
  1024.2500   2000.0000   2000.0000     19.9183     47.2391
  1024.5000   2000.0000   2000.0000     19.7761     45.7364
  1024.7500   2000.0000   2000.0000     19.2014     45.9962
  1025.0000   2000.0000   2000.0000     18.3217     48.4424
  1025.2500   2000.0000   2000.0000     17.2890     52.1833
  1025.5000   2000.0000   2000.0000     16.2436     62.4238
  1025.7500   2000.0000   2000.0000     15.2929     72.5830
  1026.0000   2000.0000   2000.0000     14.5024     91.4502
  1026.2500   2000.0000   2000.0000     13.8932    104.8337
  1026.5000   2000.0000   2000.0000     13.4455    123.1061
  1026.7500   2000.0000   2000.0000     13.1092    132.7671
  1027.0000   2000.0000   2000.0000     12.8230    142.4585
  1027.2500   2000.0000   2000.0000     12.5394    145.7217
  1027.5000   2000.0000   2000.0000     12.2439    146.1326
  1027.7500   2000.0000   2000.0000     11.9578    143.5415
  1028.0000   2000.0000   2000.0000     11.7255    135.7631
  1028.2500   2000.0000   2000.0000     11.5949    128.6506
  1028.5000   2000.0000   2000.0000     11.6050    117.1684
  1028.7500   2000.0000   2000.0000     11.7828    110.4708
  1029.0000   2000.0000   2000.0000     12.1438    103.8143
  1029.2500   2000.0000   2000.0000     12.6904    101.7179
  1029.5000   2000.0000   2000.0000     13.4055    100.1770
  1029.7500   2000.0000   2000.0000     14.2429     98.7095
  1030.0000   2000.0000   2000.0000     15.1249     94.5673
  1030.2500   2000.0000   2000.0000     15.9585     90.9226
  1030.5000   2000.0000   2000.0000     16.6679     85.9855
  1030.7500   2000.0000   2000.0000     17.2230     84.1119
  1031.0000   2000.0000   2000.0000     17.6351     84.4945
  1031.2500   2000.0000   2000.0000     17.9237     86.9400
  1031.5000   2000.0000   2000.0000     18.0846     93.0925
  1031.7500   2000.0000   2000.0000     18.0869     98.0314
