~Version Information
VERS.                      2.0: CWLS Log ASCII Standard - VERSION 2.0
WRAP.                       NO: One line per depth step
~Well Information Block
STRT.FT               481.5000: 
STOP.FT              2033.5000: 
STEP.FT                 0.2500: 
NULL.                -999.2500: 
COMP.          Petrogulf Corporation: COMPANY
WELL.            Montoya 7-12R: WELL
FLD.           Purgatorie River: FIELD
LOC.           1769' FNL & 658' FWL: LOCATION
CNTY.               Las Animas: COUNTY
SRVC.                         : SERVICE COMPANY
DATE.          Sat Nov 20 02:31:05 2004: LOG DATE
UWI.           05 071 08240 00: UNIQUE WELL ID
STAT.                 Colorado: STATE
~Curve Information Block
DEPT.FT            0 000 00 00: Depth
SP.mV                         : DIL Spontaneous Potential
RILD.Ohm-m                    : DIL Deep Resistivity
RILM.Ohm-m                    : DIL Medium Resistivity
RLL3.Ohm-m                    : DIL Shallow Resistivity
GR.GAPI                       : Gamma Ray
~Parameter Information Block
~A  Depth        SP         RILD        RILM        RLL3         GR     
# ...
   817.5000   -199.9953     16.6604     17.2585     23.9052    120.8526
   817.7500   -198.7135     16.6397     17.1092     23.5041    120.3129
   818.0000   -197.7721     16.6555     16.9874     23.1401    120.0921
   818.2500   -197.3023     16.7138     16.9043     22.8889    120.3228
   818.5000   -197.3784     16.8232     16.8751     22.9055    120.7172
   818.7500   -198.0014     16.9945     16.9185     23.5042    120.7700
   819.0000   -199.1006     17.2392     17.0568     25.2782    120.5694
   819.2500   -200.5529     17.5689     17.3145     29.1985    120.4441
   819.5000   -202.2083     17.9944     17.7183     36.6675    120.4869
   819.7500   -203.9142     18.5234     18.2958     49.4439    120.5309
   820.0000   -205.5318     19.1606     19.0753     69.3770    119.7859
   820.2500   -206.9517     19.9062     20.0863     97.9399    117.9998
   820.5000   -208.0986     20.7553     21.3588    135.6498    112.1303
   820.7500   -208.9351     21.6967     22.9231    181.5779    105.7825
   821.0000   -209.4634     22.7120     24.8080    233.2174     93.3777
   821.2500   -209.7237     23.7740     27.0358    286.8812     84.2743
   821.5000   -209.7750     24.8449     29.6140    338.5575     71.5191
   821.7500   -209.6850     25.8755     32.5185    384.8723     64.6528
   822.0000   -209.5030     26.8049     35.6693    423.6631     57.7265
   822.2500   -209.2467     27.5631     38.8949    453.8485     55.1365
   822.5000   -208.8963     28.0771     41.9036    474.6942     52.6306
   822.7500   -208.3999     28.2827     44.2852    485.0028     50.6826
   823.0000   -207.6907     28.1371     45.5885    482.8594     46.2462
   823.2500   -206.7059     27.6338     45.4739    466.2368     42.5649
   823.5000   -205.4055     26.8059     43.8799    434.1938     37.7225
   823.7500   -203.7887     25.7208     41.0698    387.9810     36.2084
   824.0000   -201.8979     24.4651     37.5166    331.3784     38.0797
   824.2500   -199.8153     23.1262     33.7123    270.0186     42.3489
   824.5000   -197.6460     21.7778     30.0318    209.9994     52.6348
   824.7500   -195.4999     20.4735     26.6921    156.4193     61.3019
   825.0000   -193.4680     19.2466     23.7824    112.4139     75.4757
   825.2500   -191.6026     18.1135     21.3090     78.9487     84.8207
   825.5000   -189.9093     17.0799     19.2367     55.2484     97.3302
   825.7500   -188.3532     16.1452     17.5143     39.5350    104.0850
   826.0000   -186.8783     15.3066     16.0897     29.7338    111.4300
   826.2500   -185.4303     14.5611     14.9156     23.9533    114.5641
   826.5000   -183.9861     13.9066     13.9523     20.7211    117.1295
   826.7500   -182.5651     13.3414     13.1677     19.0073    117.7700
   827.0000   -181.2314     12.8644     12.5362     18.1478    117.6473
   827.2500   -180.0836     12.4749     12.0377     17.7385    117.0810
   827.5000   -179.2295     12.1717     11.6562     17.5419    115.9506
   827.7500   -178.7697     11.9534     11.3795     17.4259    115.3282
   828.0000   -178.7755     11.8183     11.1981     17.3302    115.0008
   828.2500   -179.2767     11.7640     11.1050     17.2493    115.2275
   828.5000   -180.2585     11.7881     11.0953     17.2257    116.1277
   828.7500   -181.6569     11.8873     11.1668     17.3467    117.0269
   829.0000   -183.3656     12.0580     11.3191     17.7375    118.5182
   829.2500   -185.2401     12.2957     11.5539     18.5462    119.2586
   829.5000   -187.1060     12.5950     11.8742     19.9163    119.3727
   829.7500   -188.7826     12.9498     12.2838     21.9487    118.5700
   830.0000   -190.0995     13.3533     12.7857     24.6596    115.7573
   830.2500   -190.9240     13.7988     13.3812     27.9434    112.6116
   830.5000   -191.1917     14.2796     14.0679     31.5591    106.1513
   830.7500   -190.9244     14.7905     14.8383     35.1504    101.4046
   831.0000   -190.2356     15.3278     15.6785     38.3047     95.4181
   831.2500   -189.3219     15.8899     16.5684     40.6414     92.8533
   831.5000   -188.4283     16.4769     17.4830     41.9051     91.1398
   831.7500   -187.7964     17.0906     18.3961     42.0346     91.1199
   832.0000   -187.6126     17.7340     19.2845     41.1815     92.4732
   832.2500   -187.9722     18.4102     20.1333     39.6728     94.1731
   832.5000   -188.8610     19.1217     20.9398     37.9328     97.3320
   832.7500   -190.1641     19.8704     21.7151     36.4012     99.2861
   833.0000   -191.7027     20.6567     22.4828     35.4754    101.0555
   833.2500   -193.2802     21.4792     23.2765     35.4930    101.1370
   833.5000   -194.7302     22.3352     24.1358     36.7447     99.7017
   833.7500   -195.9434     23.2202     25.1029     39.4922     98.1211
   834.0000   -196.8786     24.1280     26.2193     43.9606     95.5903
   834.2500   -197.5474     25.0513     27.5210     50.2949     93.8821
   834.5000   -197.9964     25.9820     29.0366     58.4918     90.6753
   834.7500   -198.2809     26.9128     30.7823     68.3351     87.6758
   835.0000   -198.4560     27.8376     32.7584     79.3743     81.7402
   835.2500   -198.5760     28.7542     34.9446     90.9730     77.1191
   835.5000   -198.7039     29.6644     37.3010    102.4374     69.9642
   835.7500   -198.9176     30.5756     39.7699    113.2007     65.4834
   836.0000   -199.3033     31.5022     42.2829    123.0130     59.7466
   836.2500   -199.9494     32.4621     44.7727    132.0788     56.7077
   836.5000   -200.9241     33.4772     47.1826    141.0830     53.3411
   836.7500   -202.2556     34.5696     49.4711    151.0557     51.9673
   837.0000   -203.9191     35.7567     51.6066    163.0582     51.4554
   837.2500   -205.8321     37.0478     53.5613    177.7345     52.0290
   837.5000   -207.8634     38.4379     55.3010    194.8516     53.1579
   837.7500   -209.8511     39.9026     56.7828    213.0192     53.2056
   838.0000   -211.6284     41.3987     57.9599    229.7758     51.4869
   838.2500   -213.0625     42.8642     58.7962    242.1185     49.5376
   838.5000   -214.0767     44.2269     59.2852    247.3588     46.9140
   838.7500   -214.6611     45.4152     59.4633    244.0037     46.1052
   839.0000   -214.8665     46.3703     59.4092    232.3026     46.7054
   839.2500   -214.7754     47.0530     59.2332    214.2272     48.2085
   839.5000   -214.4672     47.4475     59.0506    192.8978     51.8926
   839.7500   -213.9989     47.5599     58.9624    171.7049     55.1550
   840.0000   -213.3993     47.4114     59.0369    153.4781     60.5471
   840.2500   -212.6876     47.0348     59.2989    139.9756     63.7134
   840.5000   -211.8927     46.4741     59.7271    131.7807     66.3789
   840.7500   -211.0732     45.7819     60.2564    128.5163     66.1944
   841.0000   -210.3182     45.0117     60.7955    129.2027     62.8513
   841.2500   -209.7233     44.2159     61.2338    132.6063     59.0454
   841.5000   -209.3677     43.4338     61.4705    137.4915     52.3425
   841.7500   -209.2833     42.6867     61.4265    142.7751     47.9608
   842.0000   -209.4470     41.9712     61.0599    147.6068     42.1456
   842.2500   -209.7847     41.2640     60.3588    151.4056     38.7649
   842.5000   -210.1904     40.5240     59.3365    153.8642     34.2143
   842.7500   -210.5508     39.7044     58.0143    154.9082     31.4416
   843.0000   -210.7640     38.7666     56.4121    154.6101     27.6369
   843.2500   -210.7508     37.6899     54.5485    153.0661     25.4174
   843.5000   -210.4581     36.4789     52.4421    150.2702     23.0037
   843.7500   -209.8594     35.1610     50.1186    146.0370     22.3557
   844.0000   -208.9547     33.7771     47.6194    140.0252     23.2166
   844.2500   -207.7775     32.3731     45.0031    131.8761     25.1032
   844.5000   -206.3897     30.9891     42.3418    121.4220     30.2077
   844.7500   -204.8887     29.6559     39.7142    108.8764     35.4684
   845.0000   -203.3961     28.3951     37.1941     94.9052     46.4831
   845.2500   -202.0393     27.2192     34.8439     80.5296     55.5456
