~Version Information
VERS.                      2.0: CWLS Log ASCII Standard - VERSION 2.0
WRAP.                       NO: One line per depth step
~Well Information Block
STRT.FT               583.0000: 
STOP.FT              1700.0000: 
STEP.FT                 0.1000: 
NULL.                -999.2500: 
COMP.          Pioneer Natural Resources: COMPANY
WELL.          Scott Canyon 11-18 Tr: WELL
FLD.           Purgatoire River: FIELD
LOC.           411' FNL & 580' FWL: LOCATION
PROV.                 Colorado: PROVINCE
CNTY.               Las Animas: COUNTRY
SRVC.                Patterson: SERVICE COMPANY
DATE.          Thu Feb 17 15:41:32 2005: LOG DATE
UWI.           05 071 08286 00: UNIQUE WELL ID
~Curve Information Block
DEPT.FT            0 000 00 00: Depth
DCAL.in                       : CDL Caliper
RHOB.g/cc                     : CDL Bulk Density
RHOC.g/cc                     : CDL Density Correction
DPOR.pu                       : CDL Density Porosity
GR.GAPI                       : Gamma Ray
NPOR.pu                       : Neutron Porosity
~Parameter Information Block
~A  Depth       DCAL        RHOB        RHOC        DPOR         GR         NPOR    
# ...
  1101.4000      8.0657      1.7057     -0.0522     57.2319    105.1239     31.7924
  1101.5000      8.0310      1.6625      0.0081     59.8493    103.1451     32.4764
  1101.6000      8.0310      1.6350      0.0337     61.5138     99.7253     32.6982
  1101.7000      8.0310      1.6369      0.0788     61.3982     94.8014     32.1800
  1101.8000      8.0188      1.6601      0.0619     59.9951     87.1001     31.3196
  1101.9000      8.0188      1.6939      0.0455     57.9448     80.9361     31.1522
  1102.0000      8.0399      1.7390      0.0272     55.2095     78.7275     31.8086
  1102.1000      8.0399      1.8047      0.0684     51.2320     77.3404     32.5712
  1102.2000      8.0399      1.8889      0.1079     46.1265     74.8658     33.0030
  1102.3000      8.0306      1.9713      0.1484     41.1363     74.1733     33.0274
  1102.4000      8.0306      2.0345      0.1651     37.3004     76.4414     32.7360
  1102.5000      8.0897      2.0807      0.0975     34.5046     78.3731     32.3757
  1102.6000      8.0897      2.1026      0.1568     33.1742     78.2836     32.2740
  1102.7000      8.0897      2.0730      0.0675     34.9690     77.5100     32.5282
  1102.8000      8.1114      1.9799      0.0219     40.6135     77.3528     32.8217
  1102.9000      8.1114      1.8366     -0.0546     49.2964     76.9221     33.0323
  1103.0000      8.2430      1.6721     -0.0965     59.2639     74.9321     33.5363
  1103.1000      8.2430      1.5209     -0.1242     68.4324     72.1060     34.3255
  1103.2000      8.2430      1.4072     -0.1724     75.3195     68.3630     34.8017
  1103.3000      8.3514      1.3332     -0.1444     79.8082     63.7459     34.7362
  1103.4000      8.3514      1.2879     -0.0785     82.5495     59.2172     34.6689
  1103.5000      8.5654      1.2675     -0.0885     83.7852     55.6260     34.7285
  1103.6000      8.5654      1.2660     -0.0123     83.8770     53.7949     34.6670
  1103.7000      8.5654      1.2705     -0.0232     83.6078     54.8879     34.6497
  1103.8000      8.6596      1.2801     -0.0473     83.0269     57.4301     34.7339
  1103.9000      8.6596      1.2978     -0.0059     81.9521     58.8323     34.8835
  1104.0000      8.5505      1.3294     -0.0701     80.0357     58.9507     35.2729
  1104.1000      8.5505      1.3985     -0.0815     75.8455     58.7548     35.7379
  1104.2000      8.5505      1.5173     -0.0358     68.6483     60.1712     35.5231
  1104.3000      8.3025      1.6686      0.0775     59.4780     65.3315     34.6342
  1104.4000      8.3025      1.8290      0.0932     49.7555     74.9900     34.1036
  1104.5000      8.1214      1.9777      0.0968     40.7455     85.9333     34.1009
  1104.6000      8.1214      2.0976      0.2354     33.4791     93.0236     33.8605
  1104.7000      8.1214      2.2034      0.1627     27.0647     96.2092     33.2535
  1104.8000      8.0665      2.3235      0.1984     19.7871    101.0074     32.5822
  1104.9000      8.0665      2.4247      0.2477     13.6529    110.2594     32.0616
  1105.0000      8.0481      2.4535      0.1432     11.9067    119.4965     31.6377
  1105.1000      8.0481      2.4352     -0.0213     13.0170    123.8704     30.8350
  1105.2000      8.0481      2.4373     -0.0176     12.8903    122.3040     29.5491
  1105.3000      8.0436      2.4788      0.0140     10.3764    116.6587     28.6101
  1105.4000      8.0436      2.5286      0.1000      7.3565    110.9676     28.5344
  1105.5000      8.0268      2.5533      0.1482      5.8597    109.0758     28.4896
  1105.6000      8.0268      2.5506      0.1150      6.0244    110.4573     27.9030
  1105.7000      8.0268      2.5468      0.0501      6.2543    113.8674     27.2989
  1105.8000      8.0415      2.5604      0.0600      5.4324    119.7643     26.7035
  1105.9000      8.0415      2.5775      0.1015      4.3920    125.1883     25.6673
  1106.0000      8.0268      2.5780      0.0757      4.3652    124.4139     24.4741
  1106.1000      8.0268      2.5640      0.0261      5.2144    115.6187     23.7368
  1106.2000      8.0268      2.5503      0.0122      6.0433    103.4530     23.4905
  1106.3000      7.9306      2.5438      0.0636      6.4344     93.9947     23.7119
  1106.4000      7.9306      2.5409      0.0239      6.6107     89.3934     24.2033
  1106.5000      7.9218      2.5406      0.0275      6.6327     89.5324     24.6289
  1106.6000      7.9218      2.5479      0.0366      6.1867     92.3615     24.9779
  1106.7000      7.9218      2.5687      0.0369      4.9275     94.3792     24.6991
  1106.8000      7.8897      2.5921      0.0995      3.5089     95.8955     23.6697
  1106.9000      7.8897      2.5905      0.1321      3.6042     99.1128     23.0960
  1107.0000      7.8732      2.5617      0.0611      5.3489    102.9494     23.2107
  1107.1000      7.8732      2.5329      0.0207      7.0944    107.1234     23.0246
  1107.2000      7.8732      2.5167      0.0459      8.0780    111.0837     22.6216
  1107.3000      7.9177      2.5077     -0.0253      8.6250    110.6702     22.7166
  1107.4000      7.9177      2.5058     -0.0177      8.7385    105.8523     23.1368
  1107.5000      7.9281      2.5144     -0.0089      8.2199    102.2215     23.1748
  1107.6000      7.9281      2.5355      0.0321      6.9422    101.3856     22.7866
  1107.7000      7.9281      2.5669      0.0982      5.0337    102.5282     22.4515
  1107.8000      7.8964      2.5942      0.1192      3.3794    106.1687     22.6244
  1107.9000      7.8964      2.6077      0.0885      2.5665    111.1819     23.4243
  1108.0000      7.8775      2.6147      0.1266      2.1407    114.8579     24.3584
  1108.1000      7.8775      2.6135      0.1130      2.2095    114.1045     24.7295
  1108.2000      7.8775      2.5940      0.0729      3.3912    109.7618     24.3068
  1108.3000      7.8632      2.5644      0.0121      5.1892    108.2341     23.5767
  1108.4000      7.8632      2.5443      0.0599      6.4065    112.1043     23.2348
  1108.5000      7.8156      2.5497      0.0488      6.0815    116.8666     23.6531
  1108.6000      7.8156      2.5785      0.1416      4.3332    117.5611     24.5046
  1108.7000      7.8156      2.5980      0.1491      3.1496    112.6214     25.0779
  1108.8000      7.8134      2.5952      0.0635      3.3240    105.4208     25.1556
  1108.9000      7.8134      2.6004      0.0790      3.0067    103.0861     25.3146
  1109.0000      7.8440      2.6212      0.1354      1.7445    106.2469     25.8353
  1109.1000      7.8440      2.6307      0.1377      1.1721    108.3863     26.0459
  1109.2000      7.8440      2.6247      0.0725      1.5336    104.7771     25.5903
  1109.3000      7.8681      2.6232      0.1049      1.6255     97.5614     25.0681
  1109.4000      7.8681      2.6316      0.0732      1.1128     91.1991     25.1621
  1109.5000      7.9030      2.6385      0.0893      0.6990     86.8880     25.9400
  1109.6000      7.9030      2.6343      0.0474      0.9541     85.5095     26.7116
  1109.7000      7.9030      2.6303      0.0470      1.1962     85.8331     26.9590
  1109.8000      7.9127      2.6395      0.0686      0.6380     86.5061     26.9126
  1109.9000      7.9127      2.6467      0.1231      0.1986     90.6744     26.8811
  1110.0000      7.8420      2.6294      0.0890      1.2489    100.8047     27.2059
  1110.1000      7.8420      2.6004      0.0612      3.0087    113.5692     27.7022
  1110.2000      7.8420      2.5943      0.0514      3.3735    121.3742     27.6136
  1110.3000      7.8040      2.6138      0.1625      2.1928    121.5848     27.0958
  1110.4000      7.8040      2.6277      0.2373      1.3488    119.8396     26.8983
  1110.5000      7.8036      2.6264      0.2075      1.4329    120.8782     26.8649
  1110.6000      7.8036      2.6225      0.2227      1.6643    122.9869     26.8891
  1110.7000      7.8036      2.6162      0.1629      2.0479    125.3710     27.2453
  1110.8000      7.8234      2.6048      0.1369      2.7382    131.0443     27.3903
  1110.9000      7.8234      2.6013      0.1056      2.9494    135.8512     27.1373
