~Version Information
VERS.                      2.0: CWLS Log ASCII Standard - VERSION 2.0
WRAP.                       NO: One line per depth step
~Well Information Block
STRT.FT               590.0000: 
STOP.FT              1563.5000: 
STEP.FT                 0.2500: 
NULL.                -999.2500: 
COMP.          Petrogulf Corporation: COMPANY
WELL.             State 16-43R: WELL
FLD.           Purgatorie River: FIELD
LOC.           2538' FSL & 716' FEL: LOCATION
PROV.                 Colorado: PROVINCE
CNTY.               Las Animas: COUNTRY
SRVC.                Patterson: SERVICE COMPANY
DATE.          Tue Aug 09 14:21:37 2005: LOG DATE
UWI.                          : UNIQUE WELL ID
~Curve Information Block
DEPT.FT            0 000 00 00: Depth
RILD.Ohm-m                    : DIL Deep Resistivity
RILM.Ohm-m                    : DIL Medium Resistivity
GR.GAPI                       : Gamma Ray
~Parameter Information Block
~A  Depth       RILD        RILM         GR     
# ...
  1508.5000     10.2696     10.6157    126.4720
  1508.7500     10.3154     10.4989    128.7449
  1509.0000     10.5256     10.3894    135.1720
  1509.2500     10.9079     10.5983    137.4841
  1509.5000     10.9252     10.6037    137.6597
  1509.7500     11.1065     10.9302    139.1252
  1510.0000     11.1249     11.0300    140.5787
  1510.2500     11.1652     11.3771    135.6160
  1510.5000     11.2291     11.7271    124.2976
  1510.7500     11.5322     12.0179    126.7718
  1511.0000     11.7907     12.1924    124.0761
  1511.2500     12.0115     12.4681    123.4318
  1511.5000     12.4307     12.6817    115.0232
  1511.7500     12.5655     13.4566    115.5882
  1512.0000     13.2428     13.4064    127.0829
  1512.2500     13.4978     14.1224    123.2482
  1512.5000     14.4753     14.6632    120.8624
  1512.7500     15.0411     15.6887    114.8924
  1513.0000     15.4639     15.8796     92.9068
  1513.2500     15.9239     17.8648     85.4217
  1513.5000     16.4624     18.5450     72.5725
  1513.7500     16.8805     19.7451     66.9296
  1514.0000     17.0322     20.9661     65.9487
  1514.2500     18.0430     21.3406     59.0875
  1514.5000     18.3640     21.3750     50.4567
  1514.7500     18.3560     21.4688     51.1774
  1515.0000     19.1161     21.5688     53.5689
  1515.2500     19.3551     22.2862     53.4547
  1515.5000     18.9204     22.7061     58.0747
  1515.7500     18.7934     22.9591     61.9130
  1516.0000     19.5351     23.7662     56.6354
  1516.2500     19.1509     23.5218     58.1931
  1516.5000     18.7485     22.6220     58.3125
  1516.7500     18.8336     22.4923     61.1669
  1517.0000     18.7120     21.9721     58.0741
  1517.2500     19.0298     21.8483     57.0185
  1517.5000     18.6048     21.8223     52.5379
  1517.7500     19.4463     21.9804     48.4656
  1518.0000     19.2334     21.4818     46.1681
  1518.2500     19.0335     22.0866     45.0911
  1518.5000     19.3518     22.0881     37.9668
  1518.7500     19.6119     21.9036     36.2526
  1519.0000     19.3565     22.0173     34.3412
  1519.2500     19.0898     22.9360     35.9160
  1519.5000     19.0182     22.9973     36.5136
  1519.7500     18.4708     22.0764     41.9730
  1520.0000     17.8551     22.2989     35.4847
  1520.2500     17.9784     22.4465     36.6085
  1520.5000     17.8606     22.9441     32.8658
  1520.7500     17.0688     22.0047     34.1778
  1521.0000     18.5230     21.5626     34.2396
  1521.2500     18.8864     21.6273     39.2203
  1521.5000     19.1836     20.8480     42.0271
  1521.7500     19.3056     20.4040     45.9625
  1522.0000     20.4447     20.2414     62.3093
  1522.2500     21.3654     20.6665     74.3277
  1522.5000     22.3542     21.0826    108.2347
  1522.7500     22.6923     23.3067    117.9431
  1523.0000     23.3112     25.7116    126.8797
  1523.2500     22.8635     27.2607    121.7000
  1523.5000     24.1876     28.2757     94.2985
  1523.7500     24.1649     30.5124     83.4092
  1524.0000     24.9712     30.6854     61.3012
  1524.2500     24.0409     31.9571     47.7947
  1524.5000     24.4531     34.1894     36.0171
  1524.7500     25.9449     32.4537     31.2384
  1525.0000     27.1814     31.2794     28.0805
  1525.2500     28.6003     33.0057     29.9049
  1525.5000     29.7135     34.0621     29.8069
  1525.7500     29.0080     36.3469     29.9808
  1526.0000     30.2068     38.6259     21.5904
  1526.2500     31.8031     40.0091     18.4337
  1526.5000     31.4381     39.6697     19.9666
  1526.7500     31.7353     40.1613     21.4678
  1527.0000     31.1316     44.8448     16.7832
  1527.2500     32.1291     42.3384     16.7716
  1527.5000     29.4014     42.3619     18.0661
  1527.7500     32.4289     42.1782     18.6657
  1528.0000     33.3411     45.0804     15.9724
  1528.2500     32.0872     45.7860     15.1274
  1528.5000     32.2144     44.9063     14.1397
  1528.7500     30.3717     47.5276     18.4728
  1529.0000     29.2399     48.0766     17.2147
  1529.2500     27.6224     45.3997     16.6324
  1529.5000     25.0157     45.3457     19.0406
  1529.7500     23.6724     39.8388     11.9665
  1530.0000     21.0609     33.4359      0.3045
  1530.2500     20.7870     29.1540      0.0016
  1530.5000     20.0053     25.1747   -999.2500
  1530.7500     18.4717     22.1343   -999.2500
  1531.0000     17.6372     18.6995   -999.2500
  1531.2500     16.8710     17.3715   -999.2500
  1531.5000     16.0875     15.4803   -999.2500
  1531.7500     15.3858     14.7755   -999.2500
  1532.0000     15.0214     14.5037   -999.2500
  1532.2500     14.4923     13.9967   -999.2500
  1532.5000     13.7999     13.7331   -999.2500
  1532.7500     12.9716     13.2348   -999.2500
  1533.0000     12.4455     12.8698   -999.2500
  1533.2500     12.0381     12.5535   -999.2500
  1533.5000     11.9869     12.2806   -999.2500
  1533.7500     11.9311     12.5366   -999.2500
  1534.0000     11.5647     12.4740   -999.2500
  1534.2500     11.8119     12.4153   -999.2500
  1534.5000     11.9560     12.5998   -999.2500
  1534.7500     11.8709     12.4710   -999.2500
  1535.0000     11.8418     12.5611   -999.2500
  1535.2500     11.7737     12.5185   -999.2500
  1535.5000     11.6753     12.6039   -999.2500
  1535.7500     11.7106     12.5557   -999.2500
  1536.0000     11.7686     12.3826   -999.2500
  1536.2500     11.4639     12.5027   -999.2500
  1536.5000     11.4719     12.4418   -999.2500
  1536.7500     11.3093     12.5192   -999.2500
  1537.0000     11.0754     12.6719   -999.2500
  1537.2500     11.2708     12.3342   -999.2500
  1537.5000     10.9692     12.1727   -999.2500
  1537.7500     10.8543     12.3604   -999.2500
  1538.0000     11.0389     11.8635   -999.2500
  1538.2500     10.5582     11.6220   -999.2500
  1538.5000     10.3769     11.3937   -999.2500
  1538.7500     10.2835     11.3480   -999.2500
  1539.0000      9.9976     11.1566   -999.2500
  1539.2500     10.0118     10.9736   -999.2500
  1539.5000      9.9380     10.7141   -999.2500
  1539.7500      9.8918     10.3415   -999.2500
  1540.0000      9.9716     10.2619   -999.2500
  1540.2500      9.9282      9.9267   -999.2500
  1540.5000     10.0759      9.9864   -999.2500
  1540.7500     10.2350     10.1125   -999.2500
  1541.0000     10.5269     10.0973   -999.2500
  1541.2500     10.8408     10.4928   -999.2500
  1541.5000     10.9457     10.9051   -999.2500
  1541.7500     11.2085     11.4182   -999.2500
  1542.0000     11.4320     12.3278   -999.2500
  1542.2500     11.6401     13.4184   -999.2500
  1542.5000     11.9347     14.2145   -999.2500
  1542.7500     12.1803     15.5100   -999.2500
  1543.0000     12.2967     15.9126   -999.2500
  1543.2500     12.6300     16.6242   -999.2500
  1543.5000     13.0026     16.7085   -999.2500
  1543.7500     13.4472     17.0663   -999.2500
  1544.0000     13.6758     18.0732   -999.2500
  1544.2500     14.3484     18.6143   -999.2500
  1544.5000     14.1601     18.7128   -999.2500
  1544.7500     14.3656     18.3270   -999.2500
  1545.0000     14.5145     18.1193   -999.2500
  1545.2500     13.7342     17.5992   -999.2500
  1545.5000     13.3124     17.0458   -999.2500
  1545.7500     13.1834     16.4216   -999.2500
  1546.0000     13.3905     16.6878   -999.2500
  1546.2500     13.4341     16.9962   -999.2500
  1546.5000     13.5233     17.9782   -999.2500
  1546.7500     13.3810     18.3960   -999.2500
  1547.0000     13.4773     18.9633   -999.2500
  1547.2500     13.6975     19.2603   -999.2500
  1547.5000     13.8483     19.9594   -999.2500
  1547.7500     13.7359     20.1849   -999.2500
  1548.0000     13.8052     20.1562   -999.2500
  1548.2500     13.9149     21.1707   -999.2500
  1548.5000     13.8655     21.7504   -999.2500
  1548.7500     13.8093     21.4741   -999.2500
  1549.0000     14.8208     21.4043   -999.2500
  1549.2500     15.2032     21.0232   -999.2500
  1549.5000     15.2110     20.8558   -999.2500
  1549.7500     15.0055     19.5678   -999.2500
  1550.0000     14.9280     19.3325   -999.2500
