~Version Information
VERS.                      2.0: CWLS Log ASCII Standard - VERSION 2.0
WRAP.                       NO: One line per depth step
~Well Information Block
STRT.FT               750.6000: 
STOP.FT              2495.5000: 
STEP.FT                 0.1000: 
NULL.                -999.2500: 
COMP.                         : COMPANY
WELL.                         : WELL
FLD.                          : FIELD
LOC.                          : LOCATION
CNTY.                         : COUNTY
SRVC.                         : SERVICE COMPANY
DATE.          Sat Feb 28 14:05:57 2004: LOG DATE
UWI.                          : UNIQUE WELL ID
STAT.                         : STATE
~Curve Information Block
DEPT.FT            0 000 00 00: Depth
DCAL.in                       : CDL Caliper
RHOB.g/cc                     : CDL Bulk Density
RHOC.g/cc                     : CDL Density Correction
DPOR.pu                       : CDL Density Porosity
GR.GAPI                       : Gamma Ray
NPOR.pu                       : Neutron Porosity
~Parameter Information Block
~A  Depth       DCAL        RHOB        RHOC        DPOR         GR         NPOR    
# ...
  1461.0000      8.0709      2.5780      0.0767      4.3634    177.6388     28.2815
  1461.1000      8.0709      2.5815      0.1177      4.1531    175.0072     28.4493
  1461.2000      8.0709      2.5763      0.0778      4.4643    170.4137     28.6668
  1461.3000      8.0928      2.5642     -0.0040      5.1976    170.6625     28.7527
  1461.4000      8.0928      2.5556      0.1277      5.7203    177.9790     29.0096
  1461.5000      8.1304      2.5412      0.1484      6.5961    186.5238     29.5442
  1461.6000      8.1304      2.5161      0.0632      8.1140    189.4712     30.0622
  1461.7000      8.1304      2.4841      0.1083     10.0516    182.8509     30.3361
  1461.8000      8.2070      2.4483      0.0059     12.2252    170.8537     30.3177
  1461.9000      8.2070      2.4166      0.0446     14.1457    165.3161     30.3230
  1462.0000      8.2749      2.3803      0.0175     16.3431    168.1335     30.6045
  1462.1000      8.2749      2.3235     -0.0097     19.7876    170.6898     31.1036
  1462.2000      8.2749      2.2436      0.0076     24.6300    167.7016     31.5321
  1462.3000      8.2924      2.1454      0.0305     30.5840    162.0519     31.4631
  1462.4000      8.2924      2.0501     -0.0183     36.3562    160.6043     30.9060
  1462.5000      8.3072      1.9924     -0.0836     39.8527    161.2348     30.5602
  1462.6000      8.3072      1.9825     -0.0054     40.4548    155.9384     30.9371
  1462.7000      8.3072      2.0046      0.0182     39.1140    147.9921     31.7339
  1462.8000      8.3341      2.0530      0.0727     36.1833    146.6930     32.3999
  1462.9000      8.3341      2.1340      0.0977     31.2747    152.3567     32.5213
  1463.0000      8.3260      2.2363      0.2287     25.0725    157.3213     32.3012
  1463.1000      8.3260      2.3303      0.2734     19.3786    158.0152     32.2744
  1463.2000      8.3260      2.3933      0.2628     15.5552    157.2692     32.1843
  1463.3000      8.3011      2.4159      0.2115     14.1853    153.8731     31.5378
  1463.4000      8.3011      2.4160      0.0688     14.1835    143.6852     30.5022
  1463.5000      8.3140      2.4238      0.0867     13.7105    131.6258     29.7728
  1463.6000      8.3140      2.4388      0.0620     12.7995    126.5119     29.7674
  1463.7000      8.3140      2.4493      0.0124     12.1621    132.9025     29.8994
  1463.8000      8.3374      2.4594      0.0384     11.5540    146.5705     29.7061
  1463.9000      8.3374      2.4722      0.0651     10.7777    156.0961     29.3872
  1464.0000      8.4170      2.4848      0.0450     10.0133    159.7511     29.0336
  1464.1000      8.4170      2.4935      0.0626      9.4857    166.2224     28.7758
  1464.2000      8.4170      2.4968      0.0627      9.2843    181.3489     28.8274
  1464.3000      8.4824      2.5020      0.0823      8.9673    200.0937     29.0172
  1464.4000      8.4824      2.5120      0.1112      8.3658    209.2516     28.9752
  1464.5000      8.4759      2.5204      0.1070      7.8554    202.1631     28.6912
  1464.6000      8.4759      2.5293      0.0919      7.3166    187.1100     28.2900
  1464.7000      8.4759      2.5481      0.0863      6.1738    173.9359     27.8520
  1464.8000      8.6225      2.5770      0.1052      4.4241    164.9358     27.4074
  1464.9000      8.6225      2.6016      0.1422      2.9309    158.9739     26.8818
  1465.0000      8.6123      2.6039      0.1616      2.7953    151.3629     26.1253
  1465.1000      8.6123      2.5837      0.1139      4.0161    144.2981     25.2043
  1465.2000      8.6123      2.5638      0.0332      5.2268    144.0253     24.4531
  1465.3000      8.2412      2.5555      0.0893      5.7273    143.2808     23.9949
  1465.4000      8.2412      2.5528      0.0648      5.8885    136.6968     23.5687
  1465.5000      8.1442      2.5613      0.0580      5.3769    130.2336     23.0915
  1465.6000      8.1442      2.5854      0.0669      3.9177    125.9472     22.6245
  1465.7000      8.1442      2.6083      0.0880      2.5271    123.2915     22.2401
  1465.8000      8.1766      2.6100      0.1114      2.4225    122.8963     21.9590
  1465.9000      8.1766      2.5880      0.1201      3.7599    124.3563     21.5667
  1466.0000      8.1516      2.5622      0.0616      5.3237    127.6918     20.8583
  1466.1000      8.1516      2.5528      0.0825      5.8920    129.4557     20.1085
  1466.2000      8.1516      2.5604      0.0321      5.4296    125.3538     19.6359
  1466.3000      8.0993      2.5816      0.0455      4.1429    116.5930     19.3614
  1466.4000      8.0993      2.6139      0.0403      2.1871    107.0613     19.2306
  1466.5000      8.0608      2.6530      0.0275     -0.1816    100.6375     19.1423
  1466.6000      8.0608      2.6912      0.1108     -2.4965     98.8017     18.8268
  1466.7000      8.0608      2.7164      0.1125     -4.0260     99.4269     18.5085
  1466.8000      8.0270      2.7276      0.1178     -4.7050     98.9664     18.5240
  1466.9000      8.0270      2.7298      0.1520     -4.8358    100.2899     18.6390
  1467.0000      8.0200      2.7271      0.1595     -4.6733    108.8923     18.5095
  1467.1000      8.0200      2.7243      0.1319     -4.5046    119.6690     18.2611
  1467.2000      8.0200      2.7113      0.1425     -3.7124    121.9721     18.1121
  1467.3000      8.0239      2.6733      0.1022     -1.4143    114.8126     18.1087
  1467.4000      8.0239      2.6206      0.0586      1.7837    107.2933     18.5226
  1467.5000      8.0234      2.5741      0.1037      4.6005    103.4726     19.1978
  1467.6000      8.0234      2.5497      0.0264      6.0771    100.8504     19.4652
  1467.7000      8.0234      2.5635      0.0399      5.2425    100.8605     19.3319
  1467.8000      8.0216      2.6108      0.0818      2.3777    106.1545     19.5514
  1467.9000      8.0216      2.6495      0.1488      0.0293    113.5005     20.6542
  1468.0000      8.0231      2.6452      0.1002      0.2890    120.3093     22.0348
  1468.1000      8.0231      2.6101      0.0192      2.4155    126.2896     22.5767
  1468.2000      8.0231      2.5729      0.0164      4.6704    130.9431     22.3542
  1468.3000      8.0301      2.5491     -0.0002      6.1157    135.3422     22.4641
  1468.4000      8.0301      2.5394      0.0113      6.7033    138.9356     23.1736
  1468.5000      8.0343      2.5479      0.0454      6.1908    139.8850     23.7292
  1468.6000      8.0343      2.5822      0.0730      4.1105    140.2769     23.8080
  1468.7000      8.0343      2.6231      0.1394      1.6325    145.6277     23.9576
  1468.8000      8.0321      2.6403      0.1474      0.5870    156.5865     24.8717
  1468.9000      8.0321      2.6393      0.0714      0.6480    167.6948     25.9803
  1469.0000      8.0322      2.6478      0.0779      0.1362    170.9375     26.1766
  1469.1000      8.0322      2.6727      0.1172     -1.3781    162.9184     25.8285
  1469.2000      8.0322      2.6903      0.2247     -2.4432    152.5697     25.7990
  1469.3000      8.0359      2.6807      0.1591     -1.8608    149.1186     26.1267
  1469.4000      8.0359      2.6577      0.1454     -0.4697    151.3913     26.5431
  1469.5000      8.0376      2.6336      0.1246      0.9941    154.1304     26.8499
  1469.6000      8.0376      2.6080      0.0057      2.5472    152.1181     26.8650
  1469.7000      8.0376      2.5842      0.0901      3.9873    142.2087     26.6045
  1469.8000      8.0492      2.5670     -0.0025      5.0297    130.6408     26.5507
  1469.9000      8.0492      2.5644      0.0281      5.1878    128.1484     27.0862
  1470.0000      8.0689      2.5722      0.0173      4.7177    134.3054     27.9530
  1470.1000      8.0689      2.5807      0.0679      4.2015    142.3175     28.4172
  1470.2000      8.0689      2.5854      0.1102      3.9138    150.0715     27.9522
  1470.3000      8.0771      2.5817      0.0922      4.1404    156.4296     27.2058
  1470.4000      8.0771      2.5664      0.0907      5.0665    154.0062     26.9655
  1470.5000      8.0668      2.5408      0.0079      6.6211    141.7539     26.9153
