~Version Information
VERS.                      2.0: CWLS Log ASCII Standard - VERSION 2.0
WRAP.                       NO: One line per depth step
~Well Information Block
STRT.FT               546.0000: 
STOP.FT              1771.5000: 
STEP.FT                 0.2500: 
NULL.                -999.2500: 
COMP.          Petrogulf Corporation: COMPANY
WELL.             McLeod 9-42R: WELL
FLD.           Purgatorie River: FIELD
LOC.           1748' FNL & 372' FEL: LOCATION
PROV.                 Colorado: PROVINCE
CNTY.               Las Animas: COUNTRY
SRVC.                Patterson: SERVICE COMPANY
DATE.          Tue Aug 16 11:11:38 2005: LOG DATE
UWI.           071 08092  : UNIQUE WELL ID
~Curve Information Block
DEPT.FT            0 000 00 00: Depth
SP.mV                         : DIL Spontaneous Potential
RILD.Ohm-m                    : DIL Deep Resistivity
RILM.Ohm-m                    : DIL Medium Resistivity
RLL3.Ohm-m                    : DIL Shallow Resistivity
GR.GAPI                       : Gamma Ray
~Parameter Information Block
~A  Depth        SP         RILD        RILM        RLL3         GR     
# ...
  1554.0000     86.3011     14.1567     12.6158     28.6272    118.2014
  1554.2500     85.6207     14.4172     12.6649     23.1645    121.7201
  1554.5000     85.6414     15.2026     13.1590     19.6171    131.2028
  1554.7500     83.4426     18.1314     13.2401     16.5969    131.1478
  1555.0000     81.4751     17.8521     14.3967     14.6453    123.5966
  1555.2500     80.7350     18.5090     15.0878     13.7156    110.8563
  1555.5000     80.8457     18.3573     16.0791     14.3471     94.2508
  1555.7500     78.5701     17.7468     18.0223     18.3300     90.0004
  1556.0000     78.7844     18.3845     19.5410     31.6880     82.9722
  1556.2500     78.8669     17.9390     18.3903     56.3774     94.8962
  1556.5000     79.1908     19.1046     17.2456     76.1390     98.1661
  1556.7500     79.2452     19.0415     16.7193     78.5434    103.2278
  1557.0000     82.4748     19.4881     15.8148     53.4140    123.5147
  1557.2500     83.0108     18.9113     15.7209     31.6996    122.2825
  1557.5000     84.7163     19.6196     15.5597     17.1199    108.4606
  1557.7500     83.7264     21.0159     17.0364     13.9123    107.7453
  1558.0000     85.0614     21.6606     19.5720     17.4514    100.2335
  1558.2500     83.2552     20.9555     19.4725     25.2436     97.0049
  1558.5000     83.7244     20.7220     17.8586     39.0783     95.4461
  1558.7500     83.6336     19.0549     17.9218     50.0731     98.8684
  1559.0000     83.8294     18.4412     15.7525     48.8894    108.8263
  1559.2500     83.5025     18.6202     15.3201     39.0485    116.5593
  1559.5000     81.6604     21.2365     14.4457     25.8847    114.9300
  1559.7500     80.3355     18.2763     14.2042     18.4358    118.2609
  1560.0000     79.0978     17.2500     14.6532     14.6068    109.0401
  1560.2500     80.1360     17.7569     14.6277     15.2825    108.5688
  1560.5000     79.9618     18.6343     15.0492     20.1116    109.6423
  1560.7500     79.6151     17.3355     15.4530     24.2064    115.9079
  1561.0000     79.6078     15.9094     14.1858     26.7731    114.5252
  1561.2500     80.1483     16.1440     13.7141     27.5762    125.2131
  1561.5000     80.7330     15.9658     13.0341     23.5912    128.7923
  1561.7500     80.2915     14.9202     12.6214     19.7129    127.9221
  1562.0000     81.5470     15.7706     12.6302     16.5698    129.0444
  1562.2500     81.1788     16.8608     12.7480     15.2744    129.3814
  1562.5000     81.4980     15.7464     13.6411     15.7837    115.9803
  1562.7500     80.2386     15.7090     13.6957     15.6345    101.2649
  1563.0000     82.9083     14.1904     13.2700     16.6726     97.6714
  1563.2500     86.7880     13.1035     13.1202     22.8902     97.0567
  1563.5000     92.7844     12.3324     13.0219     32.7631     92.0661
  1563.7500     99.2456     12.1525     12.3167     24.5334     96.3116
  1564.0000    102.8133     11.8340     11.4617     16.4574     96.9435
  1564.2500    104.8735     10.9667     10.6981     14.3817     90.4180
  1564.5000    107.4982     10.2669     10.4918     14.3173    100.2647
  1564.7500    110.9078      9.8915      9.9987     14.6998    112.2982
  1565.0000    112.8811      8.9814      9.6014     14.5835    119.5207
  1565.2500    114.6422      8.6978      8.9981     13.7036    122.3737
  1565.5000    114.0423      8.8011      8.5428     11.5662    118.9475
  1565.7500    115.8714      8.8946      8.1824     10.4468    117.3540
  1566.0000    115.9381      8.5559      7.8418     10.0817    112.7571
  1566.2500    117.1598      8.2095      7.9151     10.1304    126.3318
  1566.5000    117.0753      7.9794      7.5964     10.3859    119.7394
  1566.7500    118.5979      8.2217      7.4187     10.0087    118.5550
  1567.0000    118.4829      7.8970      7.1508      9.7166    113.9816
  1567.2500    119.4020      8.1400      7.1920      9.4498    120.6621
  1567.5000    117.9463      8.1817      7.2401      8.8576    119.5193
  1567.7500    118.4895      8.1586      7.4198      8.1373    118.6739
  1568.0000    117.1215      8.3695      7.9109      8.4382    108.0833
  1568.2500    118.2275      8.5952      8.4460      9.8180    108.4635
  1568.5000    118.4283      8.5746      8.9374     12.6684    110.4545
  1568.7500    118.4771      8.4530      9.4284     14.1727    115.9356
  1569.0000    115.4188      8.4539      9.5987     16.1580    114.7482
  1569.2500    114.8883      8.4594      9.3732     16.7900    107.8890
  1569.5000    114.7761      8.4171      9.3472     16.9638    103.4418
  1569.7500    115.0425      8.7623      9.3079     15.4571    111.8210
  1570.0000    113.1456      9.0533      9.6873     13.3945    115.8713
  1570.2500    112.4965      8.7594      9.1906     12.8797    115.0162
  1570.5000    113.3132      8.9555      9.4450     12.4515    116.5252
  1570.7500    113.0813      9.7345      9.8956     11.9924    113.3041
  1571.0000    112.9459      9.2679      9.8441     11.7728    114.1507
  1571.2500    112.1711      9.0233      9.9874     11.8451    112.0618
  1571.5000    111.7083      9.1864      9.9834     12.2575    104.5282
  1571.7500    110.4969      8.9562      9.8787     12.5219    101.9097
  1572.0000    109.9639      8.6689     10.1665     13.2148    107.9262
  1572.2500    107.2954      8.2991      9.9576     13.8797    112.7225
  1572.5000    106.6107      8.4546      9.7054     14.5186    103.3409
  1572.7500    104.9112      7.8922      9.6788     15.1572    101.0291
  1573.0000    103.4393      7.9610      9.2485     14.2700    107.8173
  1573.2500    101.0508      7.6690      8.9003     13.3646    108.8321
  1573.5000    102.4261      7.4214      8.3681     13.5569    111.7635
  1573.7500    107.6281      6.8862      7.7758     11.4878    109.7542
  1574.0000    109.9911      6.9588      7.5647      8.9731    115.8180
  1574.2500    108.6288      6.4761      7.1435      7.5826    113.7107
  1574.5000    109.1697      6.5676      6.7516      7.3446    119.8906
  1574.7500    104.8165      6.2590      6.5708      7.9023    114.7054
  1575.0000    103.2427      6.0773      6.4625      7.7643    123.6330
  1575.2500    102.9707      6.0996      6.3221      7.3311    124.0418
  1575.5000    101.7184      6.1568      6.0292      6.7973    119.7005
  1575.7500    100.6180      5.9719      5.8447      6.6348    114.9946
  1576.0000    101.0096      6.1807      5.7395      6.5717    110.6411
  1576.2500    104.0491      5.9434      5.7168      6.8544    112.2770
  1576.5000    104.7054      5.8725      5.8387      7.1836    119.3989
  1576.7500    105.8169      5.8945      5.8418      7.4079    121.8521
  1577.0000    106.0787      5.9014      6.0988      6.9192    115.7644
  1577.2500    106.7512      5.8761      6.2100      6.9935    112.1320
  1577.5000    106.3615      6.0539      6.5515      8.5692    122.3411
  1577.7500    106.1441      6.1182      6.5840     10.3423    124.1043
  1578.0000    105.7955      6.0928      6.8507     11.4056    119.7148
  1578.2500    105.9083      6.3317      7.0877     11.4705    118.3958
  1578.5000    104.2270      6.3747      7.0876     11.1053    108.4338
  1578.7500    104.0915      6.2492      7.1091     11.2078    117.3404
  1579.0000    103.8333      6.4825      7.0815     11.0430    116.9354
  1579.2500    104.8735      6.4988      6.9543     10.6110    109.0237
  1579.5000    105.5703      6.3952      7.1796     10.6935    118.7567
  1579.7500    105.5616      6.3008      6.9927     10.6801    118.3241
  1580.0000    104.3458      6.4230      7.0895      9.7165    124.6042
  1580.2500    104.3557      6.1893      6.8914      8.7552    129.0049
  1580.5000    104.3235      6.1016      6.7653      8.4534    118.0661
  1580.7500    104.5202      6.1242      6.7099      8.2650    116.9774
  1581.0000    105.9412      6.0636      6.6383      7.9882    127.8457
  1581.2500    105.5952      5.7947      6.4718      7.9824    126.3395
  1581.5000    106.2691      5.8179      6.4409      8.2393    117.3665
  1581.7500    105.2780      5.6487      6.2538      8.5768    112.2957
