~Version Information
VERS.                      2.0: CWLS Log ASCII Standard - VERSION 2.0
WRAP.                       NO: One line per depth step
~Well Information Block
STRT.FT                 0.0000: 
STOP.FT              2159.0000: 
STEP.FT                 0.2500: 
NULL.                -999.2500: 
COMP.          Petrogulf Corporation: COMPANY
WELL.               Furu 6-23R: WELL
FLD.           Purgatoire River: FIELD
LOC.           2211' FSL & 1780' FWL: LOCATION
CNTY.               Las Animas: COUNTY
SRVC.                         : SERVICE COMPANY
DATE.          Fri Jul 14 16:00:32 2006: LOG DATE
UWI.           05 071 08266 00: UNIQUE WELL ID
STAT.                       CO: STATE
~Curve Information Block
DEPT.FT            0 000 00 00: Depth
GR.GAPI                       : Gamma Ray
CCL.                          : Casing Collar Locator
TT3.usec                      : CBL 3' Travel Time
AMP3.mV                       : CBL 3' Amplitude
~Parameter Information Block
~A  Depth        GR         CCL         TT3         AMP3    
# ...
   134.0000     94.9011      0.0000    256.9223     86.1150
   134.2500     89.3593      0.0000    256.9304     86.1740
   134.5000     86.1142      0.0000    256.9418     86.2327
   134.7500     86.1294      0.0000    256.9601     86.2678
   135.0000     88.4213      0.0000    256.9847     86.2639
   135.2500     90.1000      0.0000    257.0082     86.2203
   135.5000     88.4512      0.0000    257.0203     86.1491
   135.7500     82.9181      0.0000    257.0146     86.0680
   136.0000     75.1319      0.0000    256.9944     85.9911
   136.2500     67.3841      0.0000    256.9709     85.9254
   136.5000     61.3409      0.0000    256.9552     85.8721
   136.7500     57.6903      0.0000    256.9538     85.8318
   137.0000     56.1293      0.0000    256.9664     85.8078
   137.2500     55.6194      0.0000    256.9842     85.8062
   137.5000     55.2301      0.0000    256.9923     85.8329
   137.7500     54.8820      0.0000    256.9803     85.8902
   138.0000     55.1909      0.0000    256.9516     85.9745
   138.2500     56.8347      0.0000    256.9201     86.0766
   138.5000     60.0166      0.0000    256.8969     86.1832
   138.7500     64.1298      0.0000    256.8859     86.2799
   139.0000     67.9303      0.0000    256.8892     86.3551
   139.2500     70.3576      0.0000    256.9088     86.4027
   139.5000     71.1860      0.0000    256.9387     86.4239
   139.7500     70.8068      0.0000    256.9616     86.4257
   140.0000     69.6396      0.0000    256.9609     86.4170
   140.2500     68.0130      0.0000    256.9368     86.4071
   140.5000     66.5214      0.0000    256.9069     86.4040
   140.7500     66.1021      0.0000    256.8873     86.4157
   141.0000     67.2284      0.0000    256.8767     86.4470
   141.2500     68.9202      0.0000    256.8586     86.4950
   141.5000     69.1829      0.0000    256.8203     86.5461
   141.7500     66.9182      0.0000    256.7705     86.5778
   142.0000     63.2545      0.0000    256.7368     86.5665
   142.2500     60.7989      0.0000    256.7442     86.4993
   142.5000     61.4797      0.0000    256.7940     86.3805
   142.7500     64.8897      0.0000    256.8665     86.2335
   143.0000     68.6071      0.0000    256.9373     86.0937
   143.2500     70.2875      0.0000    256.9880     85.9966
   143.5000     69.4804      0.0000    257.0079     85.9647
   143.7500     67.5422      0.0000    256.9958     85.9990
   144.0000     66.1787      0.0000    256.9621     86.0786
   144.2500     66.2302      0.0000    256.9245     86.1704
   144.5000     67.4777      0.0000    256.8941     86.2420
   144.7500     69.2091      0.0000    256.8669     86.2734
   145.0000     70.9266      0.0000    256.8315     86.2608
   145.2500     72.6593      0.0000    256.7856     86.2130
   145.5000     74.6800      0.0000    256.7426     86.1458
   145.7500     76.8666      0.0000    256.7216     86.0752
   146.0000     78.3497      0.0000    256.7296     86.0145
   146.2500     78.1488      0.0000    256.7531     85.9716
   146.5000     76.3121      0.0000    256.7707     85.9483
   146.7500     73.8654      0.0000    256.7738     85.9400
   147.0000     71.3597      0.0000    256.7709     85.9377
   147.2500     68.2504      0.0000    256.7742     85.9310
   147.5000     64.0564      0.0000    256.7874     85.9121
   147.7500     59.3083      0.0000    256.8068     85.8804
   148.0000     54.8270      0.0000    256.8266     85.8427
   148.2500     50.8125      0.0000    256.8381     85.8113
   148.5000     47.2519      0.0000    256.8305     85.7986
   148.7500     44.7720      0.0000    256.8016     85.8104
   149.0000     44.4851      0.0000    256.7635     85.8432
   149.2500     47.0483      0.0000    256.7330     85.8852
   149.5000     51.9365      0.0000    256.7145     85.9220
   149.7500     57.4409      0.0000    256.6989     85.9372
   150.0000     61.5123      0.0000    256.6760     85.9085
   150.2500     63.0646      0.0000    256.6472     85.7927
   150.5000     62.5979      0.0000    256.6244     85.5069
   150.7500     61.4429      0.0000    256.6212     84.9125
   151.0000     60.5631      0.0000    256.6510     83.8185
   151.2500     60.2025      0.0000    256.7436     82.0127
   151.5000     60.3329      0.0000    256.9720     79.3234
   151.7500     61.0898      0.0000    257.4530     75.6909
   152.0000     62.7675      0.0000    258.2819     71.2222
   152.2500     65.4160      0.0000    259.4273     66.1955
   152.5000     68.3834      0.0000    260.6927     61.0107
   152.7500     70.3155      0.0000    261.8144     56.0987
   153.0000     69.8205      0.0000    262.6185     51.8295
   153.2500     66.4658      0.0000    263.0895     48.4511
   153.5000     61.3292      0.0000    263.3165     46.0795
   153.7500     56.4769      2.0000    263.4011     44.7324
   154.0000     53.7100      2.0000    263.4041     44.3906
   154.2500     53.6158      0.0000    263.3310     45.0554
   154.5000     55.5393      0.0000    263.1269     46.7711
   154.7500     58.1929      0.0000    262.6869     49.5947
   155.0000     60.3843      0.0000    261.9131     53.5156
   155.2500     61.5253      0.0000    260.8176     58.3650
   155.5000     61.8451      0.0000    259.5768     63.7744
   155.7500     62.4085      0.0000    258.4496     69.2258
   156.0000     64.8315      0.0000    257.6193     74.1869
   156.2500     70.2828      0.0000    257.1156     78.2634
   156.5000     78.2326      0.0000    256.8623     81.2937
   156.7500     86.4411      0.0000    256.7617     83.3429
   157.0000     92.7868      0.0000    256.7382     84.6196
   157.2500     97.1287      0.0000    256.7418     85.3705
   157.5000    100.9789      0.0000    256.7441     85.8050
   157.7500    105.4166      0.0000    256.7364     86.0657
   158.0000    109.8930      0.0000    256.7212     86.2355
   158.2500    113.2787      0.0000    256.7021     86.3565
   158.5000    115.6159      0.0000    256.6793     86.4482
   158.7500    118.1344      0.0000    256.6560     86.5163
   159.0000    121.4070      0.0000    256.6395     86.5614
   159.2500    124.1122      0.0000    256.6331     86.5827
   159.5000    124.2856      0.0000    256.6327     86.5819
   159.7500    121.6905      0.0000    256.6339     86.5645
   160.0000    118.4759      0.0000    256.6389     86.5383
   160.2500    117.3372      0.0000    256.6505     86.5104
   160.5000    119.2590      0.0000    256.6643     86.4834
   160.7500    123.0814      0.0000    256.6731     86.4544
   161.0000    126.7130      0.0000    256.6765     86.4151
   161.2500    128.1282      0.0000    256.6820     86.3568
   161.5000    125.7011      0.0000    256.6978     86.2775
   161.7500    119.1613      0.0000    256.7264     86.1872
   162.0000    110.9561      0.0000    256.7628     86.1074
   162.2500    105.6047      0.0000    256.7962     86.0642
   162.5000    106.4950      0.0000    256.8169     86.0780
   162.7500    113.2672      0.0000    256.8217     86.1559
   163.0000    122.4946      0.0000    256.8118     86.2888
   163.2500    130.5011      0.0000    256.7856     86.4546
   163.5000    135.3969      0.0000    256.7414     86.6229
   163.7500    137.0659      0.0000    256.6880     86.7632
   164.0000    135.8658      0.0000    256.6482     86.8522
   164.2500    131.6483      0.0000    256.6389     86.8816
   164.5000    124.4670      0.0000    256.6539     86.8601
   164.7500    115.9682      0.0000    256.6729     86.8101
   165.0000    108.8332      0.0000    256.6830     86.7570
   165.2500    104.3799      0.0000    256.6838     86.7178
   165.5000    101.6695      0.0000    256.6761     86.6934
   165.7500     99.5769      0.0000    256.6604     86.6695
   166.0000     98.8262      0.0000    256.6487     86.6241
   166.2500    101.1479      0.0000    256.6657     86.5376
   166.5000    106.8521      0.0000    256.7239     86.4006
   166.7500    113.9874      0.0000    256.8045     86.2149
   167.0000    119.8977      0.0000    256.8757     85.9922
   167.2500    123.2132      0.0000    256.9236     85.7513
