~Version Information
 VERS.                      2.0: CWLS Log ASCII Standard - VERSION 2.0
 WRAP.                       NO: One line per depth step
 ~Well Information Block
 STRT.FT               115.0000: 
 STOP.FT              1768.2500: 
 STEP.FT                 0.2500: 
 NULL.                -999.2500: 
 COMP.          Petrogulf Corporation: COMPANY
 WELL.           Parsons 23-15V: WELL
 FLD.           Purgatorie River: FIELD
 LOC.           2095' FSL & 1817' FWL--API 05 071 07556 00----: LOCATION
 CNTY.               Las Animas: COUNTY
 SRVC.                         : SERVICE COMPANY
 DATE.          Fri Apr 19 16:58:41 2002: LOG DATE
 UWI.                          : UNIQUE WELL ID
 STAT.                       CO: STATE
 PROV.                         :Province
 ~Curve Information Block
 DEPT.FT            0 000 00 00: Depth
 SP.mV                         : DIL Spontaneous Potential
 RILD.Ohm-m                    : DIL Deep Resistivity
 RILM.Ohm-m                    : DIL Medium Resistivity
 RLL3.Ohm-m                    : DIL Shallow Resistivity
 GR.GAPI                       : Gamma Ray
 ~Parameter Information Block
 ~A  Depth        SP         RILD        RILM        RLL3         GR     
# ...
   255.0000   -305.3619     14.2301     15.1662     18.7609    136.8512
   255.2500   -305.0844     14.5073     15.2162     17.0329    144.5636
   255.5000   -304.7896     14.7526     15.3126     16.1082    150.8574
   255.7500   -304.4723     14.9351     15.4580     15.8209    154.9008
   256.0000   -304.1330     15.0365     15.6359     15.9330    155.7753
   256.2500   -303.7813     15.0551     15.8172     16.2682    153.4319
   256.5000   -303.4288     15.0037     15.9702     16.7321    149.0629
   256.7500   -303.0829     14.9028     16.0702     17.2611    144.4390
   257.0000   -302.7475     14.7740     16.1063     17.7727    140.9396
   257.2500   -302.4264     14.6353     16.0803     18.1641    138.9391
   257.5000   -302.1217     14.4986     16.0007     18.3579    137.8215
   257.7500   -301.8293     14.3694     15.8750     18.3482    136.8075
   258.0000   -301.5367     14.2472     15.7064     18.2003    135.9670
   258.2500   -301.2279     14.1266     15.4957     18.0002    136.0571
   258.5000   -300.8912     13.9974     15.2439     17.7929    137.3487
   258.7500   -300.5226     13.8473     14.9532     17.5541    139.0535
   259.0000   -300.1234     13.6659     14.6263     17.2156    139.9824
   259.2500   -299.6967     13.4499     14.2676     16.7310    139.5649
   259.5000   -299.2492     13.2058     13.8848     16.1307    138.1733
   259.7500   -298.7934     12.9475     13.4890     15.5084    136.4176
   260.0000   -298.3461     12.6899     13.0925     14.9459    134.2962
   260.2500   -297.9230     12.4433     12.7069     14.4553    131.4054
   260.5000   -297.5362     12.2104     12.3425     14.0014    127.8866
   260.7500   -297.1951     11.9893     12.0096     13.5700    124.7052
   261.0000   -296.9102     11.7766     11.7175     13.2046    122.9635
   261.2500   -296.6960     11.5700     11.4735     12.9754    123.1638
   261.5000   -296.5700     11.3692     11.2805     12.9235    124.9545
   261.7500   -296.5498     11.1739     11.1364     13.0391    127.3173
   262.0000   -296.6433     10.9825     11.0345     13.2761    129.2554
   262.2500   -296.8404     10.7911     10.9638     13.5757    130.5894
   262.5000   -297.1122     10.5949     10.9102     13.8788    131.9999
   262.7500   -297.4219     10.3908     10.8568     14.1351    134.2422
   263.0000   -297.7384     10.1806     10.7850     14.3184    137.4409
   263.2500   -298.0411      9.9706     10.6764     14.4327    141.0278
   263.5000   -298.3163      9.7696     10.5155     14.4833    144.1716
   263.7500   -298.5507      9.5848     10.2946     14.4200    146.5285
   264.0000   -298.7289      9.4188     10.0180     14.1268    148.7359
   264.2500   -298.8344      9.2705      9.7030     13.5123    151.6909
   264.5000   -298.8557      9.1371      9.3747     12.6322    155.2453
   264.7500   -298.7921      9.0166      9.0588     11.7061    158.1623
   265.0000   -298.6569      8.9092      8.7747     10.9849    159.2874
   265.2500   -298.4728      8.8170      8.5331     10.5916    158.3059
   265.5000   -298.2633      8.7428      8.3367     10.4777    155.8060
   265.7500   -298.0451      8.6899      8.1843     10.5002    153.2263
   266.0000   -297.8293      8.6626      8.0745     10.5272    152.3123
   266.2500   -297.6270      8.6661      8.0092     10.4982    153.9007
   266.5000   -297.4472      8.7064      7.9943     10.4343    157.2977
   266.7500   -297.2865      8.7886      8.0384     10.4170    161.0280
   267.0000   -297.1223      8.9166      8.1503     10.5488    163.9997
   267.2500   -296.9231      9.0926      8.3363     10.8956    165.8620
   267.5000   -296.6677      9.3183      8.5988     11.4364    166.6298
   267.7500   -296.3538      9.5950      8.9373     12.0738    166.3084
   268.0000   -295.9921      9.9238      9.3507     12.7125    164.7516
   268.2500   -295.5944     10.3040      9.8402     13.3359    161.7718
   268.5000   -295.1686     10.7323     10.4111     14.0062    157.4858
   268.7500   -294.7216     11.2014     11.0716     14.8084    152.4354
   269.0000   -294.2651     11.6996     11.8291     15.8085    147.1319
   269.2500   -293.8159     12.2097     12.6822     17.0557    141.6612
   269.5000   -293.3938     12.7094     13.6127     18.5903    136.0937
   269.7500   -293.0141     13.1743     14.5756     20.4034    131.0793
   270.0000   -292.6852     13.5825     15.4936     22.3533    127.5963
   270.2500   -292.4091     13.9191     16.2632     24.1191    126.2965
   270.5000   -292.1872     14.1771     16.7776     25.2651    127.4677
   270.7500   -292.0215     14.3564     16.9652     25.4031    131.3769
   271.0000   -291.9100     14.4607     16.8216     24.3805    138.0931
   271.2500   -291.8425     14.4974     16.4125     22.4010    146.7974
   271.5000   -291.8018     14.4769     15.8435     19.9769    155.5518
   271.7500   -291.7703     14.4111     15.2200     17.6909    162.0796
   272.0000   -291.7323     14.3114     14.6197     15.9252    164.9325
   272.2500   -291.6743     14.1867     14.0877     14.7599    164.1646
   272.5000   -291.5850     14.0445     13.6447     14.0785    161.1940
   272.7500   -291.4562     13.8929     13.2981     13.7285    157.9833
   273.0000   -291.2849     13.7422     13.0496     13.6051    155.9637
   273.2500   -291.0721     13.6051     12.8979     13.6548    155.3947
   273.5000   -290.8186     13.4939     12.8379     13.8553    155.5012
   273.7500   -290.5242     13.4190     12.8598     14.1993    155.1979
   274.0000   -290.1906     13.3882     12.9491     14.6753    153.9015
   274.2500   -289.8266     13.4067     13.0884     15.2440    151.7670
   274.5000   -289.4464     13.4778     13.2605     15.8241    149.1538
   274.7500   -289.0627     13.6021     13.4530     16.3141    146.0726
   275.0000   -288.6853     13.7767     13.6600     16.6513    142.3221
   275.2500   -288.3239     13.9960     13.8815     16.8640    137.9843
   275.5000   -287.9888     14.2520     14.1188     17.0576    133.6917
   275.7500   -287.6858     14.5357     14.3690     17.3356    130.6416
   276.0000   -287.4075     14.8387     14.6229     17.7280    130.1320
   276.2500   -287.1312     15.1551     14.8674     18.1774    132.4540
   276.5000   -286.8272     15.4834     15.0935     18.5663    136.2769
   276.7500   -286.4713     15.8271     15.3023     18.7631    139.6218
   277.0000   -286.0500     16.1951     15.5083     18.6979    141.3312
   277.2500   -285.5604     16.5996     15.7360     18.4403    141.3166
   277.5000   -285.0089     17.0542     16.0158     18.1834    139.7379
   277.7500   -284.4103     17.5689     16.3813     18.1316    136.5671
   278.0000   -283.7847     18.1452     16.8667     18.4235    132.0368
   278.2500   -283.1548     18.7744     17.5036     19.2046    127.0340
   278.5000   -282.5434     19.4431     18.3153     20.7716    122.5988
   278.7500   -281.9710     20.1429     19.3102     23.5820    118.9957
   279.0000   -281.4538     20.8792     20.4763     28.0183    115.5078
   279.2500   -281.0034     21.6719     21.7794     34.0387    111.2616
   279.5000   -280.6276     22.5470     23.1662     40.9863    106.1352
   279.7500   -280.3318     23.5263     24.5771     47.7334    100.7307
   280.0000   -280.1192     24.6224     25.9663     53.1121     95.6777
   280.2500   -279.9879     25.8409     27.3198     56.3820     91.2702
   280.5000   -279.9251     27.1821     28.6580     57.4608     87.7325
   280.7500   -279.9061     28.6357     30.0204     56.8660     85.3165
   281.0000   -279.9015     30.1687     31.4431     55.5509     83.7685
   281.2500   -279.8888     31.7155     32.9420     54.7153     82.0214
   281.5000   -279.8572     33.1824     34.5031     55.4671     78.9509
   281.7500   -279.8086     34.4714     36.0781     58.3393     74.4136
   282.0000   -279.7528     35.5121     37.5874     62.9616     69.3301
   282.2500   -279.6996     36.2831     38.9327     68.1973     64.8145
   282.5000   -279.6529     36.8115     40.0186     72.7142     61.3795
   282.7500   -279.6114     37.1553     40.7774     75.5797     58.8786
