~Version Information
VERS.                      2.0: CWLS Log ASCII Standard - VERSION 2.0
WRAP.                       NO: One line per depth step
~Well Information Block
STRT.FT               954.0000: 
STOP.FT              2517.0000: 
STEP.FT                 0.2500: 
NULL.                -999.2500: 
COMP.          Petrogulf Corporation: COMPANY
WELL.             Royal 8-33 V: WELL
FLD.           Purgatoire River: FIELD
LOC.           2365' FSL & 2336' FEL: LOCATION
PROV.                 Colorado: PROVINCE
CNTY.               Las Animas: COUNTRY
SRVC.                Patterson: SERVICE COMPANY
DATE.          Fri Dec 05 04:39:41 2003: LOG DATE
UWI.                          : UNIQUE WELL ID
~Curve Information Block
DEPT.FT            0 000 00 00: Depth
SP.mV                         : DIL Spontaneous Potential
RILD.Ohm-m                    : DIL Deep Resistivity
RILM.Ohm-m                    : DIL Medium Resistivity
RLL3.Ohm-m                    : DIL Shallow Resistivity
GR.GAPI                       : Gamma Ray
~Parameter Information Block
~A  Depth        SP         RILD        RILM        RLL3         GR     
# ...
  1682.0000   -142.8435     17.8486     22.5821     19.5188     43.7997
  1682.2500   -142.9205     18.0002     22.9390     19.4895     44.7841
  1682.5000   -142.9039     18.1100     23.2995     19.2817     47.1702
  1682.7500   -142.7696     18.1971     23.6047     18.9751     48.8915
  1683.0000   -142.5623     18.2868     23.8213     18.7283     50.7165
  1683.2500   -142.3807     18.3951     23.9557     18.7020     51.3079
  1683.5000   -142.3250     18.5241     24.0401     18.9400     51.9405
  1683.7500   -142.4413     18.6654     24.1060     19.3256     52.7185
  1684.0000   -142.7001     18.8069     24.1712     19.6797     54.7539
  1684.2500   -143.0184     18.9390     24.2418     19.9021     56.4594
  1684.5000   -143.3038     19.0579     24.3194     20.0145     58.8045
  1684.7500   -143.4941     19.1638     24.4039     20.0948     59.9332
  1685.0000   -143.5787     19.2555     24.4923     20.2000     61.1176
  1685.2500   -143.6009     19.3253     24.5783     20.3449     61.8956
  1685.5000   -143.6392     19.3604     24.6535     20.5184     63.2267
  1685.7500   -143.7714     19.3508     24.7109     20.7008     63.8706
  1686.0000   -144.0349     19.2984     24.7486     20.8748     63.6468
  1686.2500   -144.4015     19.2205     24.7705     21.0341     62.5401
  1686.5000   -144.7811     19.1463     24.7836     21.1781     59.9108
  1686.7500   -145.0564     19.1048     24.7919     21.2916     58.0852
  1687.0000   -145.1313     19.1128     24.7933     21.3359     56.3617
  1687.2500   -144.9625     19.1678     24.7803     21.2708     56.2948
  1687.5000   -144.5639     19.2512     24.7441     21.0877     57.4955
  1687.7500   -143.9990     19.3387     24.6791     20.8144     58.4987
  1688.0000   -143.3649     19.4091     24.5879     20.4837     59.3775
  1688.2500   -142.7624     19.4464     24.4818     20.1049     59.5344
  1688.5000   -142.2626     19.4405     24.3775     19.6833     59.7763
  1688.7500   -141.8961     19.3926     24.2932     19.2743     60.3048
  1689.0000   -141.6565     19.3226     24.2465     18.9884     61.8830
  1689.2500   -141.5027     19.2662     24.2508     18.9104     63.3951
  1689.5000   -141.3652     19.2573     24.3110     19.0238     65.7878
  1689.7500   -141.1730     19.3090     24.4190     19.2411     66.8402
  1690.0000   -140.8882     19.4096     24.5558     19.4961     66.5777
  1690.2500   -140.5234     19.5334     24.6973     19.7847     65.0574
  1690.5000   -140.1335     19.6566     24.8222     20.1301     61.5653
  1690.7500   -139.7893     19.7663     24.9133     20.5302     59.1362
  1691.0000   -139.5437     19.8598     24.9545     20.9393     56.1941
  1691.2500   -139.4090     19.9394     24.9331     21.2930     54.8315
  1691.5000   -139.3642     20.0059     24.8515     21.5463     53.5230
  1691.7500   -139.3893     20.0568     24.7426     21.6926     53.0109
  1692.0000   -139.4934     20.0894     24.6690     21.7495     52.6333
  1692.2500   -139.7167     20.1035     24.6960     21.7371     52.5332
  1692.5000   -140.1138     20.1023     24.8551     21.6767     52.3616
  1692.7500   -140.7231     20.0877     25.1238     21.6042     52.1535
  1693.0000   -141.5231     20.0588     25.4352     21.5746     51.9370
  1693.2500   -142.4035     20.0119     25.7129     21.6405     52.1977
  1693.5000   -143.1856     19.9406     25.9053     21.8173     53.7649
  1693.7500   -143.6915     19.8343     25.9995     22.0697     55.7085
  1694.0000   -143.8119     19.6777     26.0099     22.3387     59.5836
  1694.2500   -143.5377     19.4602     25.9562     22.5772     62.2047
  1694.5000   -142.9530     19.1916     25.8468     22.7429     64.8061
  1694.7500   -142.2080     18.9114     25.6771     22.7702     65.0804
  1695.0000   -141.4802     18.6756     25.4436     22.5944     63.5337
  1695.2500   -140.9200     18.5281     25.1596     22.2226     61.9599
  1695.5000   -140.5917     18.4747     24.8574     21.7584     59.9952
  1695.7500   -140.4407     18.4800     24.5707     21.3383     59.0785
  1696.0000   -140.3159     18.4923     24.3145     21.0448     57.8232
  1696.2500   -140.0410     18.4762     24.0805     20.8806     56.9323
  1696.5000   -139.4972     18.4307     23.8527     20.8071     55.8470
  1696.7500   -138.6803     18.3806     23.6264     20.7860     55.5313
  1697.0000   -137.7038     18.3536     23.4146     20.7890     55.7034
  1697.2500   -136.7552     18.3638     23.2392     20.7915     56.0775
  1697.5000   -136.0309     18.4095     23.1191     20.7724     56.6131
  1697.7500   -135.6665     18.4836     23.0640     20.7136     56.6977
  1698.0000   -135.6725     18.5854     23.0774     20.6026     56.1297
  1698.2500   -135.9126     18.7248     23.1627     20.4510     55.3371
  1698.5000   -136.1724     18.9158     23.3293     20.3143     53.9687
  1698.7500   -136.2938     19.1649     23.5955     20.2778     53.2915
  1699.0000   -136.2577     19.4652     23.9880     20.4133     53.1758
  1699.2500   -136.1432     19.7996     24.5392     20.7645     53.7831
  1699.5000   -136.0267     20.1484     25.2798     21.3806     55.0266
  1699.7500   -135.9329     20.4955     26.2275     22.3382     55.3544
  1700.0000   -135.8577     20.8292     27.3718     23.7049     54.5882
  1700.2500   -135.8036     21.1401     28.6624     25.4808     53.7950
  1700.5000   -135.7877     21.4184     30.0105     27.5682     53.6461
  1700.7500   -135.8397     21.6531     31.3054     29.7693     54.5267
  1701.0000   -136.0098     21.8318     32.4328     31.8134     56.5034
  1701.2500   -136.3653     21.9427     33.2752     33.4455     57.5927
  1701.5000   -136.9518     21.9811     33.7063     34.5586     58.4008
  1701.7500   -137.7382     21.9594     33.6038     35.2327     58.5740
  1702.0000   -138.5934     21.9072     32.9025     35.5581     59.1091
  1702.2500   -139.3257     21.8627     31.6456     35.3524     60.2695
  1702.5000   -139.7738     21.8580     29.9892     34.1195     64.2013
  1702.7500   -139.8993     21.9001     28.1585     31.4476     68.5576
  1703.0000   -139.8065     21.9477     26.3949     27.5362     77.2492
  1703.2500   -139.6685     21.8939     24.9095     23.2928     83.7299
  1703.5000   -139.6285     21.5906     23.8462     19.8588     93.0174
  1703.7500   -139.7528     20.9385     23.2530     18.0170     98.2805
  1704.0000   -140.0303     19.9768     23.0629     17.9345    104.0482
  1704.2500   -140.3847     18.8714     23.0872     19.2389    106.2329
  1704.5000   -140.6975     17.8095     23.0495     21.1788    107.3498
  1704.7500   -140.8485     16.9147     22.6913     22.8075    107.3573
  1705.0000   -140.7567     16.2380     21.9200     23.2967    107.5401
  1705.2500   -140.4033     15.7845     20.8692     22.3176    108.0996
  1705.5000   -139.8307     15.5320     19.8036     20.2041    109.5977
  1705.7500   -139.1228     15.4314     18.9690     17.7370    111.0212
  1706.0000   -138.3801     15.4034     18.5118     15.7562    113.6014
  1706.2500   -137.7018     15.3484     18.4721     14.9043    115.1215
  1706.5000   -137.1697     15.1752     18.7957     15.5425    115.8646
  1706.7500   -136.8263     14.8347     19.3354     17.6748    114.9497
  1707.0000   -136.6574     14.3325     19.8568     20.8362    111.9270
  1707.2500   -136.5965     13.7165     20.0849     24.1270    109.4432
  1707.5000   -136.5527     13.0499     19.8080     26.5293    105.8087
  1707.7500   -136.4468     12.3889     18.9806     27.3448    103.6532
  1708.0000   -136.2418     11.7729     17.7340     26.4341    101.3429
  1708.2500   -135.9566     11.2230     16.2857     24.1375    101.0039
  1708.5000   -135.6562     10.7444     14.8354     21.0393    103.2443
  1708.7500   -135.4233     10.3304     13.5130     17.7611    106.6515
  1709.0000   -135.3288      9.9676     12.3796     14.8198    113.7490
  1709.2500   -135.4163      9.6435     11.4491     12.5294    118.9388
  1709.5000   -135.6983      9.3517     10.7094     10.9626    125.9369
  1709.7500   -136.1614      9.0927     10.1362      9.9996    129.4527
