~Version Information
VERS.                      2.0: CWLS Log ASCII Standard - VERSION 2.0
WRAP.                       NO: One line per depth step
~Well Information Block
STRT.FT                -9.7500: 
STOP.FT              2566.5000: 
STEP.FT                 0.2500: 
NULL.                -999.2500: 
COMP.          Petrogulf Corporation: COMPANY
WELL.             Valejo 8-12V: WELL
FLD.           Purgatorie River: FIELD
LOC.           1510' FNL & 1460' FWL: LOCATION
CNTY.               Las Animas: COUNTY
SRVC.                         : SERVICE COMPANY
DATE.          Tue Nov 18 14:36:15 2003: LOG DATE
UWI.                          : UNIQUE WELL ID
STAT.                 Colorado: STATE
~Curve Information Block
DEPT.FT            0 000 00 00: Depth
CCL.                          : Casing Collar Locator
TT3.usec                      : CBL 3' Travel Time
AMP3.mV                       : CBL 3' Amplitude
GR.GAPI                       : Gamma Ray
~Parameter Information Block
~A  Depth       CCL         TT3         AMP3         GR     
# ...
  1698.7500      0.0000    773.9252      2.7925    119.4832
  1699.0000      0.0000    789.0717      2.7707    115.9111
  1699.2500      0.0000    795.8343      2.7703    112.3866
  1699.5000      0.0000    791.9325      2.8087    109.5283
  1699.7500      0.0000    780.3423      2.8607    106.6158
  1700.0000      0.0000    768.4196      2.8998    103.6008
  1700.2500      0.0000    762.4371      2.9184    101.4623
  1700.5000      0.0000    762.7974      2.9161    100.4796
  1700.7500      0.0000    764.6308      2.8918     99.4894
  1701.0000      0.0000    762.5455      2.8428     97.4236
  1701.2500      0.0000    754.6329      2.7716     94.7815
  1701.5000      0.0000    743.0056      2.7084     93.0088
  1701.7500      0.0000    732.2958      2.7049     92.7589
  1702.0000      0.0000    727.7297      2.7869     93.1292
  1702.2500      0.0000    732.6045      2.9295     92.4784
  1702.5000      0.0000    745.9835      3.0867     89.7997
  1702.7500      0.0000    762.7271      3.2203     85.2788
  1703.0000      0.0000    776.0818      3.3030     79.7799
  1703.2500      0.0000    780.7850      3.3328     74.2397
  1703.5000      0.0000    775.1224      3.3357     69.5749
  1703.7500      0.0000    761.4295      3.3266     66.5733
  1704.0000      0.0000    744.8442      3.2863     65.4013
  1704.2500      0.0000    730.6659      3.1961     65.3400
  1704.5000      0.0000    721.7764      3.0676     65.4586
  1704.7500      0.0000    718.0957      2.9230     65.7045
  1705.0000      0.0000    718.4205      2.7785     67.0913
  1705.2500      0.0000    722.4337      2.6526     70.5291
  1705.5000      0.0000    731.0137      2.5633     75.4526
  1705.7500      0.0000    745.0024      2.5197     79.8775
  1706.0000      0.0000    763.2846      2.5295     82.1266
  1706.2500      0.0000    782.0805      2.5995     82.5403
  1706.5000      0.0000    797.2526      2.7225     83.3297
  1706.7500      0.0000    807.6018      2.8723     86.6469
  1707.0000      0.0000    814.3646      3.0036     92.8603
  1707.2500      0.0000    817.5272      3.0574    100.5884
  1707.5000      0.0000    815.4648      2.9869    107.9976
  1707.7500      0.0000    809.3691      2.7898    113.9288
  1708.0000      0.0000    805.0883      2.5167    118.3449
  1708.2500      0.0000    807.9746      2.2584    122.2978
  1708.5000      0.0000    816.7985      2.1079    127.2010
  1708.7500      0.0000    824.1913      2.1034    133.3908
  1709.0000      0.0000    822.6835      2.2043    139.2979
  1709.2500      0.0000    810.0618      2.3413    142.5058
  1709.5000      0.0000    789.8518      2.4718    141.8036
  1709.7500      0.0000    767.5282      2.5775    137.9687
  1710.0000      0.0000    746.5532      2.6444    132.7461
  1710.2500      0.0000    727.8946      2.6721    127.6453
  1710.5000      0.0000    712.2445      2.6836    123.4687
  1710.7500      0.0000    701.1214      2.7022    119.9661
  1711.0000      0.0000    695.4598      2.7335    115.8664
  1711.2500      0.0000    694.2181      2.7730    110.0649
  1711.5000      0.0000    695.0655      2.8169    102.8738
  1711.7500      0.0000    696.0606      2.8653     95.6976
  1712.0000      0.0000    696.4133      2.9316     89.9046
  1712.2500      0.0000    696.1798      3.0278     86.5638
  1712.5000      0.0000    695.7308      3.1254     86.5725
  1712.7500      0.0000    695.3842      3.1583     89.9494
  1713.0000      0.0000    695.1996      3.0898     95.0696
  1713.2500      0.0000    695.0448      2.9475     99.3766
  1713.5000      0.0000    695.0436      2.7785    101.1306
  1713.7500      0.0000    696.1059      2.6144    100.3199
  1714.0000      0.0000    699.9053      2.4933     98.0613
  1714.2500      0.0000    708.0887      2.4693     95.5595
  1714.5000      0.0000    721.0974      2.5757     93.7246
  1714.7500      0.0000    737.0621      2.7950     93.4266
  1715.0000      0.0000    751.4453      3.0635     95.6488
  1715.2500      0.0000    758.7604      3.2900    101.1242
  1715.5000      2.0000    756.1961      3.3957    109.7986
  1715.7500      2.0000    745.7401      3.3679    120.5602
  1716.0000      0.0000    732.3998      3.2715    131.1689
  1716.2500      0.0000    720.8851      3.2017    138.5393
  1716.5000      0.0000    713.8337      3.2299    139.9250
  1716.7500      0.0000    711.5583      3.3639    134.4787
  1717.0000      0.0000    712.4128      3.5245    123.7400
  1717.2500      0.0000    714.0091      3.5892    110.9044
  1717.5000      0.0000    714.9326      3.5125     99.8688
  1717.7500      0.0000    715.2487      3.3750     94.0983
  1718.0000      0.0000    715.3045      3.2766     95.0575
  1718.2500      0.0000    714.8470      3.2186    101.3957
  1718.5000      0.0000    713.8923      3.1342    110.2000
  1718.7500      0.0000    713.8987      2.9926    119.1555
  1719.0000      0.0000    717.1051      2.8283    127.1439
  1719.2500      0.0000    724.3256      2.7027    133.2003
  1719.5000      0.0000    733.4110      2.6729    136.2437
  1719.7500      0.0000    740.1361      2.7690    136.4347
  1720.0000      0.0000    741.2106      2.9736    135.8013
  1720.2500      0.0000    737.1016      3.2366    136.4866
  1720.5000      0.0000    732.3348      3.5146    138.5433
  1720.7500      0.0000    732.9946      3.7772    140.1496
  1721.0000      0.0000    743.1003      3.9839    140.3066
  1721.2500      0.0000    762.0933      4.0935    140.7536
  1721.5000      0.0000    784.6733      4.0986    144.3463
  1721.7500      0.0000    802.7601      4.0290    151.5132
  1722.0000      0.0000    808.9634      3.9215    159.0481
  1722.2500      0.0000    800.9174      3.7993    162.5686
  1722.5000      0.0000    784.0283      3.6688    159.9258
  1722.7500      0.0000    768.7466      3.5159    152.5896
  1723.0000      0.0000    762.6879      3.3215    144.4524
  1723.2500      0.0000    764.5289      3.1094    139.2990
  1723.5000      0.0000    766.1366      2.9623    138.7722
  1723.7500      0.0000    760.9106      2.9554    142.1176
  1724.0000      0.0000    750.0032      3.0808    147.4258
  1724.2500      0.0000    741.1107      3.2679    152.7487
  1724.5000      0.0000    742.0028      3.4566    156.0524
  1724.7500      0.0000    754.3298      3.6092    154.9990
  1725.0000      0.0000    772.0972      3.6786    148.2117
  1725.2500      0.0000    786.0519      3.6310    137.0794
  1725.5000      0.0000    790.4729      3.5001    125.1406
  1725.7500      0.0000    786.3423      3.3654    115.0494
  1726.0000      0.0000    778.7502      3.2726    107.0548
  1726.2500      0.0000    772.2068      3.2078    100.6099
  1726.5000      0.0000    768.0471      3.1395     96.0550
  1726.7500      0.0000    764.6973      3.0403     93.9906
  1727.0000      0.0000    759.7836      2.8794     93.9264
  1727.2500      0.0000    752.6747      2.6502     94.2009
  1727.5000      0.0000    745.5732      2.4132     93.0828
  1727.7500      0.0000    742.0909      2.2662     90.1344
  1728.0000      0.0000    744.3897      2.2597     86.8116
  1728.2500      0.0000    751.1168      2.3622     85.4657
  1728.5000      0.0000    758.0037      2.5063     87.4686
  1728.7500      0.0000    760.8251      2.6379     92.2488
  1729.0000      0.0000    758.2416      2.7253     97.8897
  1729.2500      0.0000    752.1154      2.7569    102.4473
  1729.5000      0.0000    745.2049      2.7496    104.9288
  1729.7500      0.0000    738.4671      2.7398    105.4999
  1730.0000      0.0000    730.6323      2.7418    105.1324
  1730.2500      0.0000    720.3586      2.7280    104.9816
  1730.5000      0.0000    708.3756      2.6671    105.7812
  1730.7500      0.0000    697.3995      2.5769    107.8533
  1731.0000      0.0000    690.3046      2.5081    111.7551
  1731.2500      0.0000    688.2867      2.4750    118.3466
  1731.5000      0.0000    690.1286      2.4308    127.6182
  1731.7500      0.0000    693.2163      2.3309    137.6650
  1732.0000      0.0000    696.0190      2.1987    145.6438
