~Version Information               
VERS.     2.0     :     CWLS LAS VERSION
WRAP.                         NO     :     WRAPING MODE
~Well Information   
API.                      :            
WELL.               Egan 9-11V     :     WELL
COMP.                    N/A     :     COMPANY
FLD.                    N/A     :     FIELD
LOC.                    N/A     :     LOCATION
CNTY.                    N/A     :     COUNTY
STATE.              N/A     :     STATE
CTRY.                    N/A     :     COUNTRY
DATE.                N/A     :     DATE (LOGGED)
UWI.                    N/A     :     UNIQUE WELL ID
SRVC.                N/A     :     SERVICE COMPANY
STAT.                           :
STRT.FT              612.00     :     START DEPTH
STOP.FT             2500.00     :     STOP DEPTH
STEP.FT                1.00     :     DEPTH INCREMENT
NULL.             -9999           :     NULL VALUE
~Curve information               
 DEPTH.FT                                   :
 ROP.MIN/FT                                 :
 GAS.UNITS                                  :     
C1.PPM          :     
C2.PPM          :
~ASCII Log data               
# ...
910.00        0.23     3          6.5          -49995
911.00        0.23     3          5.5          -49995
912.00        0.23     3          5.5          -49995
913.00        0.26     7          5.0          -49995
914.00        0.30     0          5.1          -49995
915.00        0.23     3          5.2          -49995
916.00        0.28     3          5.0          -49995
917.00        0.20     0          5.2          -49995
918.00        0.16     7          5.4          -49995
919.00        0.10     0          5.4          -49995
920.00        0.10     0          5.4          -49995
921.00        0.10     0          5.9          -49995
922.00        0.26     7          5.9          -49995
923.00        0.36     7          5.7          -49995
924.00        0.16     7          5.6          -49995
925.00        0.16     7          5.9          -49995
926.00        0.20     0          5.5          -49995
927.00        0.10     0          5.5          -49995
928.00        0.20     0          5.8          -49995
929.00        0.18     3          6.1          -49995
930.00        0.16     7          9.9          -49995
931.00        0.16     7         55.0          -49995
932.00        0.20     0         79.4          -49995
933.00        0.16     7         78.3          -49995
934.00        0.23     3         73.0          -49995
935.00        0.20     0         54.7          -49995
936.00        0.16     7         35.5          -49995
937.00        0.26     7         21.5          -49995
938.00        0.20     0         14.7          -49995
939.00        0.20     0         13.9          -49995
940.00        0.16     7         10.8          -49995
941.00        0.13     3          8.5          -49995
942.00        0.13     3          7.8          -49995
943.00        0.13     3          7.0          -49995
944.00        0.13     3          5.8          -49995
945.00        0.20     0          5.9          -49995
946.00        0.16     7          4.9          -49995
947.00        0.20     0          4.4          -49995
948.00        0.18     3          4.3          -49995
949.00        0.23     3          4.3          -49995
950.00        0.23     3          4.1          -49995
951.00        0.26     7          4.1          -49995
952.00        0.26     7          4.5          -49995
953.00        0.30     0          4.5          -49995
954.00        0.36     7          4.5          -49995
955.00        0.26     7          4.9          -49995
956.00        0.26     7          5.6          -49995
957.00        3.28     3          5.8          -49995
958.00        0.55     0          5.0          -49995
959.00        0.43     3          5.2          -49995
960.00        0.20     0          4.8          -49995
961.00        0.23     3          5.3          -49995
962.00        0.23     3          5.0          -49995
963.00        0.20     0          5.1          -49995
964.00        0.23     3          5.2          -49995
965.00        0.23     3          5.3          -49995
966.00        0.16     7          5.2          -49995
967.00        0.13     3          4.9          -49995
968.00        0.13     3          5.5          -49995
969.00        0.10     0          5.5          -49995
970.00        0.20     0          5.1          -49995
971.00        0.20     0          5.4          -49995
972.00        0.23     3          5.2          -49995
973.00        0.18     3          5.4          -49995
974.00        0.20     0          5.2          -49995
975.00        0.20     0          5.4          -49995
976.00        0.20     0          5.3          -49995
977.00        0.16     7          5.4          -49995
978.00        0.20     0          5.2          -49995
979.00        0.16     7          5.4          -49995
980.00        0.20     0          5.2          -49995
981.00        0.16     7          5.5          -49995
982.00        0.26     7          6.0          -49995
983.00        0.30     0          6.0          -49995
984.00        0.13     3          6.0          -49995
985.00        0.10     0          6.3          -49995
986.00        0.10     0          6.3          -49995
987.00        0.06     7          6.5          -49995
988.00        0.10     0          7.3          -49995
989.00        0.06     7          8.3          -49995
990.00        0.13     3          8.3          -49995
991.00        0.20     0          9.2          -49995
992.00        0.30     0          9.2          -49995
993.00        0.23     3          8.6          -49995
994.00        0.20     0          7.8          -49995
995.00        0.23     3          7.3          -49995
996.00        0.16     7          6.8          -49995
997.00        0.16     7          6.7          -49995
998.00        0.16     7          6.3          -49995
999.00        0.16     7          6.1          -49995
1000.00        0.16     7          6.2          -49995
1001.00        0.26     7          6.0          -49995
1002.00        0.18     3          6.1          -49995
1003.00        0.10     0          5.3          -49995
1004.00        0.10     0          5.3          -49995
1005.00        0.30     0          5.6          -49995
1006.00        0.36     7          6.0          -49995
1007.00        0.36     7          5.4          -49995
1008.00        0.43     3          6.1          -49995
1009.00        0.26     7          5.1          -49995
1010.00        0.20     0          5.5          -49995
1011.00        0.16     7          5.2          -49995
1012.00        0.26     7          6.0          -49995
1013.00        0.56     7          6.3          -49995
1014.00        0.26     7          6.7          -49995
1015.00        0.20     0          6.9          -49995
1016.00        0.26     7          7.3          -49995
1017.00        0.26     7          7.7          -49995
1018.00        0.40     0          7.5          -49995
1019.00        0.31     7          7.4          -49995
1020.00        0.26     7          6.3          -49995
1021.00        0.33     3          6.4          -49995
1022.00        0.43     3          5.9          -49995
1023.00        0.30     0          5.9          -49995
1024.00        0.36     7          5.6          -49995
1025.00        0.23     3          5.7          -49995
1026.00        0.26     7          6.1          -49995
1027.00        0.23     3          5.5          -49995
1028.00        0.23     3          5.6          -49995
1029.00        0.23     3          5.0          -49995
1030.00        0.23     3          5.2          -49995
1031.00        0.25     0          5.0          -49995
1032.00        0.23     3          5.2          -49995
1033.00        0.20     0          5.0          -49995
1034.00        0.16     7          4.8          -49995
1035.00        0.16     7          4.9          -49995
1036.00        0.13     3          4.7          -49995
1037.00        0.13     3          4.4          -49995
1038.00        0.13     3          4.4          -49995
1039.00        0.26     7          4.1          -49995
1040.00        0.26     7          3.9          -49995
1041.00        0.26     7          3.9          -49995
1042.00        0.26     7          3.7          -49995
1043.00        0.40     0          2.1          -49995
1044.00        0.30     0          2.5          -49995
1045.00        0.33     3          2.7          -49995
1046.00        0.20     0          3.6          -49995
1047.00        0.23     3          4.1          -49995
1048.00        0.20     0          4.1          -49995
1049.00        0.20     0          3.4          -49995
1050.00        0.26     7          3.3          -49995
1051.00        0.23     3          1.8          -49995
1052.00        0.35     0          1.9          -49995
1053.00        0.20     0          1.4          -49995
1054.00        0.23     3          1.2          -49995
1055.00        0.20     0          1.0          -49995
1056.00        0.16     7          0.9          -49995
1057.00        0.23     3          0.7          -49995
