~Version Information
VERS.                      2.0: CWLS Log ASCII Standard - VERSION 2.0
WRAP.                       NO: One line per depth step
~Well Information Block
STRT.FT               -12.2500: 
STOP.FT              2595.7500: 
STEP.FT                 0.2500: 
NULL.                -999.2500: 
COMP.          Petrogulf Corporation: COMPANY
WELL.            Montoya 1-44V: WELL
FLD.           Purgatoire River: FIELD
LOC.           753' FSL & 990' FEL--: LOCATION
PROV.                       CO: PROVINCE
CNTY.               Las Aniams: COUNTRY
SRVC.          Patterson Wireline: SERVICE COMPANY
DATE.          Mon Jun 13 11:58:10 2005: LOG DATE
UWI.           05 071 08142 00: UNIQUE WELL ID
~Curve Information Block
DEPT.FT            0 000 00 00: Depth
CCL.                          : Casing Collar Locator
TT3.usec                      : CBL 3' Travel Time
AMP3.mV                       : CBL 3' Amplitude
GR.GAPI                       : Gamma Ray
~Parameter Information Block
~A  Depth       CCL         TT3         AMP3         GR     
# ...
  2064.7500      0.0000    699.9629     10.1762     54.8860
  2065.0000      0.0000    693.2480     11.0923     54.9971
  2065.2500      0.0000    677.9876     12.0433     55.4941
  2065.5000      0.0000    648.8587     13.0394     56.6793
  2065.7500      0.0000    600.7644     14.1373     59.3492
  2066.0000      0.0000    534.2010     15.4093     64.5330
  2066.2500      0.0000    459.5909     16.8790     72.8279
  2066.5000      0.0000    393.2809     18.5152     83.9073
  2066.7500      0.0000    346.9965     20.2691     96.5662
  2067.0000      0.0000    321.6626     22.0760    109.0488
  2067.2500      0.0000    310.7216     23.8298    119.2476
  2067.5000      0.0000    306.9185     25.4023    125.0825
  2067.7500      0.0000    305.8005     26.7006    125.6463
  2068.0000      0.0000    305.5017     27.6829    122.3961
  2068.2500      0.0000    305.4550     28.3004    118.7878
  2068.5000      0.0000    305.5763     28.4354    118.2414
  2068.7500      0.0000    305.9910     27.9400    122.2585
  2069.0000      0.0000    307.3018     26.7738    130.1775
  2069.2500      0.0000    311.5109     25.1107    140.0830
  2069.5000      0.0000    323.5916     23.2725    149.6680
  2069.7500      0.0000    352.0505     21.5210    156.8951
  2070.0000      0.0000    405.1814     19.9230    160.7748
  2070.2500      0.0000    482.7294     18.4211    161.7681
  2070.5000      0.0000    570.5504     16.9806    161.3062
  2070.7500      0.0000    647.0934     15.6242    161.0011
  2071.0000      0.0000    697.8852     14.3663    162.0861
  2071.2500      0.0000    723.6098     13.1842    164.7784
  2071.5000      0.0000    735.3665     12.0682    167.6438
  2071.7500      0.0000    744.8546     11.0731    168.1887
  2072.0000      0.0000    758.5906     10.2896    164.8844
  2072.2500      0.0000    777.4994      9.7571    158.5618
  2072.5000      0.0000    798.8627      9.4180    151.4795
  2072.7500      0.0000    818.5918      9.1667    145.3063
  2073.0000      0.0000    833.3640      8.9264    140.1727
  2073.2500      0.0000    841.9225      8.6769    135.2993
  2073.5000      0.0000    844.7718      8.4428    130.2813
  2073.7500      0.0000    842.7655      8.2755    125.6988
  2074.0000      0.0000    836.1964      8.2293    122.4426
  2074.2500      0.0000    825.3616      8.3307    120.6635
  2074.5000      0.0000    811.9635      8.5731    119.7693
  2074.7500      0.0000    799.7614      8.9538    119.4836
  2075.0000      0.0000    793.2722      9.5187    120.5885
  2075.2500      0.0000    794.4818     10.3463    124.3598
  2075.5000      0.0000    799.7025     11.4588    131.1642
  2075.7500      0.0000    799.7101     12.7371    139.6013
  2076.0000      0.0000    784.8437     13.9205    147.1336
  2076.2500      0.0000    753.1592     14.7021    151.7089
  2076.5000      0.0000    714.9981     14.8785    152.7609
  2076.7500      0.0000    686.9422     14.4804    150.6111
  2077.0000      0.0000    678.6098     13.7843    144.9709
  2077.2500      0.0000    686.6321     13.1525    134.4982
  2077.5000      0.0000    701.3466     12.7971    118.4181
  2077.7500      0.0000    715.0688     12.6736     98.6137
  2078.0000      2.0000    723.9726     12.5764     79.5247
  2078.2500      2.0000    727.4984     12.3010     65.5875
  2078.5000      0.0000    727.6664     11.7339     58.6043
  2078.7500      0.0000    727.0643     10.8840     57.0512
  2079.0000      0.0000    727.4450      9.8859     57.4677
  2079.2500      0.0000    730.2485      8.9265     56.8503
  2079.5000      0.0000    736.9119      8.1229     54.2944
  2079.7500      0.0000    747.6412      7.4854     50.7524
  2080.0000      0.0000    760.3400      6.9817     47.6786
  2080.2500      0.0000    771.4946      6.5833     46.0229
  2080.5000      0.0000    778.3691      6.2620     45.8576
  2080.7500      0.0000    780.2664      5.9973     46.4919
  2081.0000      0.0000    777.8818      5.7973     47.2392
  2081.2500      0.0000    772.1049      5.6754     48.2377
  2081.5000      0.0000    763.7689      5.6077     50.1960
  2081.7500      0.0000    754.3469      5.5461     53.5676
  2082.0000      0.0000    746.4967      5.4856     58.5076
  2082.2500      0.0000    743.0184      5.5011     65.2961
  2082.5000      0.0000    744.3117      5.6977     73.8477
  2082.7500      0.0000    747.3745      6.1186     82.7189
  2083.0000      0.0000    748.8951      6.7196     89.2499
  2083.2500      0.0000    749.6304      7.4499     91.0326
  2083.5000      0.0000    753.5021      8.3484     87.3215
  2083.7500      0.0000    760.0782      9.5507     79.3106
  2084.0000      0.0000    758.3334     11.1950     69.2672
  2084.2500      0.0000    730.9128     13.3116     59.3780
  2084.5000      0.0000    667.6564     15.7821     51.2096
  2084.7500      0.0000    576.1713     18.3710     45.7501
  2085.0000      0.0000    478.8696     20.7881     43.3346
  2085.2500      0.0000    398.8318     22.7692     43.3058
  2085.5000      0.0000    347.0196     24.1634     44.0209
  2085.7500      0.0000    320.5207     24.9658     43.6609
  2086.0000      0.0000    309.9046     25.2582     41.3786
  2086.2500      0.0000    306.8889     25.1258     37.8811
  2086.5000      0.0000    307.5151     24.6320     35.0190
  2086.7500      0.0000    312.4313     23.8380     34.8090
  2087.0000      0.0000    327.1913     22.8039     38.6193
  2087.2500      0.0000    361.9590     21.5581     46.8722
  2087.5000      0.0000    426.7066     20.0791     58.9761
  2087.7500      0.0000    521.6020     18.3347     73.2805
  2088.0000      0.0000    630.8915     16.3784     87.5626
  2088.2500      0.0000    729.2985     14.4146    100.1953
  2088.5000      0.0000    796.8849     12.7191    110.7902
  2088.7500      0.0000    829.1478     11.4542    119.3714
  2089.0000      0.0000    835.9316     10.5809    125.2851
  2089.2500      0.0000    832.6487      9.9581    127.5308
  2089.5000      0.0000    830.5893      9.4845    126.0794
  2089.7500      0.0000    832.5560      9.1281    122.4060
  2090.0000      0.0000    835.4199      8.8725    118.5984
  2090.2500      0.0000    835.1581      8.6870    116.0067
  2090.5000      0.0000    829.8856      8.5393    114.7195
  2090.7500      0.0000    820.3811      8.4070    114.1263
  2091.0000      0.0000    809.3096      8.2805    113.7653
  2091.2500      0.0000    799.5941      8.1671    113.8009
  2091.5000      0.0000    792.4331      8.0965    115.0191
  2091.7500      0.0000    786.3263      8.1128    118.2120
  2092.0000      0.0000    778.2407      8.2393    123.1760
  2092.2500      0.0000    766.2941      8.4374    128.5111
  2092.5000      0.0000    751.5511      8.6240    132.8044
  2092.7500      0.0000    737.0707      8.7540    135.8855
  2093.0000      0.0000    725.2089      8.8820    138.6943
  2093.2500      0.0000    716.0098      9.1141    142.0126
  2093.5000      0.0000    708.1516      9.5052    145.4924
  2093.7500      0.0000    700.8378     10.0300    147.9471
  2094.0000      0.0000    694.2492     10.6515    148.5028
  2094.2500      0.0000    688.0600     11.3793    147.3349
  2094.5000      0.0000    680.7256     12.2463    145.3528
  2094.7500      0.0000    672.3212     13.2443    143.2806
  2095.0000      0.0000    667.3302     14.2857    141.0852
  2095.2500      0.0000    671.1641     15.2128    138.3633
  2095.5000      0.0000    683.7916     15.8681    135.3266
  2095.7500      0.0000    700.9456     16.1908    133.0796
  2096.0000      0.0000    720.4950     16.2411    132.5014
  2096.2500      0.0000    741.5708     16.1056    132.9598
  2096.5000      0.0000    759.0711     15.7838    132.3705
  2096.7500      0.0000    766.1673     15.1842    128.5768
  2097.0000      0.0000    762.1647     14.2258    120.9480
  2097.2500      0.0000    753.6101     12.9294    110.9196
  2097.5000      0.0000    747.8768     11.4099    100.6750
  2097.7500      0.0000    747.4418      9.8090     91.1087
  2098.0000      0.0000    749.9630      8.2506     81.4503
