~Version Information
VERS.                      2.0: CWLS Log ASCII Standard - VERSION 2.0
WRAP.                       NO: One line per depth step
~Well Information Block
STRT.FT               845.0000: 
STOP.FT              2308.2500: 
STEP.FT                 0.2500: 
NULL.                -999.2500: 
COMP.          Pioneer Natural Resources: COMPANY
WELL.             Vector 33-23: WELL
FLD.           Purgatoire River: FIELD
LOC.           1560' FEL & 1988' FSL----: LOCATION
PROV.                 Colorado: PROVINCE
CNTY.               Las Animas: COUNTRY
SRVC.                Patterson: SERVICE COMPANY
DATE.          Sat Mar 26 12:39:07 2005: LOG DATE
UWI.           05 071 08336 00: UNIQUE WELL ID
~Curve Information Block
DEPT.FT            0 000 00 00: Depth
SN.Ohm-m                      : IEL Short Normal
SP.mV                         : IEL Spontaneous Potential
DIR.Ohm-m                     : IEL Induction Resistivity
GR.GAPI                       : Gamma Ray
~Parameter Information Block
~A  Depth        SN          SP         DIR          GR     
# ...
  1917.0000     35.7332    -99.1663     27.7237     86.3911
  1917.2500     35.6617    -98.8637     27.6339     85.0270
  1917.5000     35.6050    -98.6353     27.6519     84.7446
  1917.7500     35.5737    -98.4568     27.7605     85.7510
  1918.0000     35.5520    -98.2899     27.9279     88.0832
  1918.2500     35.5067    -98.0859     28.1060     89.2249
  1918.5000     35.4022    -97.7926     28.2326     88.6414
  1918.7500     35.2081    -97.3609     28.2430     86.2241
  1919.0000     34.9008    -96.7523     28.0911     80.3969
  1919.2500     34.4674    -95.9438     27.7669     76.4567
  1919.5000     33.9172    -94.9297     27.2979     73.2199
  1919.7500     33.2887    -93.7204     26.7327     74.0237
  1920.0000     32.6402    -92.3386     26.1214     80.6857
  1920.2500     32.0241    -90.8130     25.5029     88.8393
  1920.5000     31.4564    -89.1736     24.8993    105.7802
  1920.7500     30.8992    -87.4473     24.3135    118.9273
  1921.0000     30.2786    -85.6562     23.7333    137.6466
  1921.2500     29.5345    -83.8170     23.1447    146.7633
  1921.5000     28.6740    -81.9414     22.5519    152.0986
  1921.7500     27.7892    -80.0357     21.9906    150.1219
  1922.0000     27.0261    -78.0996     21.5238    142.2521
  1922.2500     26.5207    -76.1250     21.2203    136.2460
  1922.5000     26.3283    -74.0946     21.1280    128.2680
  1922.7500     26.3769    -71.9821     21.2513    123.3209
  1923.0000     26.4740    -69.7541     21.5352    115.2440
  1923.2500     26.3814    -67.3735     21.8585    109.4271
  1923.5000     25.9287    -64.8036     22.0534    101.1739
  1923.7500     25.0993    -62.0128     21.9624     96.5816
  1924.0000     24.0317    -58.9790     21.5117     91.6272
  1924.2500     22.9406    -55.6947     20.7477     90.0728
  1924.5000     22.0099    -52.1720     19.8005     91.6039
  1924.7500     21.3190    -48.4470     18.8117     95.7830
  1925.0000     20.8359    -44.5836     17.8802    106.6000
  1925.2500     20.4688    -40.6726     17.0514    115.8159
  1925.5000     20.1363    -36.8262     16.3324    129.6198
  1925.7500     19.8056    -33.1672     15.7142    136.8951
  1926.0000     19.4865    -29.8142     15.1894    142.8804
  1926.2500     19.2080    -26.8663     14.7599    143.6891
  1926.5000     19.0056    -24.3905     14.4395    142.1827
  1926.7500     18.9204    -22.4150     14.2512    140.6842
  1927.0000     18.9939    -20.9289     14.2223    138.3183
  1927.2500     19.2524    -19.8883     14.3771    136.0096
  1927.5000     19.6887    -19.2271     14.7275    130.1621
  1927.7500     20.2613    -18.8683     15.2643    124.5634
  1928.0000     20.9142    -18.7357     15.9491    114.4950
  1928.2500     21.6033    -18.7623     16.7162    107.4630
  1928.5000     22.3112    -18.8957     17.4876     98.0135
  1928.7500     23.0428    -19.1007     18.1985     93.3397
  1929.0000     23.8063    -19.3580     18.8160     89.3683
  1929.2500     24.5910    -19.6622     19.3386     88.1583
  1929.5000     25.3559    -20.0167     19.7800     86.6368
  1929.7500     26.0415    -20.4305     20.1570     85.1650
  1930.0000     26.5987    -20.9131     20.4875     82.5327
  1930.2500     27.0147    -21.4725     20.7935     80.9360
  1930.5000     27.3163    -22.1138     21.0968     79.0781
  1930.7500     27.5539    -22.8393     21.4075     78.0685
  1931.0000     27.7793    -23.6509     21.7162     76.4224
  1931.2500     28.0328    -24.5540     21.9986     75.0504
  1931.5000     28.3397    -25.5615     22.2351     73.1153
  1931.7500     28.7119    -26.6982     22.4317     72.7356
  1932.0000     29.1527    -28.0030     22.6255     74.5736
  1932.2500     29.6638    -29.5276     22.8695     77.1126
  1932.5000     30.2517    -31.3317     23.2073     81.1693
  1932.7500     30.9274    -33.4737     23.6549     83.0485
  1933.0000     31.6971    -35.9987     24.2005     83.7625
  1933.2500     32.5500    -38.9245     24.8179     82.7491
  1933.5000     33.4534    -42.2307     25.4810     79.2622
  1933.7500     34.3612    -45.8511     26.1693     76.0007
  1934.0000     35.2290    -49.6720     26.8658     70.6920
  1934.2500     36.0245    -53.5400     27.5554     67.4883
  1934.5000     36.7298    -57.2750     28.2221     63.7748
  1934.7500     37.3337    -60.6908     28.8399     61.9212
  1935.0000     37.8175    -63.6172     29.3580     59.4625
  1935.2500     38.1400    -65.9206     29.7005     57.9527
  1935.5000     38.2338    -67.5190     29.7916     56.7768
  1935.7500     38.0227    -68.3865     29.5942     57.5654
  1936.0000     37.4546    -68.5488     29.1272     61.9835
  1936.2500     36.5295    -68.0713     28.4464     66.8653
  1936.5000     35.3033    -67.0449     27.6121     75.5867
  1936.7500     33.8677    -65.5751     26.6730     81.2762
  1937.0000     32.3259    -63.7755     25.6723     88.5740
  1937.2500     30.7828    -61.7676     24.6603     92.6627
  1937.5000     29.3382    -59.6800     23.6978     98.3560
  1937.7500     28.0737    -57.6454     22.8449    102.1646
  1938.0000     27.0345    -55.7911     22.1469    107.5036
  1938.2500     26.2253    -54.2241     21.6248    110.0489
  1938.5000     25.6256    -53.0165     21.2745    110.8978
  1938.7500     25.2076    -52.1948     21.0715    108.9798
  1939.0000     24.9409    -51.7387     20.9786    102.3071
  1939.2500     24.7907    -51.5891     20.9555     95.7539
  1939.5000     24.7251    -51.6631     20.9696     84.3413
  1939.7500     24.7288    -51.8718     21.0029     76.8927
  1940.0000     24.8057    -52.1364     21.0495     67.7654
  1940.2500     24.9622    -52.3986     21.1066     63.5852
  1940.5000     25.1833    -52.6256     21.1637     60.0791
  1940.7500     25.4257    -52.8095     21.1992     59.1167
  1941.0000     25.6336    -52.9625     21.1862     58.8484
  1941.2500     25.7675    -53.1093     21.1032     59.1276
  1941.5000     25.8226    -53.2785     20.9413     59.9942
  1941.7500     25.8266    -53.4935     20.7085     60.8118
  1942.0000     25.8180    -53.7645     20.4296     62.2111
  1942.2500     25.8204    -54.0831     20.1454     62.9836
  1942.5000     25.8260    -54.4189     19.9043     63.2580
  1942.7500     25.7951    -54.7212     19.7459     62.7139
  1943.0000     25.6638    -54.9228     19.6785     61.4789
  1943.2500     25.3511    -54.9495     19.6582     61.0757
  1943.5000     24.7743    -54.7303     19.5850     61.7260
  1943.7500     23.8786    -54.2101     19.3252     62.6528
  1944.0000     22.6783    -53.3599     18.7644     63.6127
  1944.2500     21.2745    -52.1844     17.8661     63.7749
  1944.5000     19.8227    -50.7240     16.6949     64.7989
  1944.7500     18.4642    -49.0497     15.3855     67.5982
  1945.0000     17.2695    -47.2531     14.0815     77.1759
  1945.2500     16.2340    -45.4320     12.8872     87.2379
  1945.5000     15.3137    -43.6742     11.8546    105.4419
  1945.7500     14.4613    -42.0441     10.9936    117.2956
  1946.0000     13.6390    -40.5736     10.2902    131.1244
  1946.2500     12.8156    -39.2590      9.7198    136.9440
  1946.5000     11.9657    -38.0649      9.2570    141.6279
  1946.7500     11.0807    -36.9332      8.8803    143.1966
  1947.0000     10.1818    -35.7957      8.5751    144.3452
  1947.2500      9.3234    -34.5881      8.3344    144.3421
  1947.5000      8.5824    -33.2624      8.1570    143.3307
  1947.7500      8.0367    -31.7959      8.0433    142.4899
  1948.0000      7.7429    -30.1960      7.9901    141.7910
  1948.2500      7.7166    -28.4987      7.9864    141.6847
  1948.5000      7.9219    -26.7619      8.0109    141.6475
  1948.7500      8.2750    -25.0552      8.0357    141.7513
  1949.0000      8.6705    -23.4490      8.0345    142.6643
  1949.2500      9.0202    -22.0038      7.9945    143.9393
  1949.5000      9.2823    -20.7645      7.9223    146.4359
  1949.7500      9.4653    -19.7571      7.8400    148.0723
  1950.0000      9.6092    -18.9906      7.7760    149.9470
  1950.2500      9.7593    -18.4598      7.7552    150.5978
