~Version Information
VERS.                      2.0: CWLS Log ASCII Standard - VERSION 2.0
WRAP.                       NO: One line per depth step
~Well Information Block
STRT.FT               743.8000: 
STOP.FT              1975.8000: 
STEP.FT                 0.1000: 
NULL.                -999.2500: 
COMP.          Petrogulf Corporation: COMPANY
WELL.            Montoya 6-14V: WELL
FLD.           Purgatorie River: FIELD
LOC.           318' FSL & 882' FWL: LOCATION
CNTY.               Las Animas: COUNTY
SRVC.                         : SERVICE COMPANY
DATE.          Sat Aug 14 09:19:43 2004: LOG DATE
UWI.           05 071 08020 00: UNIQUE WELL ID
STAT.                 Colorado: STATE
~Curve Information Block
DEPT.FT            0 000 00 00: Depth
DCAL.in                       : CDL Caliper
RHOB.g/cc                     : CDL Bulk Density
RHOC.g/cc                     : CDL Density Correction
DPOR.pu                       : CDL Density Porosity
GR.GAPI                       : Gamma Ray
NPOR.pu                       : Neutron Porosity
~Parameter Information Block
~A  Depth       DCAL        RHOB        RHOC        DPOR         GR         NPOR    
# ...
  1060.6000      7.9102      2.5663      0.0819      5.0707     82.4357     14.1056
  1060.7000      7.9102      2.5395      0.0183      6.6947     72.5877     12.6735
  1060.8000      7.8779      2.5042     -0.0375      8.8391     68.5274     11.8610
  1060.9000      7.8779      2.5008     -0.0119      9.0444     68.1151     12.0940
  1061.0000      7.8391      2.5320      0.0154      7.1505     66.1870     12.5010
  1061.1000      7.8391      2.5684      0.0607      4.9431     63.2461     12.5084
  1061.2000      7.8391      2.5843      0.0451      3.9843     60.5928     12.6407
  1061.3000      7.8311      2.5800      0.0340      4.2436     59.0091     12.6554
  1061.4000      7.8311      2.5770      0.0393      4.4273     58.8242     12.0156
  1061.5000      7.8108      2.5858      0.0738      3.8930     57.3423     11.4999
  1061.6000      7.8108      2.5934      0.1070      3.4283     55.5747     11.6411
  1061.7000      7.8108      2.5893      0.0854      3.6783     55.8837     11.9607
  1061.8000      7.8312      2.5795      0.0857      4.2698     55.8110     12.3601
  1061.9000      7.8312      2.5719      0.0752      4.7316     54.3144     13.2307
  1062.0000      7.8055      2.5753      0.0389      4.5297     53.7615     14.3292
  1062.1000      7.8055      2.5984      0.0151      3.1285     55.5362     14.9709
  1062.2000      7.8055      2.6310      0.0539      1.1527     57.5406     15.2369
  1062.3000      7.8085      2.6511      0.0324     -0.0639     57.8534     15.6472
  1062.4000      7.8085      2.6551      0.0890     -0.3082     59.2880     16.4000
  1062.5000      7.8397      2.6531      0.0903     -0.1867     66.0659     17.6171
  1062.6000      7.8397      2.6473      0.1423      0.1664     77.7210     19.3159
  1062.7000      7.8397      2.6283      0.1419      1.3179     89.8353     20.7380
  1062.8000      7.8739      2.5954      0.0798      3.3069     99.5181     21.2419
  1062.9000      7.8739      2.5653      0.0490      5.1326    107.6479     21.3953
  1063.0000      7.9192      2.5443      0.0521      6.4050    114.9183     21.8182
  1063.1000      7.9192      2.5311      0.0223      7.2089    122.5578     22.7877
  1063.2000      7.9192      2.5366      0.0525      6.8728    130.7329     24.2913
  1063.3000      7.9423      2.5652      0.0962      5.1382    137.2910     25.7827
  1063.4000      7.9423      2.5981      0.1483      3.1449    140.9380     26.7551
  1063.5000      7.9638      2.6161      0.1321      2.0573    139.3966     27.1127
  1063.6000      7.9638      2.6105      0.1766      2.3963    132.7121     26.9317
  1063.7000      7.9638      2.5686      0.1283      4.9319    126.1467     26.6683
  1063.8000      7.9788      2.4796      0.0585     10.3277    124.5660     27.0286
  1063.9000      7.9788      2.3484     -0.0084     18.2775    128.3216     28.0001
  1064.0000      8.0399      2.2018     -0.0861     27.1635    130.4921     28.8769
  1064.1000      8.0399      2.0639     -0.0780     35.5227    122.7687     29.4097
  1064.2000      8.0399      1.9259     -0.1149     43.8863    108.7577     29.9867
  1064.3000      8.0613      1.7761     -0.1520     52.9666     97.2810     30.4662
  1064.4000      8.0613      1.6351     -0.1615     61.5068     90.8872     30.2539
  1064.5000      8.1021      1.5367     -0.1643     67.4748     87.6768     29.4604
  1064.6000      8.1021      1.4871     -0.0873     70.4815     84.2241     29.2407
  1064.7000      8.1021      1.4643     -0.0045     71.8614     78.4475     30.2146
  1064.8000      8.1404      1.4513      0.0103     72.6463     71.1977     31.3094
  1064.9000      8.1404      1.4461      0.0627     72.9640     67.4484     31.6825
  1065.0000      8.3447      1.4458      0.1047     72.9847     70.2684     32.1818
  1065.1000      8.3447      1.4390      0.1295     73.3921     72.9512     33.2711
  1065.2000      8.3447      1.4119      0.1138     75.0384     69.1260     34.0422
  1065.3000      8.7557      1.3672     -0.0234     77.7438     63.3866     34.3172
  1065.4000      8.7557      1.3239     -0.0401     80.3675     60.9920     34.5307
  1065.5000      9.1604      1.2937     -0.0690     82.2015     61.1305     34.8366
  1065.6000      9.1604      1.2839     -0.0720     82.7960     62.9015     35.3235
  1065.7000      9.1604      1.2976      0.0273     81.9618     65.2295     35.5499
  1065.8000      8.8803      1.3301      0.0580     79.9925     66.8750     35.0093
  1065.9000      8.8803      1.3898      0.0406     76.3730     69.0202     34.0643
  1066.0000      9.1062      1.5076      0.0636     69.2389     76.4130     33.4832
  1066.1000      9.1062      1.6977      0.1311     57.7160     91.0264     33.5783
  1066.2000      9.1062      1.9209      0.2377     44.1894    105.9737     34.3858
  1066.3000      9.1454      2.1183      0.2974     32.2238    114.9748     35.4010
  1066.4000      9.1454      2.2641      0.3513     23.3888    119.6816     35.2720
  1066.5000      9.1039      2.3537      0.3953     17.9546    123.8286     33.5047
  1066.6000      9.1039      2.3851      0.3420     16.0558    127.0788     31.5806
  1066.7000      9.1039      2.3742      0.2968     16.7146    131.0064     30.9799
  1066.8000      9.1694      2.3625      0.1192     17.4234    140.1773     30.9964
  1066.9000      9.1694      2.3873      0.0796     15.9224    148.9007     30.2070
  1067.0000      9.1776      2.4410      0.0777     12.6670    145.3692     28.7380
  1067.1000      9.1776      2.4913      0.0730      9.6152    131.4781     27.5431
  1067.2000      9.1776      2.5287      0.1024      7.3545    120.6511     27.0601
  1067.3000      8.2160      2.5684      0.1093      4.9432    119.8626     27.1453
  1067.4000      8.2160      2.6226      0.1876      1.6587    125.7782     27.3675
  1067.5000      8.0517      2.6743      0.2809     -1.4754    133.5447     27.7186
  1067.6000      8.0517      2.6943      0.2233     -2.6876    137.8422     28.2049
  1067.7000      8.0517      2.6822      0.1704     -1.9489    136.5484     28.0867
  1067.8000      8.0266      2.6592      0.1526     -0.5558    131.3832     27.4010
  1067.9000      8.0266      2.6432      0.1278      0.4124    126.3343     27.0510
  1068.0000      8.0255      2.6393      0.1838      0.6490    123.5141     27.3439
  1068.1000      8.0255      2.6351      0.1598      0.9060    122.9328     28.1043
  1068.2000      8.0255      2.6126      0.1595      2.2690    126.6648     28.9013
  1068.3000      8.0245      2.5737      0.0681      4.6230    135.7563     29.0538
  1068.4000      8.0245      2.5462     -0.0205      6.2901    148.3542     28.4499
  1068.5000      8.0395      2.5438      0.0061      6.4394    157.4184     27.8782
  1068.6000      8.0395      2.5513      0.0267      5.9825    155.3965     27.5412
  1068.7000      8.0395      2.5619      0.0248      5.3413    143.5133     27.2932
  1068.8000      8.0223      2.5792      0.0747      4.2920    129.7287     27.6505
  1068.9000      8.0223      2.5985      0.0614      3.1190    123.8146     28.5211
  1069.0000      8.0170      2.6149      0.1105      2.1285    128.5590     28.8772
  1069.1000      8.0170      2.6263      0.0975      1.4367    133.3469     28.3046
  1069.2000      8.0170      2.6385      0.0585      0.6953    130.7865     27.2169
  1069.3000      8.0207      2.6523      0.1002     -0.1413    124.7768     26.1578
  1069.4000      8.0207      2.6547      0.0817     -0.2857    122.1614     25.9119
  1069.5000      8.0415      2.6469      0.0506      0.1884    125.0342     26.5841
  1069.6000      8.0415      2.6504      0.0054     -0.0225    127.8073     27.0924
  1069.7000      8.0415      2.6795     -0.0051     -1.7859    127.8682     26.9700
  1069.8000      8.0314      2.7203      0.0714     -4.2603    126.5968     26.9269
  1069.9000      8.0314      2.7497      0.0340     -6.0431    122.7363     27.0077
  1070.0000      8.0453      2.7691      0.0247     -7.2165    117.4056     26.7522
  1070.1000      8.0453      2.7871      0.0366     -8.3097    115.3364     26.4172
