~Version Information
VERS.                      2.0: CWLS Log ASCII Standard - VERSION 2.0
WRAP.                       NO: One line per depth step
~Well Information Block
STRT.FT               236.5000: 
STOP.FT              2818.2500: 
STEP.FT                 0.2500: 
NULL.                -999.2500: 
COMP.          Pioneer Natural Resources: COMPANY
WELL.            Sebring 42-29: WELL
FLD.           Purgatorie River: FIELD
LOC.           1751' FNL & 584' FEL--: LOCATION
PROV.                       CO: PROVINCE
CNTY.               Las Animas: COUNTRY
SRVC.          Patterson Wireline: SERVICE COMPANY
DATE.          Fri Aug 26 09:14:13 2005: LOG DATE
UWI.           05 071 08293 00: UNIQUE WELL ID
~Curve Information Block
DEPT.FT            0 000 00 00: Depth
CCL.                          : Casing Collar Locator
TT3.usec                      : CBL 3' Travel Time
AMP3.mV                       : CBL 3' Amplitude
GR.GAPI                       : Gamma Ray
~Parameter Information Block
~A  Depth       CCL         TT3         AMP3         GR     
# ...
   906.5000      0.0000    676.9067      8.3816    119.1886
   906.7500      0.0000    676.9314      8.4929    115.6820
   907.0000      0.0000    677.1027      8.6068    110.9255
   907.2500      0.0000    677.3865      8.6705    105.9378
   907.5000      0.0000    677.6313      8.6478    102.7805
   907.7500      0.0000    677.5671      8.5462    103.0658
   908.0000      0.0000    676.9070      8.4064    106.5968
   908.2500      0.0000    675.7003      8.2719    111.7174
   908.5000      0.0000    674.9657      8.1672    117.1040
   908.7500      0.0000    676.7571      8.0968    122.7984
   909.0000      0.0000    682.4741      8.0497    129.0660
   909.2500      0.0000    690.3726      8.0041    134.6807
   909.5000      0.0000    695.7808      7.9372    137.1664
   909.7500      0.0000    694.9310      7.8397    134.9656
   910.0000      0.0000    687.8535      7.7216    129.0761
   910.2500      0.0000    676.7451      7.6058    122.4979
   910.5000      0.0000    663.0939      7.5194    118.2321
   910.7500      0.0000    648.2194      7.4840    117.5417
   911.0000      0.0000    635.7164      7.5047    119.3932
   911.2500      0.0000    630.9373      7.5653    121.1923
   911.5000      0.0000    636.9034      7.6379    120.4709
   911.7500      0.0000    651.2183      7.7002    116.5281
   912.0000      0.0000    666.8618      7.7431    110.6693
   912.2500      0.0000    675.2620      7.7673    104.9476
   912.5000      0.0000    670.0308      7.7764    100.9168
   912.7500      0.0000    650.8128      7.7731     99.3569
   913.0000      0.0000    624.5488      7.7607    100.3140
   913.2500      0.0000    601.5070      7.7481    103.0815
   913.5000      0.0000    589.3312      7.7481    106.6541
   913.7500      0.0000    590.6841      7.7680    110.4929
   914.0000      0.0000    603.9755      7.8017    114.5696
   914.2500      0.0000    623.7506      7.8313    118.6561
   914.5000      0.0000    642.0346      7.8367    122.0171
   914.7500      0.0000    652.4542      7.8012    123.9515
   915.0000      0.0000    653.8001      7.7098    124.2427
   915.2500      0.0000    649.3622      7.5466    122.9388
   915.5000      0.0000    643.6113      7.3041    120.0163
   915.7500      0.0000    640.3127      7.0095    115.4813
   916.0000      0.0000    643.0544      6.7340    109.7994
   916.2500      0.0000    655.0765      6.5518    104.2359
   916.5000      0.0000    676.5317      6.4870    100.6488
   916.7500      0.0000    702.3849      6.5148    100.5738
   917.0000      0.0000    725.7067      6.6006    104.1513
   917.2500      0.0000    744.0521      6.7163    110.0322
   917.5000     -2.0000    759.9733      6.8339    116.6113
   917.7500      0.0000    773.5604      6.9318    123.2964
   918.0000      0.0000    778.8510      6.9996    130.2458
   918.2500      0.0000    771.9587      7.0327    136.9627
   918.5000      0.0000    758.7649      7.0427    141.9127
   918.7500      0.0000    748.9109      7.0878    143.9263
   919.0000      0.0000    745.1484      7.2706    143.3411
   919.2500      0.0000    744.0389      7.6659    141.2368
   919.5000      0.0000    744.0385      8.2410    138.0594
   919.7500      0.0000    746.0460      8.8647    133.4994
   920.0000      0.0000    747.1180      9.4082    127.4803
   920.2500      0.0000    740.2764      9.8265    120.8627
   920.5000      0.0000    722.1258     10.1433    115.0124
   920.7500      0.0000    696.9713     10.3847    110.6571
   921.0000      0.0000    673.2795     10.5513    107.4200
   921.2500      0.0000    659.1116     10.6420    104.7032
   921.5000      0.0000    659.8931     10.6738    102.7599
   921.7500      0.0000    675.2701     10.6705    102.6521
   922.0000      0.0000    696.4943     10.6410    105.4196
   922.2500      0.0000    710.8814     10.5747    111.3091
   922.5000      0.0000    711.7206     10.4547    119.3673
   922.7500      0.0000    702.5355     10.2732    127.7210
   923.0000      0.0000    691.3962     10.0445    134.5945
   923.2500      0.0000    683.5012      9.8049    139.0824
   923.5000      0.0000    679.4799      9.5966    141.0542
   923.7500      0.0000    677.8853      9.4452    140.9005
   924.0000      0.0000    677.3901      9.3479    139.7267
   924.2500      0.0000    677.3072      9.2815    139.2835
   924.5000      0.0000    677.3588      9.2211    140.8934
   924.7500      0.0000    677.4136      9.1519    144.2045
   925.0000      0.0000    677.3900      9.0705    147.3168
   925.2500      0.0000    677.2122      8.9788    148.2677
   925.5000      0.0000    676.6821      8.8765    146.3406
   925.7500      0.0000    675.2723      8.7597    142.2738
   926.0000      0.0000    672.0452      8.6286    137.6189
   926.2500      0.0000    666.1104      8.4939    133.7265
   926.5000      0.0000    657.6089      8.3761    130.9876
   926.7500      0.0000    648.3535      8.2951    129.0046
   927.0000      0.0000    641.0160      8.2633    127.4185
   927.2500      0.0000    637.2018      8.2827    126.3694
   927.5000      0.0000    636.1839      8.3484    126.3687
   927.7500      0.0000    635.5037      8.4504    128.1227
   928.0000      0.0000    632.7245      8.5718    132.1886
   928.2500      0.0000    626.9832      8.6882    138.1746
   928.5000      0.0000    619.7990      8.7729    144.3866
   928.7500      0.0000    615.2137      8.8076    149.0481
   929.0000      0.0000    618.9941      8.7934    152.1151
   929.2500      0.0000    636.2250      8.7590    155.4118
   929.5000      0.0000    667.4326      8.7601    160.6682
   929.7500      0.0000    705.9937      8.8625    167.5958
   930.0000      0.0000    741.0631      9.1060    173.8451
   930.2500      0.0000    765.3233      9.4744    176.5309
   930.5000      0.0000    780.1057      9.9039    174.0232
   930.7500      0.0000    792.2754     10.3297    166.9198
   931.0000      0.0000    806.5629     10.7254    157.5426
   931.2500      0.0000    821.8943     11.0982    148.3173
   931.5000      0.0000    834.4371     11.4531    140.5882
   931.7500      0.0000    842.1273     11.7680    134.7515
   932.0000      0.0000    845.6672     12.0038    130.8290
   932.2500      0.0000    846.6375     12.1364    128.7554
   932.5000      0.0000    845.5767     12.1678    128.5975
   932.7500      0.0000    841.1071     12.1015    130.4320
   933.0000      0.0000    830.1011     11.9157    133.6373
   933.2500      0.0000    809.4878     11.5813    136.6107
   933.5000      0.0000    779.5270     11.1108    137.6169
   933.7500      0.0000    745.6176     10.5708    136.0567
   934.0000      0.0000    715.7043     10.0406    132.9211
   934.2500      0.0000    695.1110      9.5716    129.9741
   934.5000      0.0000    684.0021      9.1903    128.3845
   934.7500      0.0000    679.2168      8.9159    128.0598
   935.0000      0.0000    677.3708      8.7524    128.2612
   935.2500      0.0000    676.2899      8.6726    128.7914
   935.5000      0.0000    674.8495      8.6286    130.3670
   935.7500      0.0000    672.6345      8.5823    133.3742
   936.0000      0.0000    670.0202      8.5257    136.2098
   936.2500      0.0000    668.1137      8.4766    135.7658
   936.5000      0.0000    667.9729      8.4578    130.2539
   936.7500      0.0000    669.6279      8.4786    121.2274
   937.0000      0.0000    672.0580      8.5283    112.5290
   937.2500      0.0000    674.1344      8.5842    107.5445
   937.5000      0.0000    675.3839      8.6249    107.3816
   937.7500      0.0000    675.9320      8.6401    111.0552
   938.0000      0.0000    676.0811      8.6319    116.9131
   938.2500      0.0000    676.0788      8.6102    123.7832
   938.5000      0.0000    676.0960      8.5868    130.9194
   938.7500      0.0000    676.2189      8.5703    137.3855
   939.0000      0.0000    676.4294      8.5664    142.1122
   939.2500      0.0000    676.6395      8.5796    144.6548
   939.5000      0.0000    676.7670      8.6128    145.5682
   939.7500      0.0000    676.7814      8.6636    145.6921
