~Version Information
VERS.                      2.0: CWLS Log ASCII Standard - VERSION 2.0
WRAP.                       NO: One line per depth step
~Well Information Block
STRT.FT               -14.2500: 
STOP.FT              2177.5000: 
STEP.FT                 0.2500: 
NULL.                -999.2500: 
COMP.          Evergreen Operating Corp.: COMPANY
WELL.            Triumph 13-10: WELL
FLD.           Purgatorie River: FIELD
LOC.           1551' FSL & 522' FWL--: LOCATION
PROV.                       CO: PROVINCE
CNTY.               Las Animas: COUNTRY
SRVC.                         : SERVICE COMPANY
DATE.          Sat Aug 21 09:27:32 2004: LOG DATE
UWI.           005 071 08108 : UNIQUE WELL ID
~Curve Information Block
DEPT.FT            0 000 00 00: Depth
CCL.                          : Casing Collar Locator
TT3.usec                      : CBL 3' Travel Time
AMP3.mV                       : CBL 3' Amplitude
GR.GAPI                       : Gamma Ray
~Parameter Information Block
~A  Depth       CCL         TT3         AMP3         GR     
# ...
  1694.2500      0.0000    686.6534      3.6318     65.5374
  1694.5000      0.0000    696.4181      3.2901     64.2705
  1694.7500      0.0000    702.6430      3.0619     63.8402
  1695.0000      0.0000    705.1194      3.0471     63.7758
  1695.2500      0.0000    703.7557      3.2269     63.2157
  1695.5000      0.0000    697.3438      3.4743     61.5071
  1695.7500      0.0000    684.4272      3.6303     58.7506
  1696.0000      0.0000    665.9790      3.6043     55.8507
  1696.2500      0.0000    647.2003      3.4295     53.8439
  1696.5000      0.0000    635.7495      3.2286     53.0855
  1696.7500      0.0000    636.8915      3.1239     53.1265
  1697.0000      0.0000    649.8558      3.1602     53.4021
  1697.2500      0.0000    668.1220      3.2888     53.9217
  1697.5000      0.0000    682.6120      3.4168     55.2277
  1697.7500      0.0000    686.1279      3.4834     57.8395
  1698.0000      0.0000    677.6121      3.4992     61.7612
  1698.2500      0.0000    663.1131      3.5194     66.2528
  1698.5000      2.0000    651.6874      3.5813     69.9878
  1698.7500     -2.0000    649.5430      3.6619     71.7865
  1699.0000      0.0000    657.2010      3.6939     71.5650
  1699.2500      0.0000    670.7498      3.6285     70.4815
  1699.5000      0.0000    684.9263      3.4859     69.9250
  1699.7500      0.0000    695.6617      3.3444     70.3108
  1700.0000      0.0000    701.2770      3.2858     70.8500
  1700.2500      0.0000    702.3603      3.3311     70.3657
  1700.5000      0.0000    700.8387      3.4090     68.2877
  1700.7500      0.0000    698.9257      3.3986     65.0918
  1701.0000      0.0000    698.3344      3.2331     61.9845
  1701.2500      0.0000    699.5727      2.9701     60.0886
  1701.5000      0.0000    701.7275      2.7499     59.7913
  1701.7500      0.0000    703.1038      2.6811     60.7633
  1702.0000      0.0000    702.1935      2.7575     62.4483
  1702.2500      0.0000    698.2726      2.8747     64.5620
  1702.5000      0.0000    691.7022      2.9298     67.2799
  1702.7500      0.0000    683.9518      2.9122     70.8842
  1703.0000      0.0000    676.9335      2.8967     75.0374
  1703.2500      0.0000    671.9242      2.9551     78.4623
  1703.5000      0.0000    669.0461      3.0879     79.5600
  1703.7500      0.0000    667.6591      3.2289     77.5462
  1704.0000      0.0000    667.0281      3.2951     73.0894
  1704.2500      0.0000    666.6808      3.2342     67.7835
  1704.5000      0.0000    666.4125      3.0510     62.9212
  1704.7500      0.0000    666.1204      2.8143     58.7643
  1705.0000      0.0000    665.6393      2.6408     54.9673
  1705.2500      0.0000    664.7214      2.6410     51.5191
  1705.5000      0.0000    663.3030      2.8390     49.0494
  1705.7500      0.0000    662.0327      3.1339     48.1931
  1706.0000      0.0000    662.5225      3.3539     49.0279
  1706.2500      0.0000    666.4576      3.3709     51.5206
  1706.5000      0.0000    673.7294      3.1927     56.1844
  1706.7500      0.0000    681.5854      2.9652     63.5291
  1707.0000      0.0000    686.3569      2.8678     72.8827
  1707.2500      0.0000    686.3489      2.9703     82.4846
  1707.5000      0.0000    683.0071      3.1809     90.8620
  1707.7500      0.0000    679.5168      3.3461     97.6663
  1708.0000      0.0000    678.5702      3.4009    103.3068
  1708.2500      0.0000    681.0864      3.4167    108.4581
  1708.5000      0.0000    686.1859      3.5013    113.9576
  1708.7500      0.0000    692.0411      3.6564    120.4771
  1709.0000      0.0000    697.1983      3.7476    127.8176
  1709.2500      0.0000    701.3893      3.6268    134.5924
  1709.5000      0.0000    705.0168      3.2837    139.0577
  1709.7500      0.0000    708.1415      2.8779    140.7889
  1710.0000      0.0000    710.3715      2.6241    141.5921
  1710.2500      0.0000    711.4725      2.6400    144.1173
  1710.5000      0.0000    711.5910      2.8804    149.1144
  1710.7500      0.0000    710.9164      3.1843    154.3476
  1711.0000      0.0000    709.4434      3.3852    156.5190
  1711.2500      0.0000    707.1906      3.4148    154.1776
  1711.5000      0.0000    704.4745      3.3333    148.8801
  1711.7500      0.0000    701.6794      3.2569    143.8320
  1712.0000      0.0000    698.7729      3.2361    141.2511
  1712.2500      0.0000    695.5501      3.2115    140.7170
  1712.5000      0.0000    692.5435      3.1119    139.9928
  1712.7500      0.0000    690.9947      2.9708    137.3560
  1713.0000      0.0000    691.3838      2.9002    133.0401
  1713.2500      0.0000    692.5416      2.9565    128.6734
  1713.5000      0.0000    692.9070      3.0789    125.9199
  1713.7500      0.0000    692.3945      3.1675    125.7942
  1714.0000      0.0000    692.4059      3.1920    128.4499
  1714.2500      0.0000    694.2149      3.2156    132.9036
  1714.5000      0.0000    697.8726      3.3222    137.4403
  1714.7500      0.0000    702.4348      3.5300    140.9745
  1715.0000      0.0000    706.7244      3.7674    143.8883
  1715.2500      0.0000    709.9526      3.9255    147.3456
  1715.5000      0.0000    711.9463      3.9416    151.8301
  1715.7500      0.0000    712.9398      3.8450    155.9942
  1716.0000      0.0000    713.2498      3.7118    156.9674
  1716.2500      0.0000    713.1804      3.5689    152.8691
  1716.5000      0.0000    713.0142      3.3692    145.4248
  1716.7500      0.0000    712.8077      3.0879    139.1251
  1717.0000      0.0000    712.0865      2.8182    137.3454
  1717.2500      0.0000    709.8605      2.7246    139.8976
  1717.5000      0.0000    705.2176      2.8897    144.3602
  1717.7500      0.0000    698.2747      3.2217    148.8233
  1718.0000      0.0000    690.7059      3.5196    152.8260
  1718.2500      0.0000    685.1127      3.6273    156.1783
  1718.5000      0.0000    683.2517      3.5469    157.9038
  1718.7500      0.0000    684.0391      3.4270    156.9521
  1719.0000      0.0000    682.6438      3.4243    153.5215
  1719.2500      0.0000    671.8492      3.5500    148.8885
  1719.5000      0.0000    646.5942      3.6599    144.1516
  1719.7500      0.0000    609.6608      3.6020    139.7598
  1720.0000      0.0000    572.6915      3.3641    135.7943
  1720.2500      0.0000    548.8652      3.0837    132.0562
  1720.5000      0.0000    543.5739      2.9313    128.2383
  1720.7500      0.0000    553.0375      2.9822    124.3471
  1721.0000      0.0000    569.8618      3.1821    120.6704
  1721.2500      0.0000    586.8990      3.4179    117.4468
  1721.5000      0.0000    597.7230      3.6135    114.9679
  1721.7500      0.0000    599.0339      3.7663    113.5129
  1722.0000      0.0000    594.6241      3.9085    112.4447
  1722.2500      0.0000    594.0028      4.0384    109.9308
  1722.5000      0.0000    604.6513      4.0878    104.6176
  1722.7500      0.0000    626.1108      3.9688     97.4915
  1723.0000      0.0000    652.0049      3.6596     91.3256
  1723.2500      0.0000    676.1861      3.2436     88.2138
  1723.5000      0.0000    695.6109      2.8638     88.0593
  1723.7500      0.0000    708.7500      2.6361     89.4248
  1724.0000      0.0000    714.5227      2.5902     91.5871
  1724.2500      0.0000    713.8099      2.6759     95.5818
  1724.5000      0.0000    710.2021      2.8228    102.8929
  1724.7500      0.0000    707.6200      2.9939    113.0466
  1725.0000      0.0000    707.5226      3.1770    123.2830
  1725.2500      0.0000    708.9595      3.3403    131.3343
  1725.5000      0.0000    710.4575      3.4364    137.8076
  1725.7500      0.0000    711.2277      3.4614    144.5245
  1726.0000      0.0000    711.0584      3.4776    150.9901
  1726.2500      0.0000    709.7551      3.5451    154.4549
  1726.5000      0.0000    706.8399      3.6320    153.8048
  1726.7500      0.0000    701.8588      3.6248    151.4381
  1727.0000      0.0000    695.2787      3.4529    150.1536
  1727.2500      0.0000    689.0591      3.1874    149.4856
  1727.5000      0.0000    685.8046      2.9904    146.4727
