~Version Information
VERS.                      2.0: CWLS Log ASCII Standard - VERSION 2.0
WRAP.                       NO: One line per depth step
~Well Information Block
STRT.FT               390.0000: 
STOP.FT               902.2000: 
STEP.FT                 0.1000: 
NULL.                -999.2500: 
COMP.          Pioneer Natural Resources: COMPANY
WELL.              Venom 32-22: WELL
FLD.           Purgatoire River: FIELD
LOC.           2307' FNL & 2024' FEL----: LOCATION
PROV.                 Colorado: PROVINCE
CNTY.               Las Animas: COUNTRY
SRVC.                Patterson: SERVICE COMPANY
DATE.          Wed May 11 08:31:39 2005: LOG DATE
UWI.           05 071 08361 00: UNIQUE WELL ID
~Curve Information Block
DEPT.FT            0 000 00 00: Depth
DCAL.in                       : CDL Caliper
RHOB.g/cc                     : CDL Bulk Density
RHOC.g/cc                     : CDL Density Correction
DPOR.pu                       : CDL Density Porosity
NPOR.pu                       : Neutron Porosity
GR.GAPI                       : Gamma Ray
~Parameter Information Block
~A  Depth       DCAL        RHOB        RHOC        DPOR        NPOR         GR     
# ...
   841.2000      7.9349      2.5060      0.0633      8.7287     21.8132    117.7735
   841.3000      7.9356      2.4945      0.0803      9.4242     22.0112    122.4612
   841.4000      7.9356      2.4828      0.0744     10.1345     22.6352    130.1053
   841.5000      7.9356      2.4727      0.0487     10.7461     23.5757    134.5279
   841.6000      7.9356      2.4645      0.0859     11.2434     24.1133    138.0651
   841.7000      7.9356      2.4627      0.0185     11.3514     24.1445    147.8676
   841.8000      7.9352      2.4793      0.0484     10.3432     24.1850    158.9260
   841.9000      7.9352      2.5088      0.0860      8.5584     24.1807    159.7082
   842.0000      7.9365      2.5306      0.0620      7.2389     24.0756    149.1019
   842.1000      7.9365      2.5337      0.0947      7.0514     24.3154    136.2221
   842.2000      7.9365      2.5149      0.0674      8.1884     24.6102    128.8739
   842.3000      7.9348      2.4887      0.0331      9.7770     24.5058    126.3216
   842.4000      7.9348      2.4807      0.0301     10.2604     24.4304    125.7172
   842.5000      7.9200      2.5012      0.0138      9.0195     24.6539    128.9993
   842.6000      7.9200      2.5375      0.0759      6.8181     24.8420    135.5718
   842.7000      7.9200      2.5678      0.0809      4.9825     24.8565    139.8458
   842.8000      7.8984      2.5849      0.0686      3.9442     24.6474    140.9123
   842.9000      7.8984      2.5911      0.1227      3.5718     23.9984    142.9150
   843.0000      7.8851      2.5822      0.1370      4.1078     23.1321    148.3919
   843.1000      7.8851      2.5630      0.0658      5.2747     22.3277    154.5245
   843.2000      7.8851      2.5517      0.0496      5.9554     21.4881    153.5654
   843.3000      7.8792      2.5594      0.0976      5.4879     20.4982    144.9170
   843.4000      7.8792      2.5787      0.1100      4.3200     19.3834    138.9082
   843.5000      7.8714      2.5887      0.1095      3.7164     18.6967    140.5066
   843.6000      7.8714      2.5806      0.0629      4.2038     18.9781    142.5824
   843.7000      7.8714      2.5778      0.0485      4.3778     19.9788    139.9801
   843.8000      7.8626      2.5981      0.0653      3.1448     21.2303    136.5848
   843.9000      7.8626      2.6179      0.1232      1.9465     22.2119    136.0358
   844.0000      7.8610      2.6125      0.0625      2.2730     22.7613    137.9699
   844.1000      7.8610      2.5950      0.0751      3.3345     23.1120    141.0143
   844.2000      7.8610      2.5779      0.0667      4.3676     23.4108    145.4506
   844.3000      7.8600      2.5535      0.0689      5.8504     23.8974    151.8837
   844.4000      7.8600      2.5217      0.0284      7.7775     24.5903    155.0488
   844.5000      7.8511      2.4990      0.0495      9.1532     25.0518    151.2692
   844.6000      7.8511      2.4977      0.0294      9.2313     24.9793    148.5557
   844.7000      7.8511      2.5194      0.0482      7.9134     24.7037    154.0065
   844.8000      7.8329      2.5542      0.0763      5.8041     24.5857    162.4728
   844.9000      7.8329      2.5818      0.1463      4.1329     24.5380    165.8132
   845.0000      7.8107      2.5908      0.1451      3.5891     24.4582    162.3789
   845.1000      7.8107      2.5955      0.1268      3.3003     24.3704    157.7413
   845.2000      7.8107      2.6172      0.1671      1.9881     24.1962    156.8721
   845.3000      7.7960      2.6537      0.1592     -0.2245     24.0111    155.0425
   845.4000      7.7960      2.6810      0.1980     -1.8813     24.0123    148.4466
   845.5000      7.8112      2.6769      0.1261     -1.6333     23.7643    145.7008
   845.6000      7.8112      2.6455      0.0978      0.2701     22.9643    149.0851
   845.7000      7.8112      2.6108      0.0735      2.3769     22.1206    152.3306
   845.8000      7.8473      2.5902      0.0431      3.6260     21.5986    153.0378
   845.9000      7.8473      2.5831      0.0715      4.0567     21.3299    146.6023
   846.0000      7.8620      2.5779      0.1056      4.3710     20.9804    134.1535
   846.1000      7.8620      2.5674      0.0786      5.0045     20.2094    122.6789
   846.2000      7.8620      2.5549      0.0373      5.7660     19.2320    113.4557
   846.3000      7.8560      2.5509      0.0498      6.0071     18.6999    107.9572
   846.4000      7.8560      2.5646      0.0387      5.1734     18.9741    109.0413
   846.5000      7.8552      2.5935      0.0582      3.4253     19.8301    114.4825
   846.6000      7.8552      2.6136      0.1181      2.2089     20.6731    119.0914
   846.7000      7.8552      2.6041      0.0328      2.7790     21.1153    120.5012
   846.8000      7.8627      2.5837      0.0461      4.0161     21.4068    117.6844
   846.9000      7.8627      2.5778      0.0493      4.3759     21.8464    113.9016
   847.0000      7.8634      2.5807      0.0807      4.1976     22.2966    115.0998
   847.1000      7.8634      2.5801      0.0463      4.2352     22.6412    124.7014
   847.2000      7.8634      2.5760      0.0936      4.4850     22.9882    140.9975
   847.3000      7.8617      2.5673      0.0533      5.0130     22.9415    153.0106
   847.4000      7.8617      2.5595      0.0215      5.4878     22.2057    151.3360
   847.5000      7.8646      2.5649      0.0315      5.1577     21.5413    142.8869
   847.6000      7.8646      2.5809      0.0940      4.1904     21.5568    138.8296
   847.7000      7.8646      2.5878      0.0896      3.7669     21.9223    139.5894
   847.8000      7.8650      2.5789      0.0879      4.3089     22.3747    140.6339
   847.9000      7.8650      2.5677      0.0796      4.9881     22.9709    137.8352
   848.0000      7.8615      2.5605      0.0947      5.4241     23.3716    130.9920
   848.1000      7.8615      2.5474      0.0718      6.2172     23.2694    128.2242
   848.2000      7.8615      2.5294      0.0300      7.3066     23.0029    135.2260
   848.3000      7.8538      2.5247      0.0247      7.5918     22.8165    147.5342
   848.4000      7.8538      2.5411      0.0504      6.5979     22.5210    158.7238
   848.5000      7.8526      2.5605      0.1507      5.4241     22.4127    164.0752
   848.6000      7.8526      2.5684      0.0638      4.9454     23.0118    162.9156
   848.7000      7.8526      2.5752      0.1067      4.5314     23.8102    159.4177
   848.8000      7.8608      2.5807      0.1342      4.1981     24.1399    158.2905
   848.9000      7.8608      2.5741      0.0865      4.6016     24.0854    155.6188
   849.0000      7.8601      2.5568      0.0779      5.6460     23.7221    147.0634
   849.1000      7.8601      2.5363      0.0719      6.8924     23.1697    139.0866
   849.2000      7.8601      2.5205      0.0882      7.8488     22.7675    137.8226
   849.3000      7.8554      2.5167      0.0649      8.0775     22.5393    139.4758
   849.4000      7.8554      2.5247      0.0540      7.5933     22.3617    136.0006
   849.5000      7.8546      2.5392      0.0647      6.7152     22.3681    127.9341
   849.6000      7.8546      2.5533      0.0932      5.8580     22.4279    121.5374
   849.7000      7.8546      2.5556      0.1116      5.7198     22.2201    118.4118
   849.8000      7.8532      2.5431      0.1035      6.4760     21.6898    118.6403
   849.9000      7.8532      2.5345      0.0764      7.0023     20.9266    122.2204
   850.0000      7.8466      2.5476      0.1092      6.2056     20.2931    123.8282
   850.1000      7.8466      2.5727      0.1507      4.6840     20.0871    118.4698
   850.2000      7.8466      2.5916      0.1007      3.5417     19.9047    112.7050
   850.3000      7.8390      2.6028      0.1428      2.8636     19.5024    111.3644
   850.4000      7.8390      2.6100      0.0882      2.4233     19.2283    107.8111
   850.5000      7.8387      2.6180      0.0907      1.9424     19.3223    103.3631
   850.6000      7.8387      2.6268      0.0998      1.4076     19.7741    107.7172
   850.7000      7.8387      2.6301      0.0825      1.2077     20.2496    118.4480
