~Version Information
VERS.                      2.0: CWLS Log ASCII Standard - VERSION 2.0
WRAP.                       NO: One line per depth step
~Well Information Block
STRT.FT               472.0000: 
STOP.FT              2641.5000: 
STEP.FT                 0.1000: 
NULL.                -999.2500: 
COMP.          Pioneer Natural Resources: COMPANY
WELL.              Wagner 13-9: WELL
FLD.           Purgatoire River: FIELD
LOC.           1819' FSL & 1111' FWL: LOCATION
PROV.                 Colorado: PROVINCE
CNTY.               Las Animas: COUNTRY
SRVC.                Patterson: SERVICE COMPANY
DATE.          Tue Apr 19 08:56:38 2005: LOG DATE
UWI.           05 071 08302 00: UNIQUE WELL ID
~Curve Information Block
DEPT.FT            0 000 00 00: Depth
DCAL.in                       : CDL Caliper
RHOB.g/cc                     : CDL Bulk Density
RHOC.g/cc                     : CDL Density Correction
DPOR.pu                       : CDL Density Porosity
GR.GAPI                       : Gamma Ray
NPOR.pu                       : Neutron Porosity
~Parameter Information Block
~A  Depth       DCAL        RHOB        RHOC        DPOR         GR         NPOR    
# ...
  2200.0000      7.8890      2.5004      0.0096      9.0651    121.7810     25.8800
  2200.1000      7.8890      2.5174      0.0233      8.0363    122.9258     25.7719
  2200.2000      7.8890      2.5248      0.0438      7.5904    119.1372     25.2024
  2200.3000      7.9016      2.5223      0.0586      7.7388    113.1284     24.5377
  2200.4000      7.9016      2.5162      0.0068      8.1112    109.8419     23.6625
  2200.5000      7.9173      2.5123      0.0193      8.3472    111.1521     22.2135
  2200.6000      7.9173      2.5046      0.0446      8.8136    110.1730     21.1623
  2200.7000      7.9173      2.4963     -0.0033      9.3145    102.3018     21.5147
  2200.8000      7.9452      2.5069     -0.0008      8.6755     96.9723     22.2813
  2200.9000      7.9452      2.5323      0.0504      7.1314     99.3269     22.3067
  2201.0000      7.9590      2.5460      0.0550      6.3007    102.2946     21.7340
  2201.1000      7.9590      2.5430     -0.0064      6.4852    103.1646     21.0168
  2201.2000      7.9590      2.5366     -0.0219      6.8722    103.9100     20.0937
  2201.3000      7.9442      2.5275     -0.0120      7.4273    102.1397     18.6208
  2201.4000      7.9442      2.5129      0.0080      8.3074     96.6466     17.1765
  2201.5000      7.9217      2.5009      0.0252      9.0344     93.7076     16.4475
  2201.6000      7.9217      2.4944      0.0175      9.4324     97.3615     16.1107
  2201.7000      7.9217      2.4874      0.0371      9.8570    100.2161     15.6036
  2201.8000      7.9071      2.4861     -0.0753      9.9338     96.8153     15.2726
  2201.9000      7.9071      2.4978      0.0327      9.2271     94.1653     15.7351
  2202.0000      7.8918      2.5079      0.0208      8.6138     96.0670     16.3755
  2202.1000      7.8918      2.5109      0.0280      8.4301     96.3312     16.2228
  2202.2000      7.8918      2.5102      0.0117      8.4726     93.1695     15.7815
  2202.3000      7.8746      2.5043     -0.0350      8.8305     89.6963     15.9943
  2202.4000      7.8746      2.5007      0.0003      9.0506     88.1503     16.6537
  2202.5000      7.8601      2.4983      0.0488      9.1918     90.9131     16.9213
  2202.6000      7.8601      2.4906     -0.0017      9.6629     96.5670     16.3694
  2202.7000      7.8601      2.4956      0.0092      9.3560     98.8336     15.4093
  2202.8000      7.8458      2.5260      0.0349      7.5140     95.7418     14.8116
  2202.9000      7.8458      2.5557      0.0695      5.7176     90.9126     14.3536
  2203.0000      7.8332      2.5584      0.0780      5.5527     85.3956     13.6140
  2203.1000      7.8332      2.5454      0.0491      6.3392     81.0684     13.3358
  2203.2000      7.8332      2.5401      0.0730      6.6629     79.8511     13.8123
  2203.3000      7.8302      2.5435      0.0514      6.4523     77.7069     13.9042
  2203.4000      7.8302      2.5509      0.0281      6.0084     73.2144     13.1063
  2203.5000      7.8377      2.5639      0.0466      5.2157     68.6575     12.3144
  2203.6000      7.8377      2.5737      0.0685      4.6228     64.0009     11.9565
  2203.7000      7.8377      2.5620      0.0949      5.3329     60.7770     11.4642
  2203.8000      7.8492      2.5247      0.0759      7.5926     59.6843     10.3301
  2203.9000      7.8492      2.4862     -0.0056      9.9284     55.8334      9.0909
  2204.0000      7.8573      2.4749     -0.0269     10.6112     48.0412      8.5451
  2204.1000      7.8573      2.4886      0.0217      9.7790     43.4978      8.5471
  2204.2000      7.8573      2.4945      0.0717      9.4266     43.1522      8.6236
  2204.3000      7.8563      2.4726     -0.0104     10.7545     40.5987      8.6164
  2204.4000      7.8563      2.4493      0.0012     12.1623     35.1295      8.4868
  2204.5000      7.8445      2.4532      0.0317     11.9247     31.4503      8.2173
  2204.6000      7.8445      2.4764      0.0499     10.5208     31.0695      8.0817
  2204.7000      7.8445      2.4976      0.0924      9.2342     31.2010      8.2950
  2204.8000      7.8377      2.5021      0.1009      8.9634     29.9137      8.3984
  2204.9000      7.8377      2.4949      0.0682      9.3977     28.2250      7.9531
  2205.0000      7.8377      2.4990      0.0881      9.1533     28.0299      7.3510
  2205.1000      7.8377      2.5199      0.1058      7.8839     30.2216      7.1268
  2205.2000      7.8377      2.5388      0.1353      6.7394     32.8209      7.4827
  2205.3000      7.8414      2.5383      0.1052      6.7717     32.3622      8.1218
  2205.4000      7.8414      2.5172      0.0988      8.0496     28.9971      8.5917
  2205.5000      7.8530      2.4857      0.0537      9.9585     25.9327      8.6252
  2205.6000      7.8530      2.4621      0.0339     11.3883     26.0856      8.2217
  2205.7000      7.8530      2.4634      0.0132     11.3118     29.2046      8.0351
  2205.8000      7.8712      2.4848      0.0255     10.0137     32.1186      8.3865
  2205.9000      7.8712      2.5003      0.0573      9.0750     33.5203      8.7931
  2206.0000      7.8849      2.4938      0.0443      9.4694     35.1998      9.1053
  2206.1000      7.8849      2.4771      0.0218     10.4805     38.1278      9.7987
  2206.2000      7.8849      2.4731     -0.0095     10.7192     41.0310     11.3986
  2206.3000      7.8908      2.4936      0.0025      9.4788     44.0539     13.9263
  2206.4000      7.8908      2.5254      0.0587      7.5534     49.6835     16.6627
  2206.5000      7.8896      2.5435      0.0329      6.4519     60.2473     18.6136
  2206.6000      7.8896      2.5397      0.0630      6.6862     72.1329     19.3740
  2206.7000      7.8896      2.5274      0.0159      7.4299     79.5879     19.4466
  2206.8000      7.8788      2.5263      0.0343      7.4994     86.2942     20.1550
  2206.9000      7.8788      2.5412      0.0538      6.5912     96.5734     22.0884
  2207.0000      7.8668      2.5590      0.0774      5.5174    103.3812     24.2706
  2207.1000      7.8668      2.5649      0.1046      5.1556    103.0108     26.0885
  2207.2000      7.8668      2.5591      0.0836      5.5068    104.5418     27.6460
  2207.3000      7.8604      2.5522      0.0549      5.9244    111.2180     28.7994
  2207.4000      7.8604      2.5530      0.0521      5.8770    115.3029     28.9684
  2207.5000      7.8578      2.5557      0.0631      5.7125    112.1801     27.8125
  2207.6000      7.8578      2.5430      0.0838      6.4834    104.9609     26.2803
  2207.7000      7.8578      2.5202     -0.0003      7.8695     99.7672     25.3939
  2207.8000      7.8577      2.5137      0.0151      8.2616     98.9616     25.2166
  2207.9000      7.8577      2.5212      0.0667      7.8076     99.1640     25.0522
  2208.0000      7.8665      2.5167      0.0250      8.0811     98.4391     24.1917
  2208.1000      7.8665      2.4986     -0.0060      9.1751     97.7460     22.9823
  2208.2000      7.8665      2.4830     -0.0018     10.1183     98.5423     22.6376
  2208.3000      7.8865      2.4757     -0.0253     10.5632    100.9446     23.6611
  2208.4000      7.8865      2.4734      0.0033     10.7014    101.9004     25.1738
  2208.5000      7.8979      2.4661     -0.0026     11.1439    102.2150     26.4091
  2208.6000      7.8979      2.4517     -0.0039     12.0158    102.8696     26.8342
  2208.7000      7.8979      2.4475     -0.0078     12.2722    101.6317     26.6963
  2208.8000      7.8924      2.4650      0.0329     11.2146    100.8991     27.0535
  2208.9000      7.8924      2.4922      0.0349      9.5623    101.3957     27.6465
  2209.0000      7.8773      2.5102      0.0670      8.4748     99.5360     27.4192
  2209.1000      7.8773      2.5097      0.0241      8.5034     96.9759     26.1766
  2209.2000      7.8773      2.4979      0.0583      9.2191     98.1886     24.4891
  2209.3000      7.8643      2.4924     -0.0084      9.5501    100.8920     23.1708
  2209.4000      7.8643      2.5048      0.0575      8.8003    100.1662     22.9097
  2209.5000      7.8609      2.5224      0.0557      7.7359     97.9324     23.6929
