~Version Information
VERS.                      2.0: CWLS Log ASCII Standard - VERSION 2.0
WRAP.                       NO: One line per depth step
~Well Information Block
STRT.FT                -6.7500: 
STOP.FT              2058.2500: 
STEP.FT                 0.2500: 
NULL.                -999.2500: 
COMP.          Petrogulf Corporation: COMPANY
WELL.           Schedler 9-23R: WELL
FLD.           Purgatorie River: FIELD
LOC.           2084' FSL & 2331' FWL--: LOCATION
PROV.                       CO: PROVINCE
CNTY.               Las Animas: COUNTRY
SRVC.                         : SERVICE COMPANY
DATE.          Fri Nov 12 13:22:46 2004: LOG DATE
UWI.       005 071 08040 : UNIQUE WELL ID
~Curve Information Block
DEPT.FT            0 000 00 00: Depth
GR.GAPI                       : Gamma Ray
CCL.                          : Casing Collar Locator
TT3.usec                      : CBL 3' Travel Time
AMP3.mV                       : CBL 3' Amplitude
~Parameter Information Block
~A  Depth        GR         CCL         TT3         AMP3    
# ...
  1500.7500     73.1687     -2.0000    681.5944      2.4861
  1501.0000     75.0774     -2.0000    680.9150      2.6493
  1501.2500     79.4932      0.0000    680.0292      2.7183
  1501.5000     85.3498      0.0000    678.2604      2.6685
  1501.7500     90.6939      0.0000    674.1217      2.5362
  1502.0000     93.6876      0.0000    666.5845      2.3846
  1502.2500     93.6078      0.0000    656.8060      2.2521
  1502.5000     91.2244      0.0000    647.5306      2.1359
  1502.7500     88.2431      0.0000    640.8799      2.0280
  1503.0000     86.0298      0.0000    637.2296      1.9502
  1503.2500     84.7955      0.0000    635.8533      1.9381
  1503.5000     84.1628      0.0000    635.7929      1.9986
  1503.7500     84.1325      0.0000    635.8891      2.0969
  1504.0000     84.9181      0.0000    634.6970      2.1802
  1504.2500     86.2465      0.0000    631.2838      2.2098
  1504.5000     87.6550      0.0000    626.1506      2.1766
  1504.7500     89.2370      0.0000    620.9084      2.0985
  1505.0000     91.3051      0.0000    616.9539      2.0044
  1505.2500     93.4606      0.0000    614.6488      1.9178
  1505.5000     94.6888      0.0000    613.5795      1.8501
  1505.7500     94.4340      0.0000    613.1757      1.8013
  1506.0000     93.2393      0.0000    613.0176      1.7664
  1506.2500     92.3049      0.0000    612.8409      1.7397
  1506.5000     92.5614      0.0000    612.5066      1.7157
  1506.7500     94.0578      0.0000    612.0291      1.6881
  1507.0000     95.8895      0.0000    611.5829      1.6529
  1507.2500     96.5247      0.0000    611.4613      1.6139
  1507.5000     94.5862      0.0000    612.0521      1.5820
  1507.7500     90.0650      0.0000    613.7877      1.5675
  1508.0000     84.9569      0.0000    616.9076      1.5724
  1508.2500     82.1670      0.0000    621.1019      1.5889
  1508.5000     83.3563      0.0000    625.4002      1.6042
  1508.7500     87.8705      0.0000    628.4628      1.6063
  1509.0000     93.5643      0.0000    629.0818      1.5904
  1509.2500     98.2947      0.0000    626.7955      1.5619
  1509.5000    100.8475      0.0000    622.3812      1.5338
  1509.7500    101.0970      0.0000    617.5525      1.5191
  1510.0000     99.5604      0.0000    613.8271      1.5215
  1510.2500     96.7989      0.0000    611.6719      1.5315
  1510.5000     93.4007      0.0000    610.6804      1.5325
  1510.7500     90.3973      0.0000    610.2735      1.5097
  1511.0000     89.0066      0.0000    610.1577      1.4621
  1511.2500     89.5857      0.0000    610.4130      1.4088
  1511.5000     91.1486      0.0000    611.4767      1.3779
  1511.7500     92.2203      0.0000    614.0543      1.3836
  1512.0000     91.9106      0.0000    618.7409      1.4154
  1512.2500     89.9506      0.0000    625.3710      1.4504
  1512.5000     86.2576      0.0000    632.7074      1.4702
  1512.7500     81.2012      0.0000    639.0509      1.4708
  1513.0000     76.1261      0.0000    643.3358      1.4621
  1513.2500     72.8292      0.0000    645.6073      1.4590
  1513.5000     72.1990      0.0000    646.6663      1.4684
  1513.7500     73.6796      0.0000    647.7032      1.4847
  1514.0000     76.1424      0.0000    650.7264      1.4986
  1514.2500     78.7987      0.0000    659.2894      1.5083
  1514.5000     81.0957      0.0000    677.6231      1.5234
  1514.7500     82.3397      0.0000    707.1375      1.5573
  1515.0000     82.0832      0.0000    743.1973      1.6135
  1515.2500     80.8784      0.0000    776.7918      1.6803
  1515.5000     80.1611      0.0000    800.3942      1.7427
  1515.7500     81.0882      0.0000    811.8706      1.7982
  1516.0000     83.6331      0.0000    813.3122      1.8563
  1516.2500     86.9498      0.0000    807.8010      1.9201
  1516.5000     90.4086      0.0000    797.3080      1.9731
  1516.7500     94.0487      0.0000    781.9754      1.9886
  1517.0000     98.0799      0.0000    760.7870      1.9511
  1517.2500    102.0404      0.0000    733.9698      1.8688
  1517.5000    104.6403      0.0000    705.1365      1.7681
  1517.7500    104.6854      0.0000    680.0364      1.6778
  1518.0000    102.1088      0.0000    662.7192      1.6160
  1518.2500     98.0220      0.0000    653.3227      1.5853
  1518.5000     93.9503      0.0000    649.3279      1.5771
  1518.7500     91.1654      0.0000    648.0197      1.5784
  1519.0000     90.4384      0.0000    647.7338      1.5811
  1519.2500     91.9264      0.0000    647.7719      1.5838
  1519.5000     94.9571      0.0000    647.9222      1.5854
  1519.7500     97.9909      0.0000    648.1360      1.5798
  1520.0000     99.3080      0.0000    648.3892      1.5594
  1520.2500     98.2421      0.0000    648.6508      1.5258
  1520.5000     95.7968      0.0000    648.8802      1.4905
  1520.7500     93.8126      0.0000    649.0416      1.4646
  1521.0000     93.5267      0.0000    649.1179      1.4503
  1521.2500     94.9663      0.0000    649.1165      1.4445
  1521.5000     97.4661      0.0000    649.0674      1.4468
  1521.7500    100.3488      0.0000    649.0114      1.4616
  1522.0000    103.1050      0.0000    648.9839      1.4913
  1522.2500    105.2683      0.0000    649.0059      1.5282
  1522.5000    106.4146      0.0000    649.0857      1.5547
  1522.7500    106.4346      0.0000    649.2248      1.5544
  1523.0000    105.8210      0.0000    649.4181      1.5256
  1523.2500    105.5572      0.0000    649.6519      1.4854
  1523.5000    106.3895      0.0000    649.9159      1.4575
  1523.7500    107.9986      0.0000    650.2242      1.4548
  1524.0000    108.9273      0.0000    650.7678      1.4721
  1524.2500    107.6110      0.0000    652.2162      1.4970
  1524.5000    103.7473      0.0000    656.1707      1.5253
  1524.7500     98.6879      0.0000    665.2161      1.5649
  1525.0000     94.3548      0.0000    681.9648      1.6239
  1525.2500     91.7663      0.0000    707.3364      1.6946
  1525.5000     90.5734      0.0000    739.3577      1.7528
  1525.7500     89.6642      0.0000    772.6782      1.7762
  1526.0000     88.0216      0.0000    798.7076      1.7621
  1526.2500     85.3881      0.0000    808.2993      1.7246
  1526.5000     82.6116     -2.0000    797.3787      1.6838
  1526.7500     81.3542     -2.0000    770.1326      1.6604
  1527.0000     82.9677      0.0000    735.7133      1.6723
  1527.2500     87.1452      0.0000    702.7884      1.7276
  1527.5000     91.7972      0.0000    677.3918      1.8206
  1527.7500     94.8507      0.0000    662.9622      1.9292
  1528.0000     96.2154      0.0000    659.4624      2.0139
  1528.2500     97.5397      0.0000    662.2674      2.0324
  1528.5000    100.0535      0.0000    663.8711      1.9745
  1528.7500    103.1559      0.0000    658.7399      1.8770
  1529.0000    104.9936      0.0000    647.1791      1.7913
  1529.2500    103.9839      0.0000    633.9987      1.7405
  1529.5000    100.0344      0.0000    623.7642      1.7158
  1529.7500     94.8359      0.0000    617.8183      1.7013
  1530.0000     90.8794      0.0000    614.9975      1.6887
  1530.2500     89.6799      0.0000    613.6523      1.6740
  1530.5000     90.6596      0.0000    612.7547      1.6551
  1530.7500     91.8299      0.0000    611.9421      1.6298
  1531.0000     91.6143      0.0000    611.2067      1.5953
  1531.2500     89.8164      0.0000    610.6492      1.5510
  1531.5000     86.9727      0.0000    610.3734      1.5051
  1531.7500     83.5116      0.0000    610.4814      1.4716
  1532.0000     79.9173      0.0000    611.1346      1.4587
  1532.2500     77.1483      0.0000    612.6602      1.4631
  1532.5000     76.1332      0.0000    615.5817      1.4752
  1532.7500     76.8466      0.0000    620.3627      1.4866
  1533.0000     78.2740      0.0000    626.8916      1.4954
  1533.2500     79.4091      0.0000    634.2843      1.5063
  1533.5000     80.1706      0.0000    641.6323      1.5265
  1533.7500     81.4343      0.0000    649.4070      1.5602
  1534.0000     84.2184      0.0000    660.1467      1.6088
