~Version Information
VERS.                      2.0: CWLS Log ASCII Standard - VERSION 2.0
WRAP.                       NO: One line per depth step
~Well Information Block
STRT.FT               250.0000: 
STOP.FT               894.7000: 
STEP.FT                 0.1000: 
NULL.                -999.2500: 
COMP.          Pioneer Natural Resources: COMPANY
WELL.          Santisteven 13-22: WELL
FLD.           Purgatoire River: FIELD
LOC.           1861' FSL & 992' FWL----: LOCATION
PROV.                 Colorado: PROVINCE
CNTY.               Las Animas: COUNTRY
SRVC.                Patterson: SERVICE COMPANY
DATE.          Mon Apr 04 11:05:36 2005: LOG DATE
UWI.           05 071 08337 00: UNIQUE WELL ID
~Curve Information Block
DEPT.FT            0 000 00 00: Depth
DCAL.in                       : CDL Caliper
RHOB.g/cc                     : CDL Bulk Density
RHOC.g/cc                     : CDL Density Correction
DPOR.pu                       : CDL Density Porosity
NPOR.pu                       : Neutron Porosity
GR.GAPI                       : Gamma Ray
~Parameter Information Block
~A  Depth       DCAL        RHOB        RHOC        DPOR        NPOR         GR     
# ...
   614.8000      8.1636      2.5285      0.0723      7.3649     22.4876    150.1943
   614.9000      8.1636      2.5132      0.0280      8.2927     23.1401    164.9645
   615.0000      8.1618      2.5140      0.0739      8.2424     24.0194    172.4289
   615.1000      8.1618      2.5223      0.0582      7.7401     24.8937    169.4365
   615.2000      8.1618      2.5300      0.0630      7.2727     25.6275    166.7251
   615.3000      8.1614      2.5376      0.0495      6.8112     25.8343    171.1456
   615.4000      8.1614      2.5472      0.0689      6.2329     25.3516    175.2943
   615.5000      8.1616      2.5562      0.1108      5.6835     24.4516    174.2002
   615.6000      8.1616      2.5608      0.0760      5.4060     23.3932    173.1217
   615.7000      8.1616      2.5656      0.0859      5.1167     22.6371    173.3177
   615.8000      8.1617      2.5729      0.0981      4.6743     22.6373    171.0140
   615.9000      8.1617      2.5775      0.0782      4.3959     23.1504    165.5525
   616.0000      8.1631      2.5767      0.0776      4.4452     23.3938    164.5569
   616.1000      8.1631      2.5695      0.0658      4.8774     23.1143    171.2943
   616.2000      8.1631      2.5602      0.0633      5.4403     22.7304    175.7782
   616.3000      8.1652      2.5570      0.0412      5.6355     22.4557    173.4726
   616.4000      8.1652      2.5564      0.0851      5.6700     22.4447    167.2321
   616.5000      8.1668      2.5520      0.0252      5.9369     22.9062    165.1183
   616.6000      8.1668      2.5509      0.0420      6.0084     23.4039    171.6672
   616.7000      8.1668      2.5524      0.0536      5.9126     23.2296    176.1090
   616.8000      8.1693      2.5477      0.0573      6.1971     22.5941    170.7613
   616.9000      8.1693      2.5398      0.0100      6.6775     22.2223    161.9158
   617.0000      8.1732      2.5359      0.0039      6.9163     22.1928    161.2084
   617.1000      8.1732      2.5343      0.0243      7.0126     22.2332    171.0478
   617.2000      8.1732      2.5355      0.0100      6.9373     22.1786    180.5630
   617.3000      8.1759      2.5389      0.0653      6.7355     22.0319    180.9067
   617.4000      8.1759      2.5374      0.0210      6.8263     22.2376    169.8502
   617.5000      8.1769      2.5360      0.0060      6.9072     22.7794    150.3011
   617.6000      8.1769      2.5385      0.0451      6.7589     22.8737    134.0802
   617.7000      8.1769      2.5300      0.0479      7.2703     22.5088    132.5999
   617.8000      8.1780      2.5110     -0.0462      8.4256     22.1954    141.9637
   617.9000      8.1780      2.4986      0.0266      9.1733     21.9301    151.7518
   618.0000      8.1775      2.4955      0.0265      9.3657     21.7789    159.1602
   618.1000      8.1775      2.5013      0.0253      9.0144     21.8687    161.7166
   618.2000      8.1775      2.5168      0.0157      8.0735     21.9922    158.3966
   618.3000      8.1753      2.5307      0.0980      7.2321     21.9680    153.5940
   618.4000      8.1753      2.5348      0.0663      6.9791     22.0390    146.9859
   618.5000      8.1737      2.5322      0.0711      7.1398     22.2910    139.0504
   618.6000      8.1737      2.5223      0.0488      7.7404     22.3864    134.0300
   618.7000      8.1737      2.5093      0.0206      8.5290     22.0212    135.9949
   618.8000      8.1734      2.5001      0.0290      9.0844     21.2955    146.5189
   618.9000      8.1734      2.4850      0.0599     10.0017     20.5710    158.9187
   619.0000      8.1749      2.4528      0.0589     11.9499     20.0883    164.6220
   619.1000      8.1749      2.4182     -0.0229     14.0464     19.8649    162.7908
   619.2000      8.1749      2.4039      0.0152     14.9146     19.8723    156.9863
   619.3000      8.1775      2.4042      0.0552     14.8997     19.8044    153.9982
   619.4000      8.1775      2.3999      0.0427     15.1558     19.3683    155.9260
   619.5000      8.1801      2.3897      0.0431     15.7758     19.0167    154.3712
   619.6000      8.1801      2.3829      0.0218     16.1860     19.2659    147.4898
   619.7000      8.1801      2.3803      0.0622     16.3428     19.6382    145.5952
   619.8000      8.1811      2.3712      0.0560     16.8940     19.3794    152.2487
   619.9000      8.1811      2.3527      0.0277     18.0168     18.8644    158.9281
   620.0000      8.1808      2.3350      0.0292     19.0890     18.8444    161.9640
   620.1000      8.1808      2.3266      0.0321     19.6025     19.0709    166.0205
   620.2000      8.1808      2.3291      0.0310     19.4507     18.9017    172.9224
   620.3000      8.1812      2.3402      0.0425     18.7777     18.3640    183.2596
   620.4000      8.1812      2.3574      0.0422     17.7315     17.7794    194.5961
   620.5000      8.1831      2.3810      0.0677     16.3003     17.2986    197.0590
   620.6000      8.1831      2.4057      0.0951     14.8091     17.1173    193.0686
   620.7000      8.1831      2.4233      0.0707     13.7374     17.0618    192.1154
   620.8000      8.1849      2.4339      0.0736     13.0982     16.6098    190.0902
   620.9000      8.1849      2.4393      0.0776     12.7705     15.8630    183.6191
   621.0000      8.1842      2.4435      0.0632     12.5145     15.4642    179.1467
   621.1000      8.1842      2.4544      0.0729     11.8543     15.5096    180.7895
   621.2000      8.1842      2.4684      0.0847     11.0085     15.5868    185.4608
   621.3000      8.1839      2.4698      0.0879     10.9219     15.7243    186.9257
   621.4000      8.1839      2.4595      0.0276     11.5455     16.2244    182.6499
   621.5000      8.1854      2.4577      0.0773     11.6520     16.9193    175.7973
   621.6000      8.1854      2.4669      0.0933     11.0992     17.4258    169.4691
   621.7000      8.1854      2.4696      0.0765     10.9356     17.5651    165.4756
   621.8000      8.1853      2.4622      0.0668     11.3843     17.3919    162.7168
   621.9000      8.1853      2.4574      0.0472     11.6735     17.3257    159.5443
   622.0000      8.1830      2.4642      0.0520     11.2605     17.7706    157.9246
   622.1000      8.1830      2.4792      0.0832     10.3494     18.5052    160.3883
   622.2000      8.1830      2.4912      0.0713      9.6216     18.9962    168.2087
   622.3000      8.1816      2.4934      0.0909      9.4931     19.2534    178.4855
   622.4000      8.1816      2.4926      0.0251      9.5383     19.7522    183.1334
   622.5000      8.1805      2.4928      0.0929      9.5261     20.4252    176.7917
   622.6000      8.1805      2.4808      0.0689     10.2543     20.8156    165.7144
   622.7000      8.1805      2.4573      0.0175     11.6811     20.9467    159.5035
   622.8000      8.1786      2.4407      0.0200     12.6847     21.0975    157.3290
   622.9000      8.1786      2.4389      0.0070     12.7959     21.3862    155.5262
   623.0000      8.1772      2.4415      0.0443     12.6366     21.6369    156.5679
   623.1000      8.1772      2.4323      0.0367     13.1954     21.3408    159.1286
   623.2000      8.1772      2.4070      0.0171     14.7270     20.3696    156.6961
   623.3000      8.1768      2.3680      0.0441     17.0927     19.2634    150.0026
   623.4000      8.1768      2.3110      0.0093     20.5484     18.4578    144.5273
   623.5000      8.1769      2.2403     -0.0475     24.8278     17.9200    141.7277
   623.6000      8.1769      2.1703     -0.0788     29.0710     17.3012    138.7939
   623.7000      8.1769      2.1081     -0.0871     32.8432     16.4711    131.8258
   623.8000      8.1772      2.0485     -0.0519     36.4542     15.6376    123.0002
   623.9000      8.1772      1.9778     -0.0434     40.7385     15.0336    118.2205
   624.0000      8.1746      1.8945     -0.0850     45.7906     14.5410    118.9768
   624.1000      8.1746      1.8196     -0.0975     50.3287     13.8485    121.9678
   624.2000      8.1746      1.7689     -0.0732     53.4023     12.9854    122.2938
   624.3000      8.1666      1.7342     -0.0410     55.5003     12.2116    120.4020
