~Version Information
VERS.                      2.0: CWLS Log ASCII Standard - VERSION 2.0
WRAP.                       NO: One line per depth step
~Well Information Block
STRT.FT                -3.7500: 
STOP.FT               930.7500: 
STEP.FT                 0.2500: 
NULL.                -999.2500: 
COMP.          Pioneer Natural Resources: COMPANY
WELL.                Pug 33-19: WELL
FLD.           Purgatorie River: FIELD
LOC.           1381' FSL & 2140' FEL--: LOCATION
PROV.                       CO: PROVINCE
CNTY.               Las Animas: COUNTRY
SRVC.                         : SERVICE COMPANY
DATE.          Mon Dec 20 15:44:45 2004: LOG DATE
UWI.                          : UNIQUE WELL ID
~Curve Information Block
DEPT.FT            0 000 00 00: Depth
GR.GAPI                       : Gamma Ray
CCL.                          : Casing Collar Locator
TT3.usec                      : CBL 3' Travel Time
AMP3.mV                       : CBL 3' Amplitude
~Parameter Information Block
~A  Depth        GR         CCL         TT3         AMP3    
# ...
    63.2500     48.3177      0.0000    765.3409     13.5747
    63.5000     46.8404      0.0000    763.1215     13.2971
    63.7500     46.2495      0.0000    759.3331     12.9332
    64.0000     46.1794      0.0000    756.3186     12.4827
    64.2500     46.5014      0.0000    756.0521     11.9892
    64.5000     47.2086      0.0000    758.3300     11.5217
    64.7500     48.2315      0.0000    760.8548     11.1437
    65.0000     49.3856      0.0000    761.2505     10.8944
    65.2500     50.5360      0.0000    758.9040     10.7809
    65.5000     51.7099      0.0000    755.0826     10.7743
    65.7500     52.9349      0.0000    751.8719     10.8161
    66.0000     54.1023      0.0000    751.1185     10.8425
    66.2500     55.1315      0.0000    753.6298     10.8141
    66.5000     56.0812      0.0000    758.6342     10.7258
    66.7500     56.8250      0.0000    764.1648     10.5930
    67.0000     56.7486      0.0000    768.4182     10.4343
    67.2500     55.1489      0.0000    770.7929     10.2707
    67.5000     52.0926      0.0000    771.7269     10.1288
    67.7500     48.8303      0.0000    771.9293     10.0311
    68.0000     47.2800      0.0000    771.8915      9.9840
    68.2500     48.8686      0.0000    771.8350      9.9727
    68.5000     53.4502      0.0000    771.8207      9.9642
    68.7500     59.0876      0.0000    771.8551      9.9156
    69.0000     63.0549      0.0000    771.9393      9.7944
    69.2500     63.5070      0.0000    772.0756      9.6018
    69.5000     60.4724      0.0000    772.2644      9.3762
    69.7500     55.4998      0.0000    772.4936      9.1720
    70.0000     50.6331      0.0000    772.7236      9.0301
    70.2500     47.5079      0.0000    772.8955      8.9615
    70.5000     46.6315      0.0000    772.9686      8.9456
    70.7500     47.1409      0.0000    772.9474      8.9398
    71.0000     47.6170      0.0000    772.8652      8.9016
    71.2500     47.3741      0.0000    772.7560      8.8152
    71.5000     46.7258      0.0000    772.6445      8.7020
    71.7500     46.1031      0.0000    772.5370      8.6056
    72.0000     45.5435      0.0000    772.4117      8.5577
    72.2500     45.2043      0.0000    772.2326      8.5569
    72.5000     45.7400      0.0000    771.9924      8.5761
    72.7500     47.7500      0.0000    771.7433      8.5874
    73.0000     51.0461      0.0000    771.5764      8.5803
    73.2500     54.6304      0.0000    771.5565      8.5653
    73.5000     57.2788      0.0000    771.6657      8.5641
    73.7500     58.3680      0.0000    771.8126      8.5923
    74.0000     58.4929      0.0000    771.9030      8.6441
    74.2500     59.1037      0.0000    771.9102      8.6948
    74.5000     61.0802      0.0000    771.8817      8.7203
    74.7500     63.6671      0.0000    771.8785      8.7181
    75.0000     65.0769      0.0000    771.9144      8.7113
    75.2500     64.1215      0.0000    771.9606      8.7319
    75.5000     61.1935      0.0000    771.9968      8.7924
    75.7500     57.8800      0.0000    772.0381      8.8685
    76.0000     55.7893      0.0000    772.1116      8.9154
    76.2500     55.5694      0.0000    772.2217      8.9080
    76.5000     56.7083      0.0000    772.3495      8.8652
    76.7500     58.0514      0.0000    772.4766      8.8323
    77.0000     58.5364      0.0000    772.5969      8.8413
    77.2500     57.7861      0.0000    772.7092      8.8904
    77.5000     56.2658      0.0000    772.8074      8.9574
    77.7500     54.7913      0.0000    772.8802      9.0254
    78.0000     53.8052      0.0000    772.9181      9.0965
    78.2500     53.2906      0.0000    772.9194      9.1833
    78.5000     53.2922      0.0000    772.8930      9.2896
    78.7500     54.0175      0.0000    772.8530      9.3940
    79.0000     55.1822      0.0000    772.8104      9.4490
    79.2500     55.7598      0.0000    772.7722      9.4039
    79.5000     54.9922      0.0000    772.7452      9.2391
    79.7500     53.5548      0.0000    772.7320      8.9858
    80.0000     53.3271      0.0000    772.7190      8.7071
    80.2500     55.9201      0.0000    772.6783      8.4607
    80.5000     61.5562      0.0000    772.5569      8.2792
    80.7500     69.2500      0.0000    772.1948      8.1761
    81.0000     77.6974      0.0000    771.1876      8.1538
    81.2500     85.8415      0.0000    768.9210      8.2012
    81.5000     92.9170      0.0000    765.0983      8.2881
    81.7500     98.4177      0.0000    760.5659      8.3737
    82.0000    102.1673      0.0000    757.3474      8.4317
    82.2500    104.1430      0.0000    757.1540      8.4727
    82.5000    103.9983      0.0000    759.6245      8.5343
    82.7500    101.0209      0.0000    762.4911      8.6456
    83.0000     95.0388      0.0000    763.7397      8.8017
    83.2500     87.4977      0.0000    763.3450      8.9740
    83.5000     81.2118      0.0000    762.7618      9.1369
    83.7500     78.6249      0.0000    763.0012      9.2739
    84.0000     80.3131      0.0000    763.6551      9.3615
    84.2500     85.0785      0.0000    763.8906      9.3603
    84.5000     91.0248      0.0000    763.9811      9.2353
    84.7500     96.4288      0.0000    765.3389      9.0057
    85.0000    100.1232      0.0000    769.0611      8.7777
    85.2500    101.5874      0.0000    775.0179      8.6925
    85.5000    100.9362      0.0000    782.5543      8.7925
    85.7500     99.0508      0.0000    791.2997      8.9546
    86.0000     97.5975      0.0000    800.7921      9.0098
    86.2500     98.1690      0.0000    810.0755      8.9139
    86.5000    100.9456      0.0000    818.1042      8.7557
    86.7500    104.5311      0.0000    823.8683      8.6315
    87.0000    107.3303      2.0000    826.3682      8.5689
    87.2500    108.8948      0.0000    825.6470      8.5491
    87.5000    109.9042      0.0000    823.4196      8.5598
    87.7500    111.0332      0.0000    821.1368      8.6269
    88.0000    112.2782      0.0000    817.4700      8.7954
    88.2500    113.5952      0.0000    808.3467      9.0637
    88.5000    115.4832      0.0000    790.0724      9.3563
    88.7500    118.1608      0.0000    763.8473      9.5995
    89.0000    120.5872      0.0000    738.0012      9.7953
    89.2500    121.1100      0.0000    723.6774      9.9837
    89.5000    119.1045      0.0000    725.9201     10.1670
    89.7500    115.6334      0.0000    739.5837     10.3098
    90.0000    112.3815      0.0000    754.8822     10.3845
    90.2500    110.0098      0.0000    765.4746     10.3868
    90.5000    107.6883      0.0000    770.7093     10.3269
    90.7500    104.3684      0.0000    772.6993     10.2296
    91.0000    100.2633      0.0000    773.3750     10.1352
    91.2500     96.5889      0.0000    773.6536     10.0839
    91.5000     94.0248      0.0000    773.8035     10.0966
    91.7500     92.2610      0.0000    773.8561     10.1677
    92.0000     91.2288      0.0000    773.8163     10.2669
    92.2500     91.9208      0.0000    773.6943     10.3473
    92.5000     95.5424      0.0000    773.5279     10.3682
    92.7500    102.2356      0.0000    773.3691     10.3179
    93.0000    110.7938      0.0000    773.2514     10.2131
    93.2500    119.2395      0.0000    773.1618     10.0796
    93.5000    125.6140      0.0000    773.0334      9.9443
    93.7500    128.6997      0.0000    772.7417      9.8344
    94.0000    128.4248      0.0000    772.0641      9.7722
    94.2500    125.6889      0.0000    770.5693      9.7673
    94.5000    121.6532      0.0000    767.5607      9.8103
    94.7500    117.0061      0.0000    762.3824      9.8692
    95.0000    111.8858      0.0000    755.1252      9.9044
    95.2500    106.2679      0.0000    747.0693      9.8996
    95.5000    100.1535      0.0000    740.1046      9.8755
    95.7500     93.6558      0.0000    735.3683      9.8618
    96.0000     87.3714      0.0000    732.0655      9.8672
    96.2500     82.5647      0.0000    726.9209      9.8821
    96.5000     80.5251      0.0000    714.8578      9.8973
