~Version Information
VERS.                      2.0: CWLS Log ASCII Standard - VERSION 2.0
WRAP.                       NO: One line per depth step
~Well Information Block
STRT.FT                -2.0000: 
STOP.FT              1016.0000: 
STEP.FT                 0.2500: 
NULL.                -999.2500: 
COMP.          Evergreen Operating Corp.: COMPANY
WELL.              Sunset 24-3: WELL
FLD.           Purgatorie River: FIELD
LOC.           467' FSL & 2262' FWL--: LOCATION
PROV.                       CO: PROVINCE
CNTY.               Las Animas: COUNTRY
SRVC.                         : SERVICE COMPANY
DATE.          Mon Sep 27 13:40:22 2004: LOG DATE
UWI.           005 071 08158  : UNIQUE WELL ID
~Curve Information Block
DEPT.FT            0 000 00 00: Depth
GR.GAPI                       : Gamma Ray
CCL.                          : Casing Collar Locator
TT3.usec                      : CBL 3' Travel Time
AMP3.mV                       : CBL 3' Amplitude
~Parameter Information Block
~A  Depth        GR         CCL         TT3         AMP3    
# ...
   902.5000     77.3043      0.0000    719.4763      3.8692
   902.7500     80.6404      0.0000    729.4895      3.8152
   903.0000     87.3545      0.0000    749.7490      3.7803
   903.2500     95.6532      0.0000    772.3687      3.7789
   903.5000    103.2639      0.0000    791.4508      3.8183
   903.7500    108.4658      0.0000    807.7065      3.8948
   904.0000    110.7298      0.0000    824.3553      3.9897
   904.2500    110.8235      0.0000    840.9800      4.0770
   904.5000    110.2391      0.0000    853.6589      4.1403
   904.7500    110.1524      0.0000    859.0270      4.1829
   905.0000    110.5817      0.0000    855.7563      4.2205
   905.2500    110.4783      0.0000    844.0693      4.2654
   905.5000    108.7806      0.0000    826.5840      4.3190
   905.7500    105.3210      0.0000    808.5577      4.3762
   906.0000    100.6722      0.0000    794.9499      4.4312
   906.2500     95.5163      0.0000    787.0442      4.4819
   906.5000     90.3768      0.0000    782.8345      4.5335
   906.7500     85.6547      0.0000    780.4465      4.5930
   907.0000     81.7086      0.0000    780.4901      4.6608
   907.2500     78.7731      0.0000    784.6408      4.7262
   907.5000     76.6580      0.0000    792.1519      4.7738
   907.7500     74.6795      0.0000    798.4878      4.7934
   908.0000     72.1592      0.0000    798.4684      4.7876
   908.2500     69.0534      0.0000    791.2384      4.7711
   908.5000     66.1397      0.0000    781.6172      4.7606
   908.7500     64.4384      0.0000    776.1867      4.7640
   909.0000     64.2408      0.0000    778.4955      4.7810
   909.2500     64.8967      0.0000    787.7079      4.8068
   909.5000     65.7271      0.0000    800.0509      4.8337
   909.7500     66.7489      0.0000    810.5329      4.8547
   910.0000     68.2947      0.0000    814.7344      4.8684
   910.2500     70.2962      0.0000    811.2141      4.8786
   910.5000     72.1391      0.0000    802.7819      4.8842
   910.7500     72.9925      0.0000    794.8276      4.8739
   911.0000     72.3467      0.0000    792.3545      4.8358
   911.2500     70.5327      0.0000    798.1785      4.7711
   911.5000     68.7936      0.0000    812.3251      4.6984
   911.7500     68.6798      0.0000    831.3699      4.6419
   912.0000     71.0942      0.0000    848.5892      4.6178
   912.2500     75.6204      0.0000    856.8781      4.6279
   912.5000     80.6364      0.0000    853.1514      4.6600
   912.7500     84.1068      0.0000    839.8240      4.6955
   913.0000     84.5786      0.0000    822.1709      4.7183
   913.2500     81.9344      0.0000    805.0584      4.7253
   913.5000     77.4877      0.0000    791.4341      4.7291
   913.7500     73.2203      0.0000    781.8760      4.7462
   914.0000     70.6859      0.0000    775.1915      4.7830
   914.2500     70.3698      0.0000    770.2136      4.8350
   914.5000     71.6623      0.0000    766.7979      4.8966
   914.7500     73.1618      0.0000    764.8759      4.9623
   915.0000     73.4315      0.0000    763.5689      5.0193
   915.2500     72.1337      0.0000    761.9838      5.0487
   915.5000     70.4126      0.0000    760.4351      5.0384
   915.7500     69.7242      0.0000    760.2382      4.9939
   916.0000     70.3501      0.0000    762.3433      4.9384
   916.2500     71.3970      0.0000    766.2227      4.9008
   916.5000     71.9862      0.0000    770.1456      4.8988
   916.7500     71.9380      0.0000    772.8638      4.9331
   917.0000     71.6262      0.0000    775.0976      4.9953
   917.2500     71.8031      0.0000    778.9594      5.0726
   917.5000     73.3045      0.0000    785.7484      5.1418
   917.7500     76.2744      0.0000    794.4363      5.1731
   918.0000     79.6739      0.0000    802.1417      5.1559
   918.2500     81.8708      0.0000    806.0298      5.1177
   918.5000     81.9323      0.0000    805.2922      5.1024
   918.7500     80.3778      0.0000    801.5927      5.1287
   919.0000     78.5568      0.0000    797.4989      5.1767
   919.2500     77.2559      0.0000    794.5767      5.2101
   919.5000     76.0815      0.0000    792.9583      5.2061
   919.7500     74.2088      0.0000    792.1303      5.1641
   920.0000     71.5691      0.0000    791.6681      5.0967
   920.2500     69.2856      0.0000    791.4009      5.0167
   920.5000     68.9800      0.0000    791.2800      4.9330
   920.7500     71.6671      0.0000    791.2593      4.8534
   921.0000     77.2246      0.0000    791.2679      4.7883
   921.2500     84.5252      0.0000    791.2556      4.7487
   921.5000     91.7530      0.0000    791.2277      4.7399
   921.7500     96.8751      0.0000    791.2334      4.7548
   922.0000     98.4378      0.0000    791.3113      4.7767
   922.2500     96.3126      0.0000    791.4456      4.7928
   922.5000     91.8662      0.0000    791.5681      4.7999
   922.7500     87.3233      0.0000    791.5959      4.7953
   923.0000     84.3899      0.0000    791.4873      4.7709
   923.2500     83.0157      0.0000    791.2977      4.7220
   923.5000     81.7369      0.0000    791.2765      4.6596
   923.7500     79.5259      0.0000    792.0822      4.6085
   924.0000     77.0989      0.0000    795.0569      4.5940
   924.2500     76.1305      0.0000    802.0502      4.6258
   924.5000     77.3437      0.0000    813.9160      4.6902
   924.7500     79.7453      0.0000    828.1260      4.7597
   925.0000     81.6441      0.0000    838.4461      4.8167
   925.2500     82.1023      0.0000    838.9401      4.8701
   925.5000     81.4999      0.0000    828.9656      4.9416
   925.7500     80.9070      0.0000    813.2733      5.0381
   926.0000     80.8365      0.0000    797.3733      5.1424
   926.2500     80.6677      0.0000    784.1777      5.2267
   926.5000     79.5003      0.0000    774.5946      5.2639
   926.7500     77.3290      0.0000    768.9304      5.2278
   927.0000     75.0848      0.0000    766.7365      5.1047
   927.2500     73.8178      0.0000    766.5237      4.9151
   927.5000     74.0285      0.0000    766.6515      4.7110
   927.7500     75.3840      0.0000    766.2385      4.5420
   928.0000     76.8006      0.0000    765.1873      4.4282
   928.2500     77.2062      0.0000    763.9688      4.3620
   928.5000     76.7526      0.0000    763.3445      4.3216
   928.7500     77.1187      0.0000    763.7557      4.2755
   929.0000     79.9542      0.0000    765.1068      4.1834
   929.2500     84.8443      0.0000    767.6273      4.0174
   929.5000     89.2382      0.0000    772.5203      3.7954
   929.7500     90.7662      0.0000    781.2711      3.5810
   930.0000     89.4066      0.0000    794.1529      3.4387
   930.2500     87.0265      0.0000    809.1213      3.3952
   930.5000     85.0596      0.0000    821.7734      3.4467
   930.7500     83.1512      0.0000    827.2029      3.5786
   931.0000     80.0603      0.0000    823.7686      3.7604
   931.2500     75.4919      0.0000    815.7789      3.9328
   931.5000     70.7186      0.0000    810.8003      4.0217
   931.7500     67.4419      0.0000    812.2684      3.9828
   932.0000     66.3514      0.0000    815.9504      3.8440
   932.2500     66.8697      0.0000    816.2066      3.7036
   932.5000     67.9246      0.0000    814.0677      3.6665
   932.7500     68.7142      0.0000    815.0366      3.7692
   933.0000     68.9659      0.0000    819.6790      3.9675
   933.2500     68.7228      0.0000    821.5109      4.1870
   933.5000     67.9139      0.0000    815.2700      4.3708
   933.7500     66.4301      0.0000    803.3480      4.4924
   934.0000     64.8022      0.0000    792.4560      4.5525
   934.2500     64.3170      0.0000    786.7653      4.5696
   934.5000     66.0551      0.0000    785.6842      4.5596
   934.7500     70.0935      0.0000    786.3550      4.5229
   935.0000     75.7080      0.0000    786.3473      4.4537
   935.2500     81.7589      0.0000    784.3027      4.3582
   935.5000     86.6925      0.0000    779.6274      4.2548
   935.7500     88.8994      0.0000    772.5627      4.1619
