~Version Information
VERS.                      2.0: CWLS Log ASCII Standard - VERSION 2.0
WRAP.                       NO: One line per depth step
~Well Information Block
STRT.FT               360.0000: 
STOP.FT              2515.2000: 
STEP.FT                 0.1000: 
NULL.                -999.2500: 
COMP.          Pioneer Natural Resources: COMPANY
WELL.            Rancher 12-35: WELL
FLD.           Purgatoire River: FIELD
LOC.           2131' FNL & 297' FWL: LOCATION
PROV.                 Colorado: PROVINCE
CNTY.               Las Animas: COUNTRY
SRVC.                Patterson: SERVICE COMPANY
DATE.          Tue Oct 12 09:11:02 2004: LOG DATE
UWI.           05 071 08179 00: UNIQUE WELL ID
~Curve Information Block
DEPT.FT            0 000 00 00: Depth
DCAL.in                       : CDL Caliper
RHOB.g/cc                     : CDL Bulk Density
RHOC.g/cc                     : CDL Density Correction
DPOR.pu                       : CDL Density Porosity
NPOR.pu                       : Neutron Porosity
GR.GAPI                       : Gamma Ray
~Parameter Information Block
~A  Depth       DCAL        RHOB        RHOC        DPOR        NPOR         GR     
# ...
   504.0000      8.3703      2.5087     -0.0266      8.5617     22.3887     74.6276
   504.1000      8.3703      2.5248      0.0463      7.5894     22.0300     75.0509
   504.2000      8.3703      2.5292      0.0127      7.3201     22.1875     78.2799
   504.3000      8.3704      2.5184      0.0533      7.9758     22.8668     83.2431
   504.4000      8.3704      2.4960      0.0421      9.3363     23.4185     84.7040
   504.5000      8.3685      2.4738     -0.0376     10.6808     23.3657     79.6957
   504.6000      8.3685      2.4680     -0.0080     11.0318     23.2651     74.3243
   504.7000      8.3685      2.4774     -0.0012     10.4577     23.5320     75.7231
   504.8000      8.3618      2.4882      0.0259      9.8045     23.7498     81.1679
   504.9000      8.3618      2.4959      0.0033      9.3367     23.7591     83.4296
   505.0000      8.3455      2.5096      0.0027      8.5068     23.4990     80.8604
   505.1000      8.3455      2.5235      0.0609      7.6683     22.9079     77.0358
   505.2000      8.3455      2.5254      0.0153      7.5534     22.1042     72.8313
   505.3000      8.3225      2.5297      0.0140      7.2900     21.1395     66.7856
   505.4000      8.3225      2.5487      0.0626      6.1391     20.2666     61.0661
   505.5000      8.3034      2.5692      0.0602      4.8952     19.8220     61.8785
   505.6000      8.3034      2.5717      0.0650      4.7450     19.8303     69.2228
   505.7000      8.3034      2.5491      0.0164      6.1130     20.0475     74.6622
   505.8000      8.2956      2.5181     -0.0041      7.9930     20.2420     74.2620
   505.9000      8.2956      2.4962      0.0232      9.3206     20.3441     71.7332
   506.0000      8.2946      2.4810      0.0048     10.2425     20.2576     69.7291
   506.1000      8.2946      2.4731     -0.0075     10.7199     20.1048     68.9867
   506.2000      8.2946      2.4835      0.0013     10.0907     19.9967     70.4758
   506.3000      8.2951      2.5043      0.0508      8.8280     19.8318     73.7416
   506.4000      8.2951      2.5120      0.0286      8.3658     19.7564     74.9437
   506.5000      8.2959      2.5041      0.0084      8.8449     19.8612     71.6141
   506.6000      8.2959      2.5005      0.0015      9.0586     19.9800     66.6846
   506.7000      8.2959      2.5073      0.0472      8.6496     20.0360     63.5731
   506.8000      8.2951      2.5101      0.0392      8.4778     20.1087     62.8338
   506.9000      8.2951      2.5069      0.0128      8.6740     20.3564     63.8306
   507.0000      8.2955      2.5167     -0.0117      8.0814     21.0001     66.2416
   507.1000      8.2955      2.5545      0.0119      5.7853     21.9399     70.0355
   507.2000      8.2955      2.6060      0.0851      2.6691     22.9238     73.1055
   507.3000      8.2979      2.6321      0.1394      1.0873     23.7680     72.9398
   507.4000      8.2979      2.6181      0.0528      1.9339     24.3713     70.3799
   507.5000      8.2986      2.5888      0.0608      3.7094     24.9259     70.0240
   507.6000      8.2986      2.5672      0.0214      5.0212     25.4891     74.6159
   507.7000      8.2986      2.5557      0.0236      5.7139     26.0863     81.0111
   507.8000      8.2966      2.5484      0.0004      6.1598     26.6528     85.7575
   507.9000      8.2966      2.5442     -0.0150      6.4150     26.8501     88.8316
   508.0000      8.2941      2.5402     -0.0034      6.6543     26.5046     90.0662
   508.1000      8.2941      2.5278     -0.0107      7.4032     25.8394     88.0856
   508.2000      8.2941      2.5165     -0.0726      8.0889     25.2535     83.1008
   508.3000      8.2940      2.5255     -0.0698      7.5466     24.7434     78.2995
   508.4000      8.2940      2.5445      0.0289      6.3961     23.9990     78.4310
   508.5000      8.2960      2.5501      0.0327      6.0559     23.0148     82.7691
   508.6000      8.2960      2.5414      0.0276      6.5795     22.0836     85.4676
   508.7000      8.2960      2.5273      0.0262      7.4336     21.5933     84.5804
   508.8000      8.2953      2.5105      0.0079      8.4516     21.4450     83.4752
   508.9000      8.2953      2.4934     -0.0132      9.4883     21.2544     83.3542
   509.0000      8.2912      2.4811      0.0054     10.2353     21.1169     81.6213
   509.1000      8.2912      2.4742      0.0130     10.6549     21.2086     77.9955
   509.2000      8.2912      2.4700     -0.0146     10.9104     21.4114     74.6413
   509.3000      8.2863      2.4715     -0.0100     10.8194     21.5774     73.4454
   509.4000      8.2863      2.4795      0.0417     10.3305     21.5913     75.2865
   509.5000      8.2831      2.4888      0.0413      9.7718     21.3512     78.0771
   509.6000      8.2831      2.5040     -0.0077      8.8493     21.1640     79.5986
   509.7000      8.2831      2.5327      0.0506      7.1120     21.4675     79.7490
   509.8000      8.2822      2.5570      0.0777      5.6359     22.0872     77.8861
   509.9000      8.2822      2.5516      0.0655      5.9607     22.5357     77.3320
   510.0000      8.2831      2.5208      0.0303      7.8310     22.9866     80.2947
   510.1000      8.2831      2.4930      0.0003      9.5140     23.6889     81.5323
   510.2000      8.2831      2.4908      0.0178      9.6474     24.2948     78.8542
   510.3000      8.2821      2.5134      0.0151      8.2790     24.5773     75.0238
   510.4000      8.2821      2.5409      0.0644      6.6119     24.6632     73.2647
   510.5000      8.2779      2.5567      0.0482      5.6569     24.7075     75.6093
   510.6000      8.2779      2.5580      0.0592      5.5742     24.7721     80.3974
   510.7000      8.2779      2.5493      0.0407      6.1030     24.9878     85.0494
   510.8000      8.2796      2.5450      0.0352      6.3642     25.4313     88.2475
   510.9000      8.2796      2.5511      0.0700      5.9938     25.9276     89.3701
   511.0000      8.2871      2.5501      0.0676      6.0518     26.3114     89.7255
   511.1000      8.2871      2.5378      0.0153      6.7986     26.5873     91.3237
   511.2000      8.2871      2.5282      0.0365      7.3827     26.7589     93.4271
   511.3000      8.2912      2.5174      0.0242      8.0371     26.7598     93.7706
   511.4000      8.2912      2.5003     -0.0211      9.0707     26.4203     91.6627
   511.5000      8.2951      2.4890      0.0096      9.7550     25.9072     87.5393
   511.6000      8.2951      2.4783      0.0479     10.4031     25.3347     83.1699
   511.7000      8.2951      2.4574      0.0095     11.6729     24.6936     80.3737
   511.8000      8.3027      2.4425     -0.0013     12.5749     24.2164     78.2577
   511.9000      8.3027      2.4518      0.0139     12.0141     23.8349     75.4871
   512.0000      8.3123      2.4784      0.0343     10.4015     23.3330     74.6124
   512.1000      8.3123      2.4997      0.0370      9.1102     22.5820     77.0365
   512.2000      8.3123      2.4990      0.0261      9.1508     21.5132     80.4279
   512.3000      8.3254      2.4861      0.0006      9.9322     20.4748     82.2060
   512.4000      8.3254      2.4822      0.0188     10.1723     20.0749     81.0398
   512.5000      8.3376      2.4848      0.0081     10.0116     20.3672     78.6679
   512.6000      8.3376      2.4770      0.0595     10.4830     20.9467     76.8068
   512.7000      8.3376      2.4603     -0.0053     11.4974     21.4679     75.6259
   512.8000      8.3435      2.4544     -0.0383     11.8539     21.6999     76.4751
   512.9000      8.3435      2.4600      0.0025     11.5143     21.8082     80.7092
   513.0000      8.3427      2.4618      0.0026     11.4056     21.9954     85.3068
   513.1000      8.3427      2.4659     -0.0312     11.1557     22.1284     85.5907
   513.2000      8.3427      2.4775      0.0144     10.4550     22.0375     83.5496
   513.3000      8.3412      2.4799      0.0245     10.3112     21.6275     84.2458
   513.4000      8.3412      2.4700      0.0055     10.9080     21.1806     85.3411
   513.5000      8.3422      2.4643     -0.0245     11.2536     21.1373     82.5994
