~Version Information
VERS.                      2.0: CWLS Log ASCII Standard - VERSION 2.0
WRAP.                       NO: One line per depth step
~Well Information Block
STRT.FT                -8.0000: 
STOP.FT               973.2500: 
STEP.FT                 0.2500: 
NULL.                -999.2500: 
COMP.          Pioneer Natural Resources: COMPANY
WELL.              Oscar 41-31: WELL
FLD.           Purgatorie River: FIELD
LOC.           412' FNL & 1216' FEL--: LOCATION
PROV.                       CO: PROVINCE
CNTY.               Las Animas: COUNTRY
SRVC.          Patterson Wireline: SERVICE COMPANY
DATE.          Wed Mar 02 12:29:08 2005: LOG DATE
UWI.           05 071 08290 00: UNIQUE WELL ID
~Curve Information Block
DEPT.FT            0 000 00 00: Depth
CCL.                          : Casing Collar Locator
TT5.usec                      : CBL 5' Travel Time
AMP3.mV                       : CBL 3' Amplitude
GR.GAPI                       : Gamma Ray
~Parameter Information Block
~A  Depth       CCL         TT5         AMP3         GR     
# ...
   695.5000      0.0000   1200.0000      2.7890    136.7414
   695.7500      0.0000   1200.0000      2.7462    133.4589
   696.0000      0.0000   1200.0000      2.6976    129.8423
   696.2500      0.0000   1200.0000      2.6451    127.2004
   696.5000      0.0000   1200.0000      2.5959    125.1961
   696.7500      0.0000   1200.0000      2.5672    122.6675
   697.0000      0.0000   1200.0000      2.5828    119.2336
   697.2500      0.0000   1200.0000      2.6637    115.6995
   697.5000      0.0000   1200.0000      2.8165    113.0919
   697.7500      0.0000   1200.0000      3.0243    111.8332
   698.0000      0.0000   1200.0000      3.2474    111.7098
   698.2500      0.0000   1200.0000      3.4377    111.9855
   698.5000      0.0000   1200.0000      3.5591    111.5841
   698.7500      0.0000   1200.0000      3.6005    109.8367
   699.0000      0.0000   1200.0000      3.5770    107.4511
   699.2500      0.0000   1200.0000      3.5200    106.4786
   699.5000      0.0000   1200.0000      3.4637    108.7565
   699.7500      0.0000   1200.0000      3.4358    114.1372
   700.0000      0.0000   1200.0000      3.4514    120.3815
   700.2500      0.0000   1200.0000      3.5055    124.8228
   700.5000      0.0000   1200.0000      3.5680    126.0282
   700.7500      0.0000   1200.0000      3.5935    124.2350
   701.0000      0.0000   1200.0000      3.5463    120.9256
   701.2500      0.0000   1200.0000      3.4246    118.0000
   701.5000      0.0000   1200.0000      3.2617    116.6992
   701.7500      0.0000   1200.0000      3.1026    116.9620
   702.0000      0.0000   1200.0000      2.9787    117.9808
   702.2500      0.0000   1200.0000      2.8990    119.1746
   702.5000      0.0000   1200.0000      2.8612    120.2211
   702.7500      0.0000   1200.0000      2.8639    120.4860
   703.0000      0.0000   1200.0000      2.9046    119.2847
   703.2500      0.0000   1200.0000      2.9674    116.8294
   703.5000      0.0000   1200.0000      3.0226    114.3229
   703.7500      0.0000   1200.0000      3.0454    112.8631
   704.0000      0.0000   1200.0000      3.0358    112.6839
   704.2500      0.0000   1200.0000      3.0177    113.6299
   704.5000      0.0000   1200.0000      3.0203    115.8297
   704.7500      0.0000   1200.0000      3.0576    119.4611
   705.0000      0.0000   1200.0000      3.1215    124.0440
   705.2500      0.0000   1200.0000      3.1907    128.3052
   705.5000      0.0000   1200.0000      3.2475    130.9129
   705.7500      0.0000   1200.0000      3.2812    131.4373
   706.0000      0.0000   1200.0000      3.2822    130.5211
   706.2500      0.0000   1200.0000      3.2425    129.1122
   706.5000      0.0000   1200.0000      3.1654    127.7716
   706.7500      0.0000   1200.0000      3.0676    126.7064
   707.0000      0.0000   1200.0000      2.9703    125.9490
   707.2500      0.0000   1200.0000      2.8919    125.2596
   707.5000      0.0000   1200.0000      2.8457    124.4159
   707.7500      0.0000   1200.0000      2.8364    123.8978
   708.0000      0.0000   1200.0000      2.8579    124.6127
   708.2500      0.0000   1200.0000      2.8976    126.4587
   708.5000      0.0000   1200.0000      2.9421    127.8527
   708.7500      0.0000   1200.0000      2.9805    127.3081
   709.0000      0.0000   1200.0000      3.0084    125.0786
   709.2500      0.0000   1200.0000      3.0316    122.7734
   709.5000      0.0000   1200.0000      3.0624    121.7345
   709.7500      0.0000   1200.0000      3.1045    122.1618
   710.0000      0.0000   1200.0000      3.1474    123.4852
   710.2500      0.0000   1200.0000      3.1787    125.1194
   710.5000      0.0000   1200.0000      3.1978    126.8014
   710.7500      0.0000   1200.0000      3.2125    128.2828
   711.0000      0.0000   1200.0000      3.2280    128.9471
   711.2500      0.0000   1200.0000      3.2449    128.2376
   711.5000      0.0000   1200.0000      3.2621    126.5923
   711.7500      0.0000   1200.0000      3.2740    125.4272
   712.0000      0.0000   1200.0000      3.2694    125.9245
   712.2500      0.0000   1200.0000      3.2385    128.0686
   712.5000      0.0000   1200.0000      3.1814    130.8513
   712.7500      0.0000   1200.0000      3.1080    132.9532
   713.0000      0.0000   1200.0000      3.0292    133.2865
   713.2500      0.0000   1200.0000      2.9506    131.5617
   713.5000      0.0000   1200.0000      2.8717    128.6075
   713.7500      0.0000   1200.0000      2.7906    125.8774
   714.0000      0.0000   1200.0000      2.7094    124.4489
   714.2500      0.0000   1200.0000      2.6361    124.4828
   714.5000      0.0000   1200.0000      2.5802    125.5249
   714.7500      0.0000   1200.0000      2.5441    127.1225
   715.0000      0.0000   1200.0000      2.5222    129.1964
   715.2500      0.0000   1200.0000      2.5112    131.9898
   715.5000      0.0000   1200.0000      2.5149    135.6334
   715.7500      0.0000   1200.0000      2.5385    139.7350
   716.0000      0.0000   1200.0000      2.5815    143.5841
   716.2500      0.0000   1200.0000      2.6392    146.7387
   716.5000      0.0000   1200.0000      2.7062    149.0738
   716.7500      0.0000   1200.0000      2.7764    150.3080
   717.0000      0.0000   1200.0000      2.8440    150.0396
   717.2500      0.0000   1200.0000      2.9037    148.2703
   717.5000      0.0000   1200.0000      2.9526    145.4388
   717.7500      0.0000   1200.0000      2.9900    141.9336
   718.0000      0.0000   1200.0000      3.0161    137.9991
   718.2500      0.0000   1200.0000      3.0289    134.2330
   718.5000      0.0000   1200.0000      3.0257    131.7192
   718.7500      0.0000   1200.0000      3.0064    131.2554
   719.0000      0.0000   1200.0000      2.9772    132.4771
   719.2500      0.0000   1200.0000      2.9526    133.8024
   719.5000      0.0000   1200.0000      2.9469    133.1993
   719.7500      0.0000   1200.0000      2.9609    129.5031
   720.0000      0.0000   1200.0000      2.9851    123.5363
   720.2500      0.0000   1200.0000      3.0116    117.6521
   720.5000      0.0000   1200.0000      3.0398    113.6013
   720.7500      0.0000   1200.0000      3.0755    111.1014
   721.0000      0.0000   1200.0000      3.1249    108.8705
   721.2500      0.0000   1200.0000      3.1853    106.5739
   721.5000      0.0000   1200.0000      3.2414    105.1305
   721.7500      0.0000   1200.0000      3.2727    105.4023
   722.0000      0.0000   1200.0000      3.2642    107.2220
   722.2500      0.0000   1200.0000      3.2163    109.5554
   722.5000      0.0000   1200.0000      3.1470    111.1719
   722.7500      0.0000   1200.0000      3.0813    111.2062
   723.0000      0.0000   1200.0000      3.0472    109.3578
   723.2500      0.0000   1200.0000      3.0732    105.6807
   723.5000      0.0000   1200.0000      3.1615    100.3111
   723.7500      0.0000   1200.0000      3.2594     93.4485
   724.0000      0.0000   1200.0000      3.2867     85.4911
   724.2500      0.0000   1200.0000      3.2096     77.2690
   724.5000      0.0000   1200.0000      3.0809     70.1577
   724.7500      0.0000   1200.0000      2.9953     65.4694
   725.0000      0.0000   1200.0000      3.0074     63.3122
   725.2500      0.0000   1200.0000      3.0884     62.4605
   725.5000      0.0000   1200.0000      3.1604     61.8464
   725.7500      0.0000   1200.0000      3.1751     61.7836
   726.0000      0.0000   1200.0000      3.1503     63.1339
   726.2500      0.0000   1200.0000      3.1268     65.6693
   726.5000      0.0000   1200.0000      3.1161     68.0406
   726.7500      0.0000   1200.0000      3.1145     69.2160
   727.0000      0.0000   1200.0000      3.1316     69.2860
   727.2500      0.0000   1200.0000      3.1723     68.8078
   727.5000      0.0000   1200.0000      3.2140     67.9566
   727.7500      0.0000   1200.0000      3.2381     66.6829
   728.0000      0.0000   1200.0000      3.2588     65.3650
   728.2500      0.0000   1200.0000      3.2909     64.7157
   728.5000      0.0000   1200.0000      3.3135     65.0681
   728.7500      0.0000   1200.0000      3.3005     66.1392
