~Version Information
VERS.                      2.0: CWLS Log ASCII Standard - VERSION 2.0
WRAP.                       NO: One line per depth step
~Well Information Block
STRT.FT               920.0000: 
STOP.FT              3300.2000: 
STEP.FT                 0.1000: 
NULL.                -999.2500: 
COMP.          Pioneer Natural Resources: COMPANY
WELL.              Vespar 43-7: WELL
FLD.           Purgatoire River: FIELD
LOC.           2338' FSL & 1141' FEL: LOCATION
PROV.                 Colorado: PROVINCE
CNTY.               Las Animas: COUNTRY
SRVC.                Patterson: SERVICE COMPANY
DATE.          Wed Jan 26 13:38:02 2005: LOG DATE
UWI.           05 071 07955 00: UNIQUE WELL ID
~Curve Information Block
DEPT.FT            0 000 00 00: Depth
DCAL.in                       : CDL Caliper
RHOB.g/cc                     : CDL Bulk Density
RHOC.g/cc                     : CDL Density Correction
DPOR.pu                       : CDL Density Porosity
NPOR.pu                       : Neutron Porosity
GR.GAPI                       : Gamma Ray
~Parameter Information Block
~A  Depth       DCAL        RHOB        RHOC        DPOR        NPOR         GR     
# ...
  2801.6000      8.0438      2.1383     -0.0159     31.0097     33.1574    119.3481
  2801.7000      8.0438      2.1218     -0.0218     32.0148     32.8550    119.1845
  2801.8000      8.0387      2.0891     -0.0248     33.9970     32.2800    118.5955
  2801.9000      8.0387      2.0557      0.0386     36.0175     31.6140    114.7150
  2802.0000      8.0359      2.0255      0.0530     37.8480     31.4191    107.7184
  2802.1000      8.0359      2.0014      0.0496     39.3114     31.9052     99.6650
  2802.2000      8.0359      1.9971      0.0328     39.5705     32.2592     95.5961
  2802.3000      8.0373      2.0262      0.0281     37.8047     31.6486     97.1596
  2802.4000      8.0373      2.0809      0.0844     34.4914     30.3437     97.9490
  2802.5000      8.0407      2.1391      0.0593     30.9666     29.4700     94.3904
  2802.6000      8.0407      2.1860      0.1073     28.1205     29.6698     91.1567
  2802.7000      8.0407      2.2231      0.1018     25.8721     30.3294     92.1821
  2802.8000      8.0427      2.2725      0.1154     22.8785     30.4538     97.3339
  2802.9000      8.0427      2.3514      0.1460     18.0993     29.7733    105.9411
  2803.0000      8.0435      2.4342      0.2499     13.0779     29.2842    113.8706
  2803.1000      8.0435      2.4813      0.1388     10.2235     29.6492    115.4555
  2803.2000      8.0435      2.4990      0.1206      9.1542     29.6857    114.0191
  2803.3000      8.0431      2.5143      0.1121      8.2224     28.5754    114.9046
  2803.4000      8.0431      2.5273      0.0816      7.4370     27.3730    116.4786
  2803.5000      8.0413      2.5252      0.0679      7.5639     26.7619    117.1306
  2803.6000      8.0413      2.5163      0.0042      8.1028     26.5893    117.6528
  2803.7000      8.0413      2.5159      0.0745      8.1259     26.9882    119.3469
  2803.8000      8.0404      2.5136      0.0647      8.2673     27.6529    123.2745
  2803.9000      8.0404      2.4906      0.0664      9.6614     27.7534    124.2027
  2804.0000      8.0443      2.4516      0.0357     12.0215     27.3133    118.6260
  2804.1000      8.0443      2.4286     -0.0274     13.4179     27.1046    112.8271
  2804.2000      8.0443      2.4382      0.0730     12.8360     27.4113    110.2517
  2804.3000      8.0512      2.4543      0.0683     11.8605     27.6831    110.1171
  2804.4000      8.0512      2.4543      0.0677     11.8608     27.3870    109.7040
  2804.5000      8.0550      2.4463      0.0443     12.3472     26.9053    104.7973
  2804.6000      8.0550      2.4441      0.0582     12.4794     27.2051     97.4854
  2804.7000      8.0550      2.4467      0.0468     12.3234     28.0914     95.9217
  2804.8000      8.0533      2.4413      0.0931     12.6498     28.2966    105.1021
  2804.9000      8.0533      2.4267      0.0012     13.5317     27.8288    119.6504
  2805.0000      8.0467      2.4227      0.0392     13.7734     27.4117    129.0798
  2805.1000      8.0467      2.4319      0.0698     13.2192     26.7682    129.1602
  2805.2000      8.0467      2.4364      0.0829     12.9434     26.1292    125.4843
  2805.3000      8.0415      2.4312      0.0343     13.2635     26.2138    123.6487
  2805.4000      8.0415      2.4225      0.0258     13.7878     26.6412    122.1452
  2805.5000      8.0401      2.4158      0.0419     14.1959     27.1290    118.8502
  2805.6000      8.0401      2.4152      0.0404     14.2279     27.7049    115.7191
  2805.7000      8.0401      2.4201      0.0956     13.9324     28.3316    115.8687
  2805.8000      8.0397      2.4263      0.0428     13.5553     29.1935    117.2361
  2805.9000      8.0397      2.4351      0.0095     13.0214     30.0012    116.1268
  2806.0000      8.0418      2.4435      0.0546     12.5165     29.9989    113.9316
  2806.1000      8.0418      2.4447      0.0480     12.4396     29.2574    112.6666
  2806.2000      8.0418      2.4419      0.0606     12.6132     28.4251    112.4119
  2806.3000      8.0470      2.4308      0.0799     13.2824     27.9223    112.6237
  2806.4000      8.0470      2.4022      0.0290     15.0172     27.8536    113.5554
  2806.5000      8.0564      2.3647      0.0022     17.2909     28.0186    115.1348
  2806.6000      8.0564      2.3332      0.0097     19.2001     28.3421    113.8419
  2806.7000      8.0564      2.3056      0.0490     20.8747     29.1957    108.0184
  2806.8000      8.0693      2.2664      0.0303     23.2496     30.5221    102.4943
  2806.9000      8.0693      2.2133     -0.0002     26.4676     31.8035    101.3739
  2807.0000      8.0921      2.1622      0.0078     29.5633     32.7021    108.3412
  2807.1000      8.0921      2.1291     -0.0086     31.5702     32.9493    118.0207
  2807.2000      8.0921      2.1133      0.0465     32.5280     32.3393    116.9828
  2807.3000      8.1453      2.1103      0.0184     32.7074     31.0471    109.7450
  2807.4000      8.1453      2.1325      0.1185     31.3645     29.8331    108.4597
  2807.5000      8.2512      2.1762      0.2604     28.7156     29.3255    108.3066
  2807.6000      8.2512      2.2171      0.2742     26.2390     29.4775    104.7948
  2807.7000      8.2512      2.2465      0.2897     24.4551     30.0512    106.7601
  2807.8000      8.4768      2.2598      0.3369     23.6506     30.7264    117.7270
  2807.9000      8.4768      2.2395      0.2768     24.8771     31.1374    128.8279
  2808.0000      8.7969      2.1754      0.2535     28.7614     31.1730    132.2065
  2808.1000      8.7969      2.0760      0.2307     34.7901     30.7269    129.4641
  2808.2000      8.7969      1.9795      0.1517     40.6382     30.0722    125.1759
  2808.3000      8.9509      1.9344      0.1801     43.3689     29.8387    123.5291
  2808.4000      8.9509      1.9498      0.1553     42.4336     30.1990    125.0702
  2808.5000      8.9067      2.0063      0.1904     39.0149     30.6600    125.7322
  2808.6000      8.9067      2.0912      0.2273     33.8695     30.5525    124.6776
  2808.7000      8.9067      2.1968      0.3230     27.4665     29.7559    126.0061
  2808.8000      8.8593      2.3032      0.4483     21.0160     29.1145    131.6148
  2808.9000      8.8593      2.3876      0.4504     15.9000     29.3780    137.1015
  2809.0000      8.6844      2.4461      0.4008     12.3563     30.0826    138.3936
  2809.1000      8.6844      2.4884      0.3457      9.7947     30.4190    137.0637
  2809.2000      8.6844      2.5214      0.3551      7.7924     30.3379    133.2209
  2809.3000      8.2994      2.5394      0.3320      6.7018     30.0136    125.2166
  2809.4000      8.2994      2.5211      0.3254      7.8113     29.5202    118.7553
  2809.5000      8.0100      2.4573      0.2129     11.6815     29.3062    120.3091
  2809.6000      8.0100      2.3810      0.0558     16.3034     29.8049    125.9872
  2809.7000      8.0100      2.3336      0.0818     19.1758     30.7537    128.6059
  2809.8000      7.9189      2.3183      0.0784     20.1044     31.2330    127.2655
  2809.9000      7.9189      2.3108      0.0669     20.5554     30.6555    125.0990
  2810.0000      7.9069      2.2900      0.0630     21.8210     29.2354    121.9564
  2810.1000      7.9069      2.2566      0.0194     23.8433     27.4323    114.3722
  2810.2000      7.9069      2.2318      0.0104     25.3461     25.9411    102.5375
  2810.3000      7.9063      2.2308      0.0096     25.4061     25.3769     91.8992
  2810.4000      7.9063      2.2498      0.0282     24.2536     25.6290     88.0366
  2810.5000      7.9064      2.2810      0.0519     22.3659     26.1721     91.6555
  2810.6000      7.9064      2.3281      0.0534     19.5090     26.2741     96.9121
  2810.7000      7.9064      2.3939      0.1158     15.5222     25.5528     96.3677
  2810.8000      7.9072      2.4579      0.1526     11.6397     24.6568     90.4495
  2810.9000      7.9072      2.4972      0.1252      9.2598     24.4578     85.5735
  2811.0000      7.9065      2.5162      0.0961      8.1061     24.9589     86.3697
  2811.1000      7.9065      2.5280      0.1665      7.3960     25.4618     92.7598
