~Version Information
VERS.                      2.0: CWLS Log ASCII Standard - VERSION 2.0
WRAP.                       NO: One line per depth step
~Well Information Block
STRT.FT                -3.0000: 
STOP.FT              1679.2500: 
STEP.FT                 0.2500: 
NULL.                -999.2500: 
COMP.          Evergreen Operating Corp.: COMPANY
WELL.            Rimrock 14-29: WELL
FLD.           Purgatorie River: FIELD
LOC.           945' FSL & 604' FWL--: LOCATION
PROV.                       CO: PROVINCE
CNTY.               Las Animas: COUNTRY
SRVC.                         : SERVICE COMPANY
DATE.          Mon Oct 04 13:02:21 2004: LOG DATE
UWI.           05 071 08136 00: UNIQUE WELL ID
~Curve Information Block
DEPT.FT            0 000 00 00: Depth
GR.GAPI                       : Gamma Ray
CCL.                          : Casing Collar Locator
TT3.usec                      : CBL 3' Travel Time
AMP3.mV                       : CBL 3' Amplitude
~Parameter Information Block
~A  Depth        GR         CCL         TT3         AMP3    
# ...
   432.5000     67.9254      0.0000    796.8761      8.0069
   432.7500     64.7656      0.0000    794.2307      7.9965
   433.0000     62.7943      0.0000    790.9955      8.0007
   433.2500     63.0043      0.0000    792.6902      8.0417
   433.5000     65.6064      0.0000    799.1760      8.1070
   433.7500     69.9179      0.0000    803.5378      8.1613
   434.0000     75.0919      0.0000    799.1584      8.1616
   434.2500     80.6384      0.0000    785.9648      8.0702
   434.5000     86.2079      0.0000    769.4832      7.8683
   434.7500     91.3163      0.0000    755.5547      7.5735
   435.0000     95.5340      0.0000    746.6960      7.2368
   435.2500     98.6824      0.0000    742.2639      6.9108
   435.5000    100.6402      0.0000    740.9774      6.6128
   435.7500    101.2640      0.0000    742.6782      6.3282
   436.0000    100.6809      0.0000    747.7616      6.0524
   436.2500     99.3568      0.0000    756.2352      5.8136
   436.5000     97.8186      0.0000    768.7048      5.6280
   436.7500     96.5420      0.0000    786.8762      5.4579
   437.0000     95.7275      0.0000    810.3758      5.2599
   437.2500     94.6865      0.0000    833.6663      5.0576
   437.5000     91.9635      0.0000    849.6089      4.9123
   437.7500     86.8898      0.0000    856.9064      4.8419
   438.0000     80.7570     -2.0000    861.3819      4.8181
   438.2500     75.9541     -2.0000    867.8906      4.8330
   438.5000     74.2226      0.0000    872.4396      4.9416
   438.7500     75.8739      0.0000    865.6683      5.2386
   439.0000     79.9357      0.0000    844.2448      5.7823
   439.2500     84.6237      0.0000    815.3069      6.5115
   439.5000     88.2711      0.0000    788.8312      7.2468
   439.7500     90.3732      0.0000    769.1556      7.8115
   440.0000     91.6223      0.0000    756.0010      8.1486
   440.2500     92.8382      0.0000    750.3828      8.3111
   440.5000     94.1660      0.0000    755.4894      8.3771
   440.7500     95.2974      0.0000    771.7447      8.4009
   441.0000     95.9849      0.0000    793.9589      8.4183
   441.2500     96.1700      0.0000    814.8342      8.4606
   441.5000     95.9697      0.0000    830.1953      8.5524
   441.7500     95.6935      0.0000    839.3431      8.6982
   442.0000     95.6406      0.0000    841.8735      8.8779
   442.2500     95.9221      0.0000    836.6335      9.0547
   442.5000     96.6505      0.0000    822.5184      9.1937
   442.7500     98.0179      0.0000    797.6128      9.2828
   443.0000     99.7901      0.0000    759.3703      9.3411
   443.2500    100.8937      0.0000    709.5712      9.3999
   443.5000    100.0084      0.0000    657.8026      9.4763
   443.7500     96.7284      0.0000    615.4844      9.5717
   444.0000     91.9346      0.0000    585.4799      9.6921
   444.2500     87.0645      0.0000    559.5376      9.8529
   444.5000     83.3018      0.0000    526.3947     10.0585
   444.7500     81.3685      0.0000    481.9845     10.2851
   445.0000     81.5795      0.0000    432.7024     10.4904
   445.2500     83.6217      0.0000    389.7191     10.6424
   445.5000     86.3961      0.0000    360.4341     10.7421
   445.7500     88.5986      0.0000    344.8343     10.8157
   446.0000     89.7754      0.0000    338.3214     10.8842
   446.2500     90.7714      0.0000    336.1791     10.9438
   446.5000     92.9929      0.0000    335.6169     10.9768
   446.7500     97.0516      0.0000    335.4937     10.9711
   447.0000    102.0920      0.0000    335.4480     10.9284
   447.2500    106.4378      0.0000    335.3750     10.8636
   447.5000    108.6425      0.0000    335.2381     10.7997
   447.7500    107.9328      0.0000    335.0384     10.7534
   448.0000    104.4782      0.0000    334.7912     10.7240
   448.2500     99.9082      0.0000    334.5191     10.7004
   448.5000     96.9961      0.0000    334.2504     10.6740
   448.7500     97.8499      0.0000    334.0152     10.6365
   449.0000    102.1570      0.0000    333.8384     10.5732
   449.2500    107.3950      0.0000    333.7396     10.4692
   449.5000    110.7910      0.0000    333.7319     10.3220
   449.7500    111.2320      0.0000    333.8062     10.1456
   450.0000    109.7718      0.0000    333.9269      9.9645
   450.2500    108.5231      0.0000    334.0786      9.8009
   450.5000    108.7564      0.0000    334.4499      9.6588
   450.7500    109.7607      0.0000    335.8262      9.5201
   451.0000    109.5089      0.0000    340.1006      9.3586
   451.2500    106.6075      0.0000    350.2570      9.1592
   451.5000    101.6763      0.0000    368.8030      8.9213
   451.7500     96.6833      0.0000    395.2075      8.6530
   452.0000     92.8997      0.0000    425.6675      8.3758
   452.2500     89.8937      0.0000    456.7065      8.1316
   452.5000     86.7070      0.0000    487.8864      7.9698
   452.7500     83.3159      0.0000    519.3873      7.9099
   453.0000     80.2737      0.0000    549.1423      7.9238
   453.2500     77.4742      0.0000    575.3370      7.9616
   453.5000     74.2088      0.0000    599.5362      7.9903
   453.7500     70.4393      0.0000    624.1018      8.0014
   454.0000     67.3167      0.0000    648.1811      7.9945
   454.2500     66.2406      0.0000    668.2866      7.9664
   454.5000     67.8195      0.0000    680.5598      7.9087
   454.7500     71.8032      0.0000    681.0172      7.8036
   455.0000     77.4141      0.0000    666.8087      7.6235
   455.2500     83.4535      0.0000    639.0029      7.3396
   455.5000     88.4752      0.0000    602.3320      6.9348
   455.7500     91.3245      0.0000    562.4601      6.4180
   456.0000     91.6909      0.0000    524.9583      5.8350
   456.2500     90.2777      0.0000    495.0107      5.2625
   456.5000     88.5176      0.0000    475.7422      4.7809
   456.7500     87.9314      0.0000    467.0783      4.4422
   457.0000     89.3093      0.0000    466.6752      4.2521
   457.2500     92.2194      0.0000    471.3620      4.1714
   457.5000     95.3550      0.0000    477.7545      4.1403
   457.7500     97.4288      0.0000    482.8801      4.1159
   458.0000     97.8134      0.0000    485.2894      4.0890
   458.2500     96.6715      0.0000    485.6235      4.0698
   458.5000     94.7015      0.0000    485.6817      4.0665
   458.7500     92.5133      0.0000    486.5518      4.0811
   459.0000     90.1191      0.0000    487.5692      4.1131
   459.2500     87.2493      0.0000    486.9641      4.1545
   459.5000     84.0507      0.0000    483.3553      4.1844
   459.7500     81.1467      0.0000    476.8195      4.1792
   460.0000     79.1825      0.0000    468.9344      4.1338
   460.2500     78.5652      0.0000    461.8108      4.0648
   460.5000     79.2982      0.0000    456.8200      3.9941
   460.7500     80.6834      0.0000    454.0617      3.9389
   461.0000     81.4223      0.0000    452.8443      3.9181
   461.2500     80.4951      0.0000    452.4377      3.9530
   461.5000     78.0335      0.0000    452.4098      4.0487
   461.7500     75.1521      0.0000    452.5784      4.1835
   462.0000     72.9369      0.0000    452.9075      4.3317
   462.2500     71.7726      0.0000    453.5269      4.4952
   462.5000     71.5798      0.0000    454.8479      4.7008
   462.7500     72.2452      0.0000    457.5918      4.9607
   463.0000     73.4937      0.0000    462.4415      5.2439
   463.2500     74.6254      0.0000    469.3290      5.5004
   463.5000     74.9975      0.0000    476.9928      5.7132
   463.7500     74.8413      0.0000    483.4717      5.9117
   464.0000     75.1163      0.0000    487.1353      6.1274
   464.2500     76.4110      0.0000    487.2447      6.3454
   464.5000     78.3842      0.0000    483.9278      6.5102
   464.7500     80.4355      0.0000    478.2356      6.5711
   465.0000     82.5562      0.0000    472.1202      6.5209
   465.2500     85.1835      0.0000    467.4944      6.4017
   465.5000     88.2832      0.0000    464.8076      6.2820
   465.7500     91.0117      0.0000    462.8790      6.2175
