~Version Information
VERS.                      2.0: CWLS Log ASCII Standard - VERSION 2.0
WRAP.                       NO: One line per depth step
~Well Information Block
STRT.FT                -7.0000: 
STOP.FT              1329.7500: 
STEP.FT                 0.2500: 
NULL.                -999.2500: 
COMP.          Pioneer Natural Resources: COMPANY
WELL.             Raptor 44-26: WELL
FLD.           Purgatorie River: FIELD
LOC.           180' FSL & 812' FEL--: LOCATION
PROV.                       CO: PROVINCE
CNTY.               Las Animas: COUNTRY
SRVC.          Patterson Wireline: SERVICE COMPANY
DATE.          Wed Mar 30 12:38:23 2005: LOG DATE
UWI.           05 071 08187 00: UNIQUE WELL ID
~Curve Information Block
DEPT.FT            0 000 00 00: Depth
CCL.                          : Casing Collar Locator
TT3.usec                      : CBL 3' Travel Time
AMP3.mV                       : CBL 3' Amplitude
GR.GAPI                       : Gamma Ray
~Parameter Information Block
MINATTN.db/ft           0.8000: Minimum Attenuation
~A  Depth       CCL         TT3         AMP3         GR     
# ...
   529.0000      0.0000    802.4295      8.3927    143.9892
   529.2500      0.0000    800.5373      8.4066    143.1025
   529.5000      0.0000    800.0833      8.4215    142.0597
   529.7500      0.0000    801.9404      8.4304    141.1121
   530.0000      0.0000    806.4549      8.4379    140.3516
   530.2500      0.0000    813.2535      8.4571    139.9331
   530.5000      0.0000    820.9656      8.4972    140.1424
   530.7500      0.0000    827.7511      8.5565    141.0246
   531.0000      0.0000    832.3825      8.6245    141.9326
   531.2500      0.0000    834.7491      8.6955    141.6114
   531.5000      0.0000    835.3651      8.7856    138.7758
   531.7500      0.0000    834.5485      8.9315    132.5894
   532.0000      0.0000    832.0560      9.1674    122.9011
   532.2500      0.0000    827.4348      9.4985    110.5883
   532.5000      0.0000    820.8057      9.8945     97.7874
   532.7500      0.0000    813.3138     10.2975     87.2879
   533.0000      0.0000    806.6145     10.6418     81.3400
   533.2500      0.0000    801.8152     10.8762     80.9961
   533.5000      0.0000    798.9677     10.9789     86.2920
   533.7500      0.0000    797.4470     10.9556     96.3807
   534.0000      0.0000    796.5767     10.8286    109.1933
   534.2500      0.0000    795.8995     10.6239    121.5848
   534.5000      0.0000    795.1090     10.3617    130.6932
   534.7500      0.0000    793.8664     10.0594    135.5227
   535.0000      0.0000    791.7172      9.7483    136.9870
   535.2500      0.0000    788.2631      9.4743    136.1300
   535.5000      0.0000    783.4813      9.2719    132.6318
   535.7500      0.0000    777.7714      9.1366    125.6401
   536.0000      0.0000    771.6573      9.0307    115.8852
   536.2500      0.0000    765.6292      8.9127    106.2095
   536.5000      0.0000    760.2424      8.7629     99.7488
   536.7500      0.0000    756.0252      8.5907     97.7837
   537.0000      0.0000    753.1769      8.4215     99.3656
   537.2500      0.0000    751.4974      8.2731    102.6797
   537.5000      0.0000    750.6055      8.1423    106.4371
   537.7500      0.0000    750.1559      8.0154    110.0314
   538.0000      0.0000    749.9378      7.8845    112.9286
   538.2500      0.0000    749.8862      7.7490    114.5738
   538.5000      0.0000    750.0256      7.6105    115.0150
   538.7500      0.0000    750.4482      7.4745    115.0414
   539.0000      0.0000    751.4980      7.3506    115.1648
   539.2500      0.0000    754.1090      7.2474    114.8928
   539.5000      0.0000    759.7216      7.1704    113.5429
   539.7500      0.0000    768.9662      7.1260    111.3634
   540.0000      0.0000    779.6713      7.1167    109.5419
   540.2500      0.0000    786.8618      7.1317    109.5953
   540.5000      0.0000    786.3161      7.1483    112.6877
   540.7500      0.0000    778.4586      7.1436    118.5119
   541.0000      0.0000    767.9010      7.1076    124.6399
   541.2500      0.0000    759.2728      7.0515    127.9358
   541.5000      0.0000    754.2391      6.9996    126.9523
   541.7500      0.0000    751.9573      6.9730    122.5716
   542.0000      0.0000    750.9861      6.9796    116.6686
   542.2500      0.0000    750.4374      7.0150    110.8594
   542.5000      0.0000    750.1165      7.0645    106.2294
   542.7500      0.0000    750.2630      7.1083    103.3944
   543.0000      0.0000    751.2652      7.1332    102.5328
   543.2500      0.0000    753.4064      7.1383    103.4112
   543.5000      0.0000    756.5762      7.1299    105.2850
   543.7500      0.0000    760.1501      7.1136    106.9577
   544.0000      0.0000    763.4108      7.0937    107.3768
   544.2500      0.0000    766.1249      7.0764    106.2579
   544.5000      0.0000    768.2996      7.0732    103.8724
   544.7500      0.0000    769.4320      7.0988    100.4729
   545.0000      0.0000    768.8443      7.1621     96.6555
   545.2500      0.0000    766.9111      7.2559     94.1541
   545.5000      0.0000    765.0014      7.3595     95.1737
   545.7500      0.0000    763.8802      7.4524    100.3969
   546.0000      0.0000    763.0417      7.5240    107.9593
   546.2500      0.0000    762.0961      7.5763    114.6512
   546.5000      0.0000    762.1228      7.6207    118.0936
   546.7500      0.0000    765.0147      7.6655    117.8292
   547.0000      0.0000    771.7155      7.7065    114.7101
   547.2500      0.0000    781.4124      7.7358    109.8393
   547.5000      0.0000    792.1567      7.7550    104.1267
   547.7500      0.0000    801.8110      7.7741     98.2792
   548.0000      0.0000    808.6810      7.8001     92.7470
   548.2500      0.0000    812.1874      7.8315     87.6687
   548.5000      0.0000    813.2708      7.8611     83.1487
   548.7500      0.0000    813.4800      7.8866     79.9417
   549.0000      0.0000    813.4842      7.9134     79.6648
   549.2500      0.0000    813.0596      7.9444     83.5370
   549.5000      0.0000    812.4254      7.9724     90.6259
   549.7500      0.0000    812.6664      7.9872     98.1908
   550.0000      0.0000    814.7004      7.9841    104.4274
   550.2500      0.0000    818.4412      7.9630    110.4035
   550.5000      0.0000    822.9884      7.9261    118.7433
   550.7500      0.0000    827.2367      7.8812    130.4421
   551.0000      0.0000    830.3980      7.8453    143.0509
   551.2500      0.0000    832.2745      7.8407    152.0144
   551.5000      0.0000    833.1669      7.8831    154.1220
   551.7500      0.0000    833.5459      7.9701    150.0767
   552.0000      0.0000    833.7684      8.0782    143.8674
   552.2500      0.0000    833.9749      8.1727    139.7597
   552.5000      0.0000    834.1506      8.2254    139.6538
   552.7500      0.0000    834.2466      8.2310    142.6007
   553.0000      0.0000    834.2461      8.2080    146.3477
   553.2500      0.0000    834.1506      8.1779    149.4761
   553.5000      0.0000    833.9697      8.1472    152.2595
   553.7500      0.0000    833.7296      8.1092    155.6031
   554.0000      0.0000    833.4609      8.0604    159.3862
   554.2500      0.0000    833.1694      8.0103    162.0782
   554.5000      0.0000    832.8389      7.9768    162.1544
   554.7500      0.0000    832.4725      7.9697    159.6241
   555.0000      0.0000    832.1199      7.9818    155.7526
   555.2500      0.0000    831.8503      7.9967    151.5044
   555.5000      0.0000    831.6898      7.9990    146.9137
   555.7500      0.0000    831.5093      7.9711    141.8916
   556.0000      0.0000    830.8342      7.8857    137.1687
   556.2500      0.0000    828.5583      7.7128    134.3512
   556.5000      0.0000    822.9462      7.4371    135.0684
   556.7500      0.0000    812.6583      7.0721    139.7660
   557.0000      0.0000    799.0627      6.6575    147.0668
   557.2500      0.0000    788.0739      6.2411    154.2420
   557.5000      0.0000    788.5580      5.8632    158.4738
   557.7500      0.0000    807.0103      5.5601    158.2130
   558.0000      0.0000    842.6929      5.3671    154.0028
   558.2500      0.0000    887.7998      5.2992    148.2450
   558.5000      0.0000    932.3527      5.3280    143.9486
   558.7500      0.0000    969.6921      5.3955    143.0276
   559.0000      0.0000    998.8854      5.4551    145.1097
   559.2500      2.0000   1022.3123      5.5005    147.8541
   559.5000      0.0000   1039.7751      5.5756    148.7863
   559.7500      0.0000   1045.1251      5.7614    146.9703
   560.0000      0.0000   1031.0000      6.1289    142.9256
   560.2500      0.0000    997.5941      6.6678    137.3068
   560.5000      0.0000    954.8976      7.2674    130.3190
   560.7500      0.0000    915.8050      7.7952    122.4993
   561.0000      0.0000    888.4204      8.1943    115.3714
   561.2500      0.0000    874.0414      8.4905    110.6777
   561.5000      0.0000    869.2741      8.7242    109.0801
   561.7500      0.0000    868.7145      8.9053    110.0578
   562.0000      0.0000    867.1834      9.0220    113.0393
   562.2500      0.0000    861.4444      9.0666    118.0728
