~Version Information
VERS.                      2.0: CWLS Log ASCII Standard - VERSION 2.0
WRAP.                       NO: One line per depth step
~Well Information Block
STRT.FT                17.7500: 
STOP.FT              1139.0000: 
STEP.FT                 0.2500: 
NULL.                -999.2500: 
COMP.          El Paso E&P Company L.P.: COMPANY
WELL.              VPR "ST" 38: WELL
FLD.           Purgatorie River: FIELD
LOC.           687' FNL & 2121' FEL: LOCATION
CNTY.               Las Animas: COUNTY
SRVC.          Superior Well Services: SERVICE COMPANY
DATE.          Sat Oct 13 22-40-21 2007: LOG DATE
UWI.           05-071-08357-00: UNIQUE WELL ID
STAT.                       CO: STATE
~Curve Information Block
DEPT.FT            0 000 00 00: Depth
CCL.                          : Casing Collar Locator
TT3.usec                      : CBL 3' Travel Time
AMP3.mV                       : CBL 3' Amplitude
GR.GAPI                       : Gamma Ray
~Parameter Information Block
~A  Depth       CCL         TT3         AMP3         GR     
# ...
   319.2500      0.0000    741.8120      3.8939     52.8533
   319.5000      0.0000    738.5732      3.8858     55.1934
   319.7500      0.0000    736.8068      3.8771     59.4115
   320.0000      0.0000    737.5313      3.8691     61.8160
   320.2500      0.0000    740.6393      3.8586     63.5738
   320.5000      0.0000    744.4177      3.8406     63.4232
   320.7500      0.0000    746.4940      3.8151     61.6690
   321.0000      0.0000    745.2070      3.7893     59.6500
   321.2500      0.0000    740.4894      3.7708     55.5836
   321.5000      0.0000    734.2009      3.7618     52.5911
   321.7500      0.0000    729.6260      3.7600     48.6607
   322.0000      0.0000    729.7117      3.7636     46.7770
   322.2500      0.0000    734.8773      3.7716     45.2000
   322.5000      0.0000    741.9531      3.7841     44.9435
   322.7500      0.0000    745.5457      3.8023     45.5588
   323.0000      0.0000    742.2347      3.8240     46.4302
   323.2500      0.0000    734.6653      3.8381     48.1512
   323.5000      0.0000    730.6409      3.8295     49.5608
   323.7500      0.0000    736.4426      3.7948     51.9942
   324.0000      0.0000    750.2692      3.7482     53.5383
   324.2500      0.0000    762.3485      3.7107     55.0243
   324.5000      0.0000    762.5245      3.6928     55.2879
   324.7500      0.0000    748.9200      3.6895     54.9636
   325.0000      0.0000    729.0632      3.6871     54.5618
   325.2500      0.0000    712.5950      3.6750     53.6713
   325.5000      0.0000    703.9176      3.6535     52.6990
   325.7500      0.0000    701.5624      3.6329     50.9493
   326.0000      0.0000    702.2325      3.6251     50.2254
   326.2500      0.0000    704.0654      3.6315     50.6396
   326.5000      0.0000    707.1702      3.6382     51.6781
   326.7500      0.0000    712.7731      3.6262     52.9841
   327.0000      0.0000    722.1897      3.5870     52.9862
   327.2500      0.0000    735.3632      3.5275     51.7623
   327.5000      0.0000    749.4035      3.4596     50.9164
   327.7500      0.0000    759.4589      3.3908     51.0375
   328.0000      0.0000    762.8130      3.3239     52.1945
   328.2500      0.0000    762.0546      3.2626     54.3743
   328.5000      0.0000    762.6486      3.2125     55.1009
   328.7500      0.0000    767.0452      3.1765     54.0329
   329.0000      0.0000    772.2349      3.1529     52.1563
   329.2500      0.0000    773.2664      3.1416     49.3763
   329.5000      0.0000    768.4096      3.1555     48.5592
   329.7500      0.0000    761.1039      3.2227     49.2357
   330.0000      0.0000    758.4495      3.3656     50.4400
   330.2500      0.0000    767.3305      3.5644     52.5899
   330.5000      0.0000    788.4952      3.7504     54.2622
   330.7500      0.0000    812.5698      3.8590     57.3777
   331.0000      0.0000    825.3542      3.8858     59.6340
   331.2500      0.0000    820.7744      3.8744     62.4802
   331.5000     -2.0000    806.6323      3.8617     63.9224
   331.7500      2.0000    794.8857      3.8549     66.3173
   332.0000      2.0000    788.7152      3.8510     68.7357
   332.2500     -2.0000    782.0270      3.8594     73.9459
   332.5000      0.0000    769.5295      3.8962     78.1918
   332.7500      0.0000    753.3847      3.9525     84.7549
   333.0000      0.0000    739.7792      3.9705     88.4470
   333.2500      0.0000    732.3246      3.8745     91.6235
   333.5000      0.0000    730.3549      3.6483     92.1149
   333.7500      0.0000    731.1221      3.3656     92.0202
   334.0000      0.0000    731.6406      3.1275     92.5173
   334.2500      0.0000    729.6017      2.9833     94.5435
   334.5000      0.0000    724.3904      2.9250     96.2260
   334.7500      0.0000    717.1002      2.9380     98.7245
   335.0000      0.0000    709.1390      3.0367    100.9295
   335.2500      0.0000    701.3838      3.2586    106.4663
   335.5000      0.0000    694.8293      3.6306    111.5708
   335.7500      0.0000    691.1665      4.1361    119.3735
   336.0000      0.0000    691.7449      4.7059    123.6275
   336.2500      0.0000    695.9194      5.2426    128.1470
   336.5000      0.0000    700.9896      5.6678    129.6325
   336.7500      0.0000    704.2730      5.9593    128.0179
   337.0000      0.0000    705.2878      6.1474    123.8345
   337.2500      0.0000    705.7328      6.2771    114.5659
   337.5000      0.0000    707.9480      6.3797    108.4066
   337.7500      0.0000    714.1584      6.4725    101.7890
   338.0000      0.0000    726.1542      6.5572     99.4765
   338.2500      0.0000    743.6455      6.5978     98.8315
   338.5000      0.0000    762.7896      6.5191    100.1826
   338.7500      0.0000    777.5385      6.2560    104.7833
   339.0000      0.0000    782.6707      5.8156    109.2654
   339.2500      0.0000    776.2300      5.2879    116.8033
   339.5000      0.0000    760.9029      4.7957    121.0526
   339.7500      0.0000    743.0484      4.4279    124.0291
   340.0000      0.0000    728.7400      4.2032    123.4067
   340.2500      0.0000    720.2908      4.0816    119.8053
   340.5000      0.0000    716.5071      4.0063    116.4699
   340.7500      0.0000    715.1957      3.9411    110.6985
   341.0000      0.0000    714.8625      3.8780    106.6879
   341.2500      0.0000    714.8613      3.8243    101.8966
   341.5000      0.0000    714.9726      3.7875    100.5469
   341.7500      0.0000    715.0889      3.7669    101.8727
   342.0000      0.0000    715.1371      3.7551    104.1910
   342.2500      0.0000    715.1075      3.7442    107.2398
   342.5000      0.0000    715.0446      3.7316    107.7868
   342.7500      0.0000    715.0081      3.7199    106.3293
   343.0000      0.0000    715.0195      3.7107    104.8447
   343.2500      0.0000    715.0182      3.7018    103.4649
   343.5000      0.0000    714.7531      3.6913    103.0578
   343.7500      0.0000    713.5099      3.6811    101.7600
   344.0000      0.0000    709.6519      3.6740     99.9156
   344.2500      0.0000    700.4808      3.6678     96.7005
   344.5000      0.0000    683.4118      3.6554     95.5046
   344.7500      0.0000    658.4422      3.6315     96.6092
   345.0000      0.0000    629.5169      3.5967     99.2960
   345.2500      0.0000    602.4011      3.5570    104.9139
   345.5000      0.0000    580.9272      3.5201    108.2728
   345.7500      0.0000    566.0575      3.4913    109.9381
   346.0000      0.0000    558.6997      3.4708    107.9779
   346.2500      0.0000    562.3515      3.4547    101.6943
   346.5000      0.0000    581.9528      3.4382     97.0539
   346.7500      0.0000    619.2768      3.4174     92.0260
   347.0000      0.0000    668.6662      3.3910     90.5989
   347.2500      0.0000    717.3995      3.3613     91.2927
   347.5000      0.0000    751.6077      3.3343     93.2348
   347.7500      0.0000    763.6865      3.3179     96.8658
   348.0000      0.0000    755.1524      3.3160     98.5162
   348.2500      0.0000    732.7821      3.3235     98.3890
   348.5000      0.0000    702.6091      3.3250     96.7723
   348.7500      0.0000    668.0735      3.3032     93.3972
   349.0000      0.0000    632.4084      3.2511     90.9608
   349.2500      0.0000    599.7780      3.1780     87.0123
   349.5000      0.0000    572.9385      3.1050     84.3423
   349.7500      0.0000    551.6287      3.0548     81.2219
   350.0000      0.0000    534.7659      3.0407     80.2220
   350.2500      0.0000    523.0079      3.0628     80.3407
   350.5000      0.0000    517.7849      3.1099     81.0892
   350.7500      0.0000    518.5837      3.1674     82.6867
   351.0000      0.0000    522.5766      3.2229     84.2464
   351.2500      0.0000    526.8187      3.2695     87.9709
   351.5000      0.0000    530.1045      3.3069     91.1804
   351.7500      0.0000    533.0004      3.3399     95.4556
   352.0000      0.0000    536.9496      3.3751     97.1388
   352.2500      0.0000    543.3413      3.4148     97.9925
   352.5000      0.0000    552.6312      3.4527     97.7698
