~Version Information
VERS.                      2.0: CWLS Log ASCII Standard - VERSION 2.0
WRAP.                       NO: One line per depth step
~Well Information Block
STRT.FT                -6.7500: 
STOP.FT              1181.0000: 
STEP.FT                 0.2500: 
NULL.                -999.2500: 
COMP.          Pioneer Natural Resources: COMPANY
WELL.          Pacheco 33-27 Tr: WELL
FLD.           Purgatorie River: FIELD
LOC.           2251' FSL & 2342' FEL--: LOCATION
PROV.                       CO: PROVINCE
CNTY.               Las Animas: COUNTRY
SRVC.          Patterson Wireline: SERVICE COMPANY
DATE.          Wed Jun 15 10:58:02 2005: LOG DATE
UWI.           05 071 08384 00: UNIQUE WELL ID
~Curve Information Block
DEPT.FT            0 000 00 00: Depth
CCL.                          : Casing Collar Locator
TT3.usec                      : CBL 3' Travel Time
AMP3.mV                       : CBL 3' Amplitude
GR.GAPI                       : Gamma Ray
~Parameter Information Block
~A  Depth       CCL         TT3         AMP3         GR     
# ...
   830.7500      0.0000    794.1796      5.7996    158.8344
   831.0000      0.0000    812.1511      5.8420    158.5552
   831.2500      0.0000    822.1407      5.9474    156.6842
   831.5000      0.0000    819.4565      6.0409    154.5288
   831.7500      0.0000    804.2639      6.0289    153.6521
   832.0000      0.0000    782.2303      5.9115    154.9319
   832.2500      0.0000    761.0829      5.7847    157.8883
   832.5000      0.0000    745.9838      5.7318    161.1103
   832.7500      0.0000    737.7259      5.7392    163.6438
   833.0000      0.0000    734.4844      5.7336    165.8877
   833.2500      0.0000    734.5468      5.6874    168.8260
   833.5000      0.0000    737.8782      5.6573    172.4655
   833.7500      0.0000    746.1212      5.7076    175.2500
   834.0000      0.0000    761.1179      5.8188    174.7466
   834.2500      0.0000    782.3003      5.8988    168.8744
   834.5000      0.0000    804.9425      5.8910    157.4601
   834.7500      0.0000    821.6084      5.8442    143.4288
   835.0000      0.0000    826.1496      5.8547    131.8583
   835.2500      0.0000    817.0789      5.9426    126.8660
   835.5000      0.0000    798.2503      6.0190    129.1429
   835.7500      0.0000    776.7816      5.9867    136.3049
   836.0000      0.0000    759.1624      5.8524    144.9607
   836.2500      0.0000    747.9152      5.7140    152.3673
   836.5000      0.0000    741.5120      5.6413    157.1731
   836.7500      0.0000    737.2349      5.6040    159.7877
   837.0000      0.0000    733.6730      5.5362    162.1029
   837.2500      0.0000    730.7844      5.4445    166.0394
   837.5000      0.0000    728.7401      5.4113    171.7141
   837.7500      0.0000    727.3856      5.4864    177.1255
   838.0000      0.0000    726.4754      5.6144    179.9197
   838.2500      0.0000    725.9138      5.6971    179.5414
   838.5000      0.0000    725.7109      5.7096    177.5648
   838.7500      0.0000    725.8439      5.7222    175.9942
   839.0000      0.0000    726.2080      5.8030    175.4918
   839.2500      0.0000    726.6830      5.9252    175.2025
   839.5000      0.0000    727.2813      5.9906    173.6905
   839.7500      0.0000    728.2645      5.9382    169.8738
   840.0000      0.0000    730.0147      5.8149    163.5984
   840.2500      0.0000    732.5487      5.7310    155.7225
   840.5000      0.0000    735.1127      5.7467    147.5383
   840.7500      0.0000    736.5947      5.8108    140.1464
   841.0000      0.0000    736.6589      5.8269    134.3377
   841.2500      0.0000    736.2444      5.7723    130.6389
   841.5000      0.0000    736.6006      5.7289    129.0921
   841.7500      0.0000    738.0718      5.7887    129.2999
   842.0000      0.0000    740.4215      5.9491    131.0505
   842.2500      0.0000    744.3178      6.1188    134.7802
   842.5000      0.0000    751.5619      6.2105    141.1509
   842.7500      0.0000    763.0591      6.2049    150.0351
   843.0000      0.0000    776.9508      6.1277    159.7744
   843.2500      0.0000    789.5984      5.9937    167.6657
   843.5000      0.0000    798.4017      5.8015    171.5966
   843.7500      0.0000    803.2419      5.5840    171.3409
   844.0000      0.0000    805.5377      5.4244    168.3806
   844.2500      0.0000    806.6761      5.3849    164.9125
   844.5000      0.0000    807.3720      5.4267    163.1257
   844.7500      0.0000    807.8213      5.4356    164.5092
   845.0000      0.0000    807.9431      5.3415    168.6773
   845.2500      0.0000    807.4092      5.1961    172.9814
   845.5000      0.0000    805.6852      5.1164    174.1584
   845.7500      0.0000    802.3018      5.1544    170.5840
   846.0000      0.0000    797.2342      5.2419    162.7509
   846.2500      0.0000    790.9498      5.2751    152.2529
   846.5000      0.0000    784.0800      5.2322    141.0737
   846.7500      0.0000    777.1340      5.1794    131.1362
   847.0000      0.0000    770.4852      5.1645    123.4423
   847.2500      0.0000    764.4409      5.1423    117.7573
   847.5000      0.0000    759.3760      5.0290    113.6760
   847.7500      0.0000    755.6882      4.8172    111.7369
   848.0000      0.0000    753.1591      4.6032    113.0115
   848.2500      0.0000    750.4341      4.4843    117.6873
   848.5000      0.0000    746.2790      4.4499    124.4200
   848.7500      0.0000    742.2297      4.4066    131.0206
   849.0000      0.0000    743.1346      4.3059    135.5993
   849.2500      0.0000    753.1317      4.2089    137.3576
   849.5000      0.0000    770.6364      4.2058    136.7945
   849.7500      0.0000    788.8097      4.3054    135.2979
   850.0000      0.0000    801.9042      4.4332    134.3926
   850.2500      0.0000    810.0797      4.5203    135.0614
   850.5000     -2.0000    817.3199      4.5568    137.2903
   850.7500      0.0000    826.3239      4.5572    140.1428
   851.0000      0.0000    836.5661      4.5243    142.4435
   851.2500      0.0000    845.3232      4.4802    143.3371
   851.5000      0.0000    848.6047      4.5002    142.1627
   851.7500      0.0000    842.2749      4.6598    138.3279
   852.0000      0.0000    824.6921      4.9445    131.9485
   852.2500      0.0000    798.9655      5.2506    124.4451
   852.5000      0.0000    771.8763      5.4774    117.8409
   852.7500      0.0000    749.8721      5.5946    113.2351
   853.0000      0.0000    735.7409      5.6349    110.1897
   853.2500      0.0000    728.4636      5.6471    107.6689
   853.5000      0.0000    725.3262      5.6500    105.3025
   853.7500      0.0000    723.8243      5.6221    103.3845
   854.0000      0.0000    722.3575      5.5458    101.8048
   854.2500      0.0000    720.3317      5.4590     99.6341
   854.5000      0.0000    718.1215      5.4329     96.1594
   854.7500      0.0000    716.5494      5.4863     92.1692
   855.0000      0.0000    715.9395      5.5427     89.7987
   855.2500      0.0000    715.8492      5.4997     90.8190
   855.5000      0.0000    715.9199      5.3388     94.8854
   855.7500      0.0000    716.5323      5.1543     99.4774
   856.0000      0.0000    718.2143      5.0649    101.6809
   856.2500      0.0000    720.7674      5.1001    100.2021
   856.5000      0.0000    723.3908      5.1848     96.0583
   856.7500      0.0000    725.3985      5.2341     91.6707
   857.0000      0.0000    726.5029      5.2365     88.9889
   857.2500      0.0000    726.5749      5.2327     87.9363
   857.5000      0.0000    725.4979      5.2364     86.7343
   857.7500      0.0000    723.4475      5.2146     84.0173
   858.0000      0.0000    721.2562      5.1499     80.3883
   858.2500      0.0000    720.1373      5.0839     77.6441
   858.5000      0.0000    720.7338      5.0671     76.9566
   858.7500      0.0000    722.5419      5.0874     78.2735
   859.0000      0.0000    724.4597      5.0871     80.9693
   859.2500      0.0000    725.7448      5.0474     84.3341
   859.5000      0.0000    726.3399      5.0168     87.5022
   859.7500      0.0000    726.5553      5.0391     89.6586
   860.0000      0.0000    726.6661      5.0826     90.7162
   860.2500      0.0000    726.6791      5.0780     91.4486
   860.5000      0.0000    726.1906      5.0155     92.7090
   860.7500      0.0000    724.3607      4.9617     94.8842
   861.0000      0.0000    720.2884      4.9647     98.1890
   861.2500      0.0000    713.8199      4.9830    102.7741
   861.5000      0.0000    706.0907      4.9447    107.9350
   861.7500      0.0000    698.9869      4.8548    111.6133
   862.0000      0.0000    693.8950      4.7915    111.5797
   862.2500      0.0000    691.0274      4.7941    107.3824
   862.5000      0.0000    689.8820      4.8023    100.6643
   862.7500      0.0000    690.1345      4.7324     93.5235
   863.0000      0.0000    692.0396      4.5770     87.1437
   863.2500      0.0000    696.0375      4.3976     81.9405
   863.5000      0.0000    702.1111      4.2500     78.0582
   863.7500      0.0000    709.9037      4.1579     75.3948
   864.0000      0.0000    719.6502      4.1375     73.7500
