~Version Information
VERS.                      2.0: CWLS Log ASCII Standard - VERSION 2.0
WRAP.                       NO: One line per depth step
~Well Information Block
STRT.FT                 0.5000: 
STOP.FT              1575.0000: 
STEP.FT                 0.2500: 
NULL.                -999.2500: 
COMP.          Evergreen Operating Corporation: COMPANY
WELL.                Eric 42-9: WELL
FLD.           Purgatorie River: FIELD
LOC.           2050' FNL & 850' FEL: LOCATION
PROV.                 Colorado: PROVINCE
CNTY.               Las Animas: COUNTRY
SRVC.                         : SERVICE COMPANY
DATE.          Tue Nov 09 16:28:59 2004: LOG DATE
UWI.           05 071 07999 00: UNIQUE WELL ID
~Curve Information Block
DEPT.FT            0 000 00 00: Depth
LTEN.lb                       : Surface Line Tension
TT3.usec                      : CBL 3' Travel Time
AMP3.mV                       : CBL 3' Amplitude
ATT3.db/ft                    : CBL 3' Attenuation
GR.GAPI                       : Gamma Ray
CCL.                          : Casing Collar Locator
~Parameter Information Block
~A  Depth       LTEN        TT3         AMP3        ATT3         GR         CCL     
# ...
   216.5000    410.0672    819.8270      7.3362     -7.4092     65.8728      0.0000
   216.7500    405.5344    831.8317      7.4900     -7.3491     67.5540      0.0000
   217.0000    402.0174    851.2785      7.7057     -7.2670     67.0757      0.0000
   217.2500    400.4747    877.8938      7.9505     -7.1764     64.7704      0.0000
   217.5000    401.2061    909.1790      8.1694     -7.0978     61.9142      0.0000
   217.7500    404.0362    940.6557      8.3267     -7.0425     59.9174      0.0000
   218.0000    408.1365    966.8539      8.4349     -7.0052     59.2930      0.0000
   218.2500    411.8887    983.5695      8.5217     -6.9755     59.5470      0.0000
   218.5000    413.7894    989.4351      8.5756     -6.9573     59.9337      0.0000
   218.7500    413.7906    984.7899      8.5483     -6.9665     60.0449      0.0000
   219.0000    413.3269    970.6269      8.4196     -7.0104     59.8605      0.0000
   219.2500    413.8417    950.1485      8.2333     -7.0752     59.5686      0.0000
   219.5000    415.4862    929.3393      8.0502     -7.1403     59.3534      0.0000
   219.7500    417.2890    913.6919      7.8813     -7.2017     59.3694      0.0000
   220.0000    418.3977    904.8423      7.6898     -7.2729     59.9228      0.0000
   220.2500    418.9126    901.0003      7.4545     -7.3629     61.2890      0.0000
   220.5000    419.4037    899.6252      7.2061     -7.4610     63.1068      0.0000
   220.7500    419.8786    899.1381      6.9955     -7.5469     64.3381      0.0000
   221.0000    419.6680    898.9912      6.8495     -7.6080     64.1475      0.0000
   221.2500    418.4347    899.1253      6.7643     -7.6442     62.5787      0.0000
   221.5000    417.0398    899.5414      6.7283     -7.6597     60.2622      0.0000
   221.7500    417.0333    900.1461      6.7377     -7.6556     57.8216      0.0000
   222.0000    419.0692    900.7889      6.7977     -7.6300     55.7269      0.0000
   222.2500    421.8861    901.3598      6.9111     -7.5820     54.3728      0.0000
   222.5000    423.1504    901.9131      7.0577     -7.5213     54.0380      0.0000
   222.7500    421.6493    902.7988      7.1817     -7.4709     54.7359      0.0000
   223.0000    418.5147    904.7545      7.2183     -7.4561     56.1149      0.0000
   223.2500    416.0517    908.5867      7.1475     -7.4847     57.6248      0.0000
   223.5000    415.5847    914.1357      7.0148     -7.5389     58.9066      0.0000
   223.7500    416.7719    919.3234      6.8862     -7.5925     59.9729      0.0000
   224.0000    418.7443    921.0272      6.7932     -7.6319     61.0198      0.0000
   224.2500    421.2884    917.6954      6.7304     -7.6588     62.1863      0.0000
   224.5000    424.6172    910.6425      6.6868     -7.6776     63.5261      0.0000
   224.7500    428.2549    902.1208      6.6618     -7.6884     65.0852      0.0000
   225.0000    430.8859    892.7875      6.6562     -7.6909     66.8614      0.0000
   225.2500    431.6219    882.1432      6.6630     -7.6879     68.5908      0.0000
   225.5000    430.8185    871.4491      6.6727     -7.6837     69.6772      0.0000
   225.7500    429.2769    865.1184      6.6869     -7.6775     69.6721      0.0000
   226.0000    427.4273    868.2001      6.7220     -7.6624     69.0392      0.0000
   226.2500    425.6681    882.4382      6.7901     -7.6332     69.1372      0.0000
   226.5000    424.6360    905.0687      6.8696     -7.5995     71.1083      0.0000
   226.7500    424.5189    930.5375      6.9077     -7.5835     74.8981      0.0000
   227.0000    424.6274    952.7921      6.8681     -7.6001     79.5896      0.0000
   227.2500    424.1581    967.6887      6.7714     -7.6412     84.3393      0.0000
   227.5000    423.0749    975.2347      6.6768     -7.6819     88.4776      0.0000
   227.7500    422.0006    978.9310      6.6314     -7.7017     91.1111      0.0000
   228.0000    421.5054    981.4868      6.6440     -7.6962     91.6082      0.0000
   228.2500    421.5999    981.4669      6.6944     -7.6743     90.5873      0.0000
   228.5000    421.8358    975.0097      6.7498     -7.6504     89.6230      0.0000
   228.7500    421.9764    960.5435      6.7792     -7.6379     89.6183      0.0000
   229.0000    422.3956    941.1672      6.7719     -7.6410     89.8810      0.0000
   229.2500    423.5297    922.3776      6.7557     -7.6479     89.0152      0.0000
   229.5000    425.3097    907.6998      6.7884     -7.6339     86.3351      0.0000
   229.7500    427.5130    896.2077      6.9145     -7.5806     82.1803      0.0000
   230.0000    430.0764    883.4501      7.1223     -7.4949     77.3068      0.0000
   230.2500    432.4837    864.6422      7.3503     -7.4037     72.4966      0.0000
   230.5000    433.4739    838.2353      7.5432     -7.3287     68.5637      0.0000
   230.7500    432.0807    807.5365      7.6861     -7.2743     66.1739      0.0000
   231.0000    428.7443    778.9193      7.7803     -7.2391     65.5068      0.0000
   231.2500    424.9959    758.3059      7.8150     -7.2262     66.2241      0.0000
   231.5000    422.2509    748.9936      7.7938     -7.2341     67.7380      0.0000
   231.7500    421.0355    751.1724      7.7634     -7.2454     69.4865      0.0000
   232.0000    421.0034    761.8613      7.7760     -7.2407     71.0642      0.0000
   232.2500    421.4108    775.7146      7.8258     -7.2222     72.1625      0.0000
   232.5000    421.7070    787.2922      7.8483     -7.2139     72.5009      0.0000
   232.7500    421.8662    793.0549      7.7850     -7.2373     72.1123      0.0000
   233.0000    422.3442    791.4388      7.6410     -7.2914     71.7396      0.0000
   233.2500    423.7807    782.2311      7.4806     -7.3528     72.6024      0.0000
   233.5000    426.6361    767.1773      7.3665     -7.3973     75.3924      0.0000
   233.7500    430.9014    750.9806      7.2999     -7.4236     79.4179      0.0000
   234.0000    435.9113    740.1777      7.2299     -7.4515     82.8579      0.0000
   234.2500    440.2267    739.5513      7.1169     -7.4971     83.9934      0.0000
   234.5000    441.9015    748.7826      6.9740     -7.5558     82.2867      0.0000
   234.7500    439.6285    762.1089      6.8451     -7.6098     78.4240      0.0000
   235.0000    434.1279    771.4249      6.7627     -7.6449     73.5894      0.0000
   235.2500    427.9774    770.8690      6.7332     -7.6576     68.8791      0.0000
   235.5000    423.6661    759.9683      6.7499     -7.6504     65.1433      0.0000
   235.7500    422.0437    743.4360      6.8031     -7.6276     62.9316      0.0000
   236.0000    422.4781    728.0236      6.8786     -7.5957     62.4575      0.0000
   236.2500    423.8797    719.0317      6.9591     -7.5620     63.6524      0.0000
   236.5000    425.4796    718.9508      7.0425     -7.5275     66.1606      0.0000
   236.7500    426.9633    727.7817      7.1610     -7.4792     69.2833      0.0000
   237.0000    428.1209    743.0048      7.3680     -7.3967     72.1071      0.0000
   237.2500    428.7016    759.2723      7.6830     -7.2755     73.8465      0.0000
   237.5000    428.8660    769.9360      8.0434     -7.1428     74.3161      0.0000
   237.7500    429.3895    770.6484      8.3258     -7.0429     74.2644      0.0000
   238.0000    430.7991    762.4916      8.4238     -7.0090     74.9522      0.0000
   238.2500    432.3371    751.9065      8.3117     -7.0478     77.0626      0.0000
   238.5000    432.3370    747.1563      8.0456     -7.1420     80.1986      0.0000
   238.7500    429.9248    753.7604      7.7177     -7.2625     83.5329      0.0000
   239.0000    426.2514    772.0380      7.4094     -7.3805     86.6606      0.0000
   239.2500    423.7395    797.3710      7.1802     -7.4715     89.7465      0.0000
   239.5000    423.9333    822.3587      7.0751     -7.5142     93.1303      0.0000
   239.7500    426.2499    841.2365      7.1081     -7.5007     96.8825      0.0000
   240.0000    428.9268    854.7527      7.2293     -7.4517    100.6062      0.0000
   240.2500    430.8398    869.6338      7.3352     -7.4096    103.6595      0.0000
