~Version Information
VERS.                      2.0: CWLS Log ASCII Standard - VERSION 2.0
WRAP.                       NO: One line per depth step
~Well Information Block
STRT.FT               898.0000: 
STOP.FT              2359.2000: 
STEP.FT                 0.1000: 
NULL.                -999.2500: 
COMP.          Pioneer Natural Resources: COMPANY
WELL.             Trimax 44-23: WELL
FLD.           Purgatoire River: FIELD
LOC.           527' FSL & 1064' FEL: LOCATION
PROV.                 Colorado: PROVINCE
CNTY.               Las Animas: COUNTRY
SRVC.                Patterson: SERVICE COMPANY
DATE.          Mon Mar 14 07:28:19 2005: LOG DATE
UWI.           05 071 08326 00: UNIQUE WELL ID
~Curve Information Block
DEPT.FT            0 000 00 00: Depth
DCAL.in                       : CDL Caliper
RHOB.g/cc                     : CDL Bulk Density
RHOC.g/cc                     : CDL Density Correction
DPOR.pu                       : CDL Density Porosity
GR.GAPI                       : Gamma Ray
NPOR.pu                       : Neutron Porosity
~Parameter Information Block
~A  Depth       DCAL        RHOB        RHOC        DPOR         GR         NPOR    
# ...
  1474.0000      7.9000      2.3877      0.0196     15.8959     49.2199     15.7349
  1474.1000      7.9000      2.4103      0.0626     14.5277     48.1567     15.1113
  1474.2000      7.9000      2.4327      0.0664     13.1667     44.4646     14.8557
  1474.3000      7.9026      2.4463      0.0668     12.3446     42.1304     15.2984
  1474.4000      7.9026      2.4514      0.0645     12.0351     42.0638     15.8872
  1474.5000      7.9056      2.4510      0.0868     12.0613     43.5308     15.7438
  1474.6000      7.9056      2.4497      0.0376     12.1411     46.1346     15.1031
  1474.7000      7.9056      2.4510      0.0971     12.0603     49.8623     14.7053
  1474.8000      7.9059      2.4475      0.0759     12.2747     52.2147     14.6236
  1474.9000      7.9059      2.4362      0.0776     12.9593     50.5681     14.7483
  1475.0000      7.9064      2.4236      0.0992     13.7197     46.1706     14.8957
  1475.1000      7.9064      2.4175      0.0682     14.0899     43.5176     15.0937
  1475.2000      7.9064      2.4210      0.0441     13.8793     45.1501     15.3907
  1475.3000      7.9073      2.4249      0.0684     13.6451     49.4060     15.4355
  1475.4000      7.9073      2.4238      0.0341     13.7074     52.6189     15.3097
  1475.5000      7.9077      2.4313      0.0327     13.2572     52.7219     15.2934
  1475.6000      7.9077      2.4525      0.0499     11.9678     50.3908     15.1776
  1475.7000      7.9077      2.4715      0.0735     10.8168     47.4141     14.9619
  1475.8000      7.9074      2.4777      0.0776     10.4411     46.4505     14.8181
  1475.9000      7.9074      2.4752      0.0715     10.5924     47.1562     14.5206
  1476.0000      7.9071      2.4707      0.0385     10.8686     46.2314     14.2257
  1476.1000      7.9071      2.4658      0.0710     11.1610     44.0601     14.2236
  1476.2000      7.9071      2.4581      0.0336     11.6305     44.0167     14.2757
  1476.3000      7.9072      2.4472      0.0464     12.2883     46.5422     14.3438
  1476.4000      7.9072      2.4365      0.0020     12.9390     48.1943     14.8739
  1476.5000      7.9075      2.4334      0.0268     13.1249     45.8868     15.9743
  1476.6000      7.9075      2.4378      0.0214     12.8625     42.0125     16.7549
  1476.7000      7.9075      2.4362      0.0367     12.9602     40.3916     16.5087
  1476.8000      7.9079      2.4226      0.0512     13.7796     41.3415     15.8506
  1476.9000      7.9079      2.4117      0.0248     14.4415     43.5064     15.3511
  1477.0000      7.9081      2.4183      0.0085     14.0424     44.0171     15.3274
  1477.1000      7.9081      2.4317      0.0675     13.2281     42.7987     15.9583
  1477.2000      7.9081      2.4289      0.0519     13.3980     43.3247     16.6730
  1477.3000      7.9075      2.4129     -0.0084     14.3727     45.8803     16.9195
  1477.4000      7.9075      2.4033      0.0422     14.9493     47.2738     16.6738
  1477.5000      7.9067      2.4022      0.0625     15.0167     46.4457     16.0827
  1477.6000      7.9067      2.4019      0.0143     15.0391     45.3151     15.4919
  1477.7000      7.9067      2.4059      0.0185     14.7911     45.6640     15.2038
  1477.8000      7.9076      2.4206      0.0481     13.9057     48.1796     15.3740
  1477.9000      7.9076      2.4388      0.0477     12.8015     50.8678     15.9702
  1478.0000      7.9094      2.4450      0.0715     12.4232     51.2726     16.3607
  1478.1000      7.9094      2.4324      0.0534     13.1880     50.6977     16.1085
  1478.2000      7.9094      2.4190      0.0049     14.0021     50.8792     15.6786
  1478.3000      7.9083      2.4315     -0.0057     13.2437     51.7179     15.7798
  1478.4000      7.9083      2.4613      0.0836     11.4380     53.1846     16.3350
  1478.5000      7.8951      2.4710      0.0976     10.8482     54.9018     16.5912
  1478.6000      7.8951      2.4582     -0.0079     11.6257     56.2260     16.3762
  1478.7000      7.8951      2.4513      0.0204     12.0404     61.0893     16.3770
  1478.8000      7.8705      2.4546      0.0577     11.8397     70.0338     16.9764
  1478.9000      7.8705      2.4581      0.0350     11.6305     75.6165     17.6781
  1479.0000      7.8542      2.4590      0.0355     11.5782     74.9210     17.6282
  1479.1000      7.8542      2.4562      0.0348     11.7424     70.5602     16.8676
  1479.2000      7.8542      2.4538      0.0490     11.8885     65.6413     16.5303
  1479.3000      7.8496      2.4566      0.0569     11.7186     63.0540     16.8875
  1479.4000      7.8496      2.4586      0.0915     11.6022     62.7155     17.3077
  1479.5000      7.8494      2.4498      0.0760     12.1326     63.9974     17.5498
  1479.6000      7.8494      2.4345      0.0820     13.0605     64.7924     17.7890
  1479.7000      7.8494      2.4251      0.0640     13.6305     61.7181     18.4885
  1479.8000      7.8501      2.4257      0.0824     13.5934     58.3778     19.6056
  1479.9000      7.8501      2.4300      0.0740     13.3310     60.4822     20.1883
  1480.0000      7.8509      2.4353      0.0540     13.0137     65.3948     19.8262
  1480.1000      7.8509      2.4440      0.0700     12.4846     66.0156     19.0336
  1480.2000      7.8509      2.4523      0.0801     11.9844     63.0120     18.4353
  1480.3000      7.8513      2.4529      0.0773     11.9437     63.1262     18.2405
  1480.4000      7.8513      2.4510      0.0356     12.0619     66.4302     18.1880
  1480.5000      7.8510      2.4531      0.1274     11.9306     67.4369     18.1293
  1480.6000      7.8510      2.4538      0.0925     11.8921     63.4035     18.0835
  1480.7000      7.8510      2.4528      0.0680     11.9519     58.2735     17.7277
  1480.8000      7.8509      2.4534      0.0920     11.9166     57.2134     16.6931
  1480.9000      7.8509      2.4539      0.0652     11.8869     60.0666     15.4279
  1481.0000      7.8512      2.4580      0.0547     11.6388     63.8738     14.9218
  1481.1000      7.8512      2.4618      0.0853     11.4053     65.3054     15.2964
  1481.2000      7.8512      2.4545      0.0698     11.8492     63.3541     16.0789
  1481.3000      7.8513      2.4475      0.0208     12.2753     61.1414     17.0112
  1481.4000      7.8513      2.4569      0.0706     11.7019     60.9616     17.4512
  1481.5000      7.8511      2.4699      0.1007     10.9165     62.6456     16.9417
  1481.6000      7.8511      2.4702      0.0635     10.8942     64.8589     16.2406
  1481.7000      7.8511      2.4672      0.0402     11.0763     64.6754     16.1089
  1481.8000      7.8496      2.4714      0.0707     10.8245     61.6828     16.6671
  1481.9000      7.8496      2.4772      0.0801     10.4730     58.8188     17.6853
  1482.0000      7.8431      2.4842      0.0562     10.0512     56.4344     18.4491
  1482.1000      7.8431      2.4928      0.0961      9.5282     54.7713     18.7699
  1482.2000      7.8431      2.4898      0.1232      9.7087     57.8584     19.1470
  1482.3000      7.8325      2.4741      0.0441     10.6616     63.9952     19.2461
  1482.4000      7.8325      2.4675      0.0678     11.0599     66.1644     18.6311
  1482.5000      7.8259      2.4782      0.1010     10.4118     62.4228     17.7046
  1482.6000      7.8259      2.4892      0.1106      9.7475     56.7927     17.1032
  1482.7000      7.8259      2.4822      0.0831     10.1695     53.8777     17.5439
  1482.8000      7.8246      2.4564      0.0534     11.7314     54.4811     18.5983
  1482.9000      7.8246      2.4274      0.0492     13.4919     55.6153     18.8359
  1483.0000      7.8243      2.4035      0.0058     14.9397     54.1344     17.8625
  1483.1000      7.8243      2.3810      0.0241     16.3006     51.0608     16.4764
  1483.2000      7.8243      2.3665     -0.0312     17.1842     50.3487     15.5630
  1483.3000      7.8234      2.3784     -0.0334     16.4625     53.0877     15.5763
  1483.4000      7.8234      2.4157      0.0436     14.2011     57.5874     16.4885
  1483.5000      7.8217      2.4587      0.0372     11.5962     61.6089     17.8050
