~Version Information
VERS.                      2.0: CWLS Log ASCII Standard - VERSION 2.0
WRAP.                       NO: One line per depth step
~Well Information Block
STRT.FT                -7.7500: 
STOP.FT              2394.2500: 
STEP.FT                 0.2500: 
NULL.                -999.2500: 
COMP.      PIONEER NATURAL RESOURCES  : COMPANY
WELL.         NOMAD 32-10  : WELL
FLD.                          : FIELD
LOC.      SWNE 10 32S 66W 6PM : LOCATION
PROV.                         : PROVINCE
CNTY.                         : COUNTRY
SRVC.                         : SERVICE COMPANY
DATE.          Thu Aug 26 13:45:47 2004: LOG DATE
UWI.      005 071 08127  : UNIQUE WELL ID
~Curve Information Block
DEPT.FT            0 000 00 00: Depth
CCL.                          : Casing Collar Locator
TT3.usec                      : CBL 3' Travel Time
AMP3.mV                       : CBL 3' Amplitude
GR.GAPI                       : Gamma Ray
~Parameter Information Block
~A  Depth       CCL         TT3         AMP3         GR     
# ...
  1734.2500      0.0000    685.4322      1.8477    174.7232
  1734.5000      0.0000    689.7648      1.8890    169.6382
  1734.7500      0.0000    698.4848      2.0085    163.9838
  1735.0000      0.0000    710.0695      2.1381    157.1706
  1735.2500      0.0000    720.0297      2.2249    149.5894
  1735.5000      0.0000    723.9705      2.2781    143.3163
  1735.7500      0.0000    720.9058      2.3538    140.4098
  1736.0000      0.0000    713.6168      2.4786    141.4801
  1736.2500      0.0000    705.7512      2.6042    145.9908
  1736.5000      0.0000    699.0630      2.6533    152.4711
  1736.7500      0.0000    693.4777      2.6002    158.0905
  1737.0000      0.0000    688.8432      2.4877    159.6266
  1737.2500      0.0000    685.8438      2.3736    155.7225
  1737.5000      0.0000    685.3982      2.2809    147.5168
  1737.7500      0.0000    687.8667      2.2005    137.0481
  1738.0000      0.0000    692.9887      2.1168    126.0068
  1738.2500      0.0000    699.8641      2.0215    115.8301
  1738.5000      0.0000    706.6090      1.9216    107.6110
  1738.7500      0.0000    710.7463      1.8491    101.4754
  1739.0000      0.0000    710.6590      1.8440     96.8747
  1739.2500      0.0000    706.2480      1.9169     93.8937
  1739.5000      0.0000    697.9271      2.0347     93.8090
  1739.7500      0.0000    685.7585      2.1469     97.9678
  1740.0000      0.0000    669.9911      2.2288    106.0910
  1740.2500      0.0000    651.0873      2.3053    115.9852
  1740.5000      0.0000    627.9623      2.4256    125.2575
  1740.7500      0.0000    597.5025      2.5951    132.9205
  1741.0000      0.0000    558.2292      2.7403    138.8845
  1741.2500      0.0000    514.5866      2.7681    142.5578
  1741.5000      0.0000    475.8540      2.6701    143.0618
  1741.7500      0.0000    450.4613      2.5483    140.8134
  1742.0000      0.0000    442.2697      2.5240    137.9971
  1742.2500      0.0000    451.6018      2.6211    137.0244
  1742.5000      0.0000    477.3113      2.7559    138.8010
  1742.7500      0.0000    516.2383      2.8394    142.5785
  1743.0000      0.0000    561.5308      2.8652    146.9953
  1743.2500      0.0000    603.8894      2.8809    150.7557
  1743.5000      0.0000    636.2231      2.8960    152.5779
  1743.7500      0.0000    657.0566      2.8521    151.4246
  1744.0000      0.0000    669.2794      2.6923    147.4881
  1744.2500      0.0000    676.2544      2.4351    142.7805
  1744.5000      0.0000    679.6208      2.1643    140.0789
  1744.7500      0.0000    680.1893      1.9612    140.8589
  1745.0000      0.0000    679.7474      1.8634    144.1016
  1745.2500      0.0000    681.1315      1.8731    146.9780
  1745.5000      0.0000    686.4807      1.9695    146.6590
  1745.7500      0.0000    695.9559      2.1065    141.6156
  1746.0000      0.0000    708.0605      2.2261    131.8971
  1746.2500      0.0000    720.0897      2.2851    119.1089
  1746.5000      0.0000    728.0354      2.2631    106.2045
  1746.7500      0.0000    727.8377      2.1588     96.4769
  1747.0000      0.0000    718.3981      2.0087     92.1307
  1747.2500      0.0000    703.1348      1.9054     93.6304
  1747.5000      0.0000    687.8464      1.9545    100.2668
  1747.7500      0.0000    676.9516      2.1835    111.1205
  1748.0000      0.0000    671.5162      2.5091    125.2253
  1748.2500      0.0000    669.7901      2.8029    140.4709
  1748.5000      0.0000    668.5529      2.9781    152.4880
  1748.7500      0.0000    664.0437      3.0157    155.8012
  1749.0000      0.0000    652.7468      2.9520    147.6200
  1749.2500      0.0000    632.6234      2.8674    130.8985
  1749.5000      0.0000    604.1713      2.8626    112.9333
  1749.7500      0.0000    570.2419      2.9960    100.5271
  1750.0000      0.0000    534.4572      3.2297     96.4155
  1750.2500      0.0000    499.7165      3.4500     99.4076
  1750.5000      0.0000    468.4589      3.5546    106.4887
  1750.7500      0.0000    443.5666      3.5227    114.5614
  1751.0000      0.0000    427.4139      3.4098    121.5100
  1751.2500      0.0000    419.9427      3.2921    126.7701
  1751.5000      0.0000    418.6332      3.2123    130.9464
  1751.7500      0.0000    420.3222      3.1601    134.5694
  1752.0000      0.0000    422.7044      3.1018    137.3045
  1752.2500      0.0000    424.6008      3.0318    138.6354
  1752.5000      0.0000    425.5898      2.9786    138.9682
  1752.7500      0.0000    425.6647      2.9555    139.2915
  1753.0000      0.0000    425.2635      2.9340    139.8768
  1753.2500      0.0000    425.9073      2.8890    140.1399
  1753.5000      0.0000    431.2016      2.8472    139.7121
  1753.7500      0.0000    446.9687      2.8587    138.6246
  1754.0000      0.0000    478.5787      2.9294    136.2488
  1754.2500      0.0000    525.6370      3.0135    130.9662
  1754.5000      0.0000    578.6916      3.0668    121.5199
  1754.7500      0.0000    622.5877      3.0825    108.5261
  1755.0000      0.0000    644.3947      3.0773     94.4281
  1755.2500      0.0000    639.8217      3.0647     82.0165
  1755.5000      0.0000    615.2783      3.0431     72.8829
  1755.7500      0.0000    585.0641      3.0028     66.9816
  1756.0000      0.0000    563.3881      2.9444     63.5166
  1756.2500      0.0000    555.7194      2.8844     61.9937
  1756.5000      0.0000    557.5283      2.8397     62.2037
  1756.7500      0.0000    561.5151      2.8165     63.7760
  1757.0000      0.0000    565.2554      2.8256     66.4937
  1757.2500      0.0000    572.1390      2.8900     70.6609
  1757.5000      0.0000    586.2461      3.0151     76.4560
  1757.7500      0.0000    606.7006      3.1602     83.2322
  1758.0000      0.0000    626.5656      3.2596     89.9817
  1758.2500      0.0000    637.6409      3.2716     96.0406
  1758.5000      0.0000    637.3970      3.2070    100.9682
  1758.7500      0.0000    631.5115      3.1199    104.2759
  1759.0000      0.0000    628.9664      3.0802    105.7454
  1759.2500      0.0000    633.7953      3.1398    105.6468
  1759.5000      0.0000    641.7121      3.3014    104.4596
  1759.7500      0.0000    644.9669      3.5081    102.9066
  1760.0000      0.0000    639.4455      3.6691    102.4478
  1760.2500      0.0000    626.8083      3.7177    104.9202
  1760.5000      0.0000    611.8625      3.6582    110.9359
  1760.7500      0.0000    599.4363      3.5603    118.8282
  1761.0000      0.0000    592.6979      3.5036    125.8008
  1761.2500      0.0000    592.2473      3.5121    130.3387
  1761.5000      0.0000    595.3856      3.5277    133.3372
  1761.7500      0.0000    596.5568      3.4560    136.7808
  1762.0000      0.0000    591.0656      3.2509    141.5837
  1762.2500      0.0000    581.1142      2.9702    146.9669
  1762.5000      0.0000    576.9701      2.7483    151.5400
  1762.7500      0.0000    588.5295      2.6950    154.2105
  1763.0000      0.0000    615.2225      2.8051    154.0552
  1763.2500      0.0000    646.2711      2.9612    150.3313
  1763.5000      0.0000    670.3167      3.0325    143.5938
  1763.7500      0.0000    682.8682      2.9765    136.7063
  1764.0000      0.0000    685.8434      2.8568    133.8721
  1764.2500      0.0000    683.3771      2.7714    137.8210
  1764.5000      0.0000    679.0834      2.7650    147.5314
  1764.7500      0.0000    675.4932      2.8035    158.7772
  1765.0000      0.0000    674.1619      2.8283    167.1717
  1765.2500      0.0000    675.6757      2.8253    170.7246
  1765.5000      0.0000    679.6198      2.8339    169.6694
  1765.7500      0.0000    684.5495      2.8948    164.9551
  1766.0000      0.0000    688.4482      2.9916    157.8212
  1766.2500      0.0000    690.0117      3.0470    150.0907
  1766.5000      0.0000    689.7863      2.9827    143.5292
  1766.7500      0.0000    689.7679      2.7948    138.8270
  1767.0000      0.0000    691.9987      2.5762    135.6665
  1767.2500      0.0000    697.8323      2.4632    133.5278
  1767.5000      0.0000    707.9302      2.5440    132.2417
