~Version Information
VERS.                      2.0: CWLS Log ASCII Standard - VERSION 2.0
WRAP.                       NO: One line per depth step
~Well Information Block
STRT.FT                -8.2500: 
STOP.FT              1795.0000: 
STEP.FT                 0.2500: 
NULL.                -999.2500: 
COMP.          Petrogulf Corporation: COMPANY
WELL.           Montoya 7-21 R: WELL
FLD.           Purgatoire River: FIELD
LOC.           445' FNL & 1942' FWL----: LOCATION
PROV.                 Colorado: PROVINCE
CNTY.               Las Animas: COUNTRY
SRVC.                         : SERVICE COMPANY
DATE.          Fri Sep 30 15:33:54 2005: LOG DATE
UWI.                          : UNIQUE WELL ID
~Curve Information Block
DEPT.FT            0 000 00 00: Depth
GR.GAPI                       : Gamma Ray
CCL.                          : Casing Collar Locator
TT3.usec                      : CBL 3' Travel Time
AMP3.mV                       : CBL 3' Amplitude
~Parameter Information Block
~A  Depth        GR         CCL         TT3         AMP3    
# ...
  1164.2500    119.3721      0.0000    281.8098     44.2385
  1164.5000    131.2787      0.0000    279.1022     48.9288
  1164.7500    141.9033      0.0000    276.4013     52.9835
  1165.0000    150.0995      0.0000    272.5075     56.5107
  1165.2500    155.4238      0.0000    267.0771     59.5682
  1165.5000    157.8884      0.0000    260.9865     62.0187
  1165.7500    157.6987      0.0000    255.8221     63.6026
  1166.0000    155.5165      0.0000    252.9556     64.1106
  1166.2500    152.7555      0.0000    253.0477     63.4793
  1166.5000    151.1438      0.0000    256.0937     61.7650
  1166.7500    151.6365      0.0000    261.4429     59.0805
  1167.0000    153.6156      0.0000    267.8325     55.5367
  1167.2500    155.1946      0.0000    274.0168     51.1891
  1167.5000    154.5563      0.0000    280.0645     46.0606
  1167.7500    151.2038      0.0000    288.6846     40.2716
  1168.0000    145.8348      0.0000    306.0532     34.1561
  1168.2500    138.9733      0.0000    341.3540     28.2146
  1168.5000    130.1592      0.0000    402.9696     22.9243
  1168.7500    118.8611      0.0000    491.0686     18.5687
  1169.0000    105.7507      0.0000    592.4594     15.1938
  1169.2500     92.4109      0.0000    685.7211     12.6731
  1169.5000     80.0221      0.0000    754.6445     10.8030
  1169.7500     68.9831      0.0000    797.1341      9.3826
  1170.0000     59.5208      0.0000    821.4647      8.2646
  1170.2500     51.9856      0.0000    835.8769      7.3765
  1170.5000     46.6917      0.0000    842.3104      6.7013
  1170.7500     43.8995      0.0000    838.1429      6.2286
  1171.0000     43.6559      0.0000    821.9597      5.9225
  1171.2500     45.2925      0.0000    797.5026      5.7332
  1171.5000     47.4203      0.0000    772.5197      5.6258
  1171.7500     48.7986      0.0000    753.7560      5.5831
  1172.0000     48.9805      0.0000    743.0769      5.5883
  1172.2500     47.9787      0.0000    738.0670      5.6174
  1172.5000     45.7457      0.0000    735.0646      5.6470
  1172.7500     42.2989      0.0000    731.6736      5.6613
  1173.0000     38.1792      0.0000    728.0757      5.6488
  1173.2500     34.4669      0.0000    726.3790      5.5981
  1173.5000     32.1821      0.0000    727.5985      5.5048
  1173.7500     31.6066      0.0000    730.4372      5.3767
  1174.0000     32.2001      0.0000    735.0601      5.2265
  1174.2500     33.1859      0.0000    746.0551      5.0589
  1174.5000     34.1570      0.0000    767.8978      4.8693
  1174.7500     35.1157      0.0000    797.9553      4.6549
  1175.0000     36.0545      0.0000    826.8477      4.4263
  1175.2500     36.6914      0.0000    845.4634      4.2111
  1175.5000     36.7882      0.0000    850.1045      4.0392
  1175.7500     36.7239      0.0000    842.4742      3.9227
  1176.0000     37.4729      0.0000    827.8796      3.8534
  1176.2500     39.6963      0.0000    813.6339      3.8200
  1176.5000     42.8326      0.0000    806.6022      3.8242
  1176.7500     45.4362      0.0000    810.1276      3.8879
  1177.0000     46.6607      0.0000    821.9930      4.0617
  1177.2500     47.1949      0.0000    834.5433      4.4296
  1177.5000     48.5752      0.0000    836.4582      5.0927
  1177.7500     51.9310      0.0000    815.1693      6.1466
  1178.0000     57.6783      0.0000    760.8309      7.6801
  1178.2500     65.9913      0.0000    673.2637      9.7824
  1178.5000     76.8869      0.0000    567.0112     12.5131
  1178.7500     89.6616      0.0000    465.9344     15.8404
  1179.0000    102.5706      0.0000    389.0739     19.6350
  1179.2500    113.5656      0.0000    341.0487     23.7847
  1179.5000    121.5663      0.0000    314.7580     28.3519
  1179.7500    126.8599      0.0000    300.1035     33.5612
  1180.0000    130.3535      0.0000    289.8476     39.5080
  1180.2500    132.9821      0.0000    280.6374     45.8155
  1180.5000    135.7777      0.0000    271.8236     51.6395
  1180.7500    139.6494      0.0000    264.1860     56.1054
  1181.0000    144.6539      0.0000    258.9694     58.8018
  1181.2500    149.6749      0.0000    257.1281     59.9098
  1181.5000    152.8241      0.0000    258.7785     59.9491
  1181.7500    152.3275      0.0000    262.9554     59.4621
  1182.0000    147.7243      0.0000    267.7061     58.9060
  1182.2500    140.5689      0.0000    270.7470     58.6719
  1182.5000    133.8141      0.0000    270.6249     58.9863
  1182.7500    130.3036      0.0000    267.7130     59.6970
  1183.0000    131.2979      0.0000    264.1654     60.2522
  1183.2500    135.6405      0.0000    262.5851     60.0175
  1183.5000    140.4132      0.0000    264.2423     58.6485
  1183.7500    143.3154      0.0000    268.3301     56.1670
  1184.0000    144.6180      0.0000    272.9360     52.7506
  1184.2500    146.1481      0.0000    276.7214     48.5205
  1184.5000    148.2732      0.0000    279.8156     43.5488
  1184.7500    148.9097      0.0000    283.4942     38.0441
  1185.0000    146.0197      0.0000    289.2154     32.4592
  1185.2500    140.0624      0.0000    297.7103     27.3388
  1185.5000    133.0928      0.0000    308.6244     23.0495
  1185.7500    126.5037      0.0000    320.7699     19.6788
  1186.0000    120.8162      0.0000    332.3994     17.1620
  1186.2500    116.6430      0.0000    341.2567     15.4464
  1186.5000    114.3095      0.0000    345.1798     14.5247
  1186.7500    112.9251      0.0000    343.4897     14.3719
  1187.0000    111.1831      0.0000    337.6931     14.9149
  1187.2500    109.2467      0.0000    330.2733     16.0902
  1187.5000    108.9870      0.0000    322.7076     17.9227
  1187.7500    111.9461      0.0000    314.8942     20.5196
  1188.0000    117.4013      0.0000    306.3983     23.9694
  1188.2500    122.7202      0.0000    297.7451     28.2548
  1188.5000    125.4450      0.0000    290.1832     33.2652
  1188.7500    124.8966      0.0000    284.3727     38.8347
  1189.0000    122.1451      0.0000    279.6617     44.6883
  1189.2500    119.1774      0.0000    274.7237     50.3673
  1189.5000    118.1797      0.0000    268.8161     55.3243
  1189.7500    120.6955      0.0000    262.4362     59.1914
  1190.0000    126.3835      0.0000    256.8138     61.9764
  1190.2500    132.6425      0.0000    252.8497     64.0055
  1190.5000    136.4029      0.0000    250.5779     65.6754
  1190.7500    136.6175      0.0000    249.4646     67.2068
  1191.0000    134.6283      0.0000    248.9568     68.5471
  1191.2500    132.3232      0.0000    248.7301     69.4699
  1191.5000    130.4545      0.0000    248.6439     69.8130
  1191.7500    128.3838      0.0000    248.6294     69.6833
  1192.0000    124.8672      0.0000    248.6348     69.4493
  1192.2500    119.4542      0.0000    248.6215     69.5079
  1192.5000    113.4264      0.0000    248.5771     70.0214
  1192.7500    108.9443      0.0000    248.5132     70.8369
  1193.0000    107.3408      0.0000    248.4508     71.6299
  1193.2500    108.6431      0.0000    248.4060     72.1292
  1193.5000    112.0337      0.0000    248.3866     72.2507
  1193.7500    115.9273      0.0000    248.3988     72.0770
  1194.0000    118.3377      0.0000    248.4800     71.7301
  1194.2500    118.3680      0.0000    248.7788     71.2226
  1194.5000    117.1259      0.0000    249.6769     70.3524
  1194.7500    116.5567      0.0000    251.8239     68.6938
  1195.0000    117.9080      0.0000    255.8647     65.7370
  1195.2500    121.6534      0.0000    261.8893     61.1645
  1195.5000    127.7027      0.0000    269.2726     55.1006
  1195.7500    134.7952      0.0000    277.4866     48.1265
  1196.0000    140.5305      0.0000    287.2876     41.0329
  1196.2500    143.0126      0.0000    300.5468     34.5106
  1196.5000    142.3444      0.0000    318.0638     28.9712
  1196.7500    140.3224      0.0000    337.6214     24.5197
  1197.0000    138.9187      0.0000    355.4332     21.0145
  1197.2500    139.0297      0.0000    369.7425     18.1994
  1197.5000    140.1977      0.0000    381.2665     15.8782
