~Version Information
VERS.                      2.0: CWLS Log ASCII Standard - VERSION 2.0
WRAP.                       NO: One line per depth step
~Well Information Block
STRT.FT               362.0000: 
STOP.FT               983.0000: 
STEP.FT                 0.1000: 
NULL.                -999.2500: 
COMP.          Pioneer Natural Resources: COMPANY
WELL.             Tomcat 32-10: WELL
FLD.           Purgatoire River: FIELD
LOC.           2286' FNL & 2463' FEL: LOCATION
PROV.                 Colorado: PROVINCE
CNTY.               Las Animas: COUNTRY
SRVC.                Patterson: SERVICE COMPANY
DATE.          Tue Mar 22 11:24:45 2005: LOG DATE
UWI.           05 071 08301 00: UNIQUE WELL ID
~Curve Information Block
DEPT.FT            0 000 00 00: Depth
DCAL.in                       : CDL Caliper
RHOB.g/cc                     : CDL Bulk Density
RHOC.g/cc                     : CDL Density Correction
DPOR.pu                       : CDL Density Porosity
GR.GAPI                       : Gamma Ray
NPOR.pu                       : Neutron Porosity
~Parameter Information Block
~A  Depth       DCAL        RHOB        RHOC        DPOR         GR         NPOR    
# ...
   966.8000      7.8661      2.6327      0.0319      1.0480   -999.2500     21.5940
   966.9000      7.8661      2.6437      0.0699      0.3806   -999.2500     24.2510
   967.0000      7.8585      2.6524      0.1026     -0.1481   -999.2500     28.2281
   967.1000      7.8585      2.6386      0.1131      0.6907   -999.2500     32.6750
   967.2000      7.8585      2.6019      0.0766      2.9156   -999.2500     36.5450
   967.3000      7.8724      2.5619      0.0465      5.3387   -999.2500     39.5343
   967.4000      7.8724      2.5330      0.0517      7.0914   -999.2500     41.8054
   967.5000      7.8577      2.5162      0.0370      8.1083   -999.2500     43.5014
   967.6000      7.8577      2.5139      0.0142      8.2496   -999.2500     44.8638
   967.7000      7.8577      2.5322      0.0646      7.1371   -999.2500     46.1585
   967.8000      7.8748      2.5580      0.1014      5.5764   -999.2500     47.2965
   967.9000      7.8748      2.5678      0.1310      4.9813   -999.2500     48.0560
   968.0000      7.8783      2.5651      0.1071      5.1480   -999.2500     48.4251
   968.1000      7.8783      2.5649      0.1133      5.1550   -999.2500     48.5477
   968.2000      7.8783      2.5567      0.1505      5.6523   -999.2500     48.6599
   968.3000      7.8847      2.5294      0.0780      7.3102   -999.2500     49.2248
   968.4000      7.8847      2.5020      0.0130      8.9680   -999.2500     50.7151
   968.5000      7.8879      2.4878      0.0333      9.8302   -999.2500     52.6606
   968.6000      7.8879      2.4750      0.0744     10.6032   -999.2500     53.9876
   968.7000      7.8879      2.4629      0.0555     11.3386   -999.2500     54.4747
   968.8000      7.9099      2.4654      0.0590     11.1884   -999.2500     54.5712
   968.9000      7.9099      2.4799      0.1294     10.3079   -999.2500     54.5814
   969.0000      7.8737      2.4957      0.1212      9.3514   -999.2500     54.5820
   969.1000      7.8737      2.5220      0.0879      7.7554   -999.2500   -999.2500
   969.2000      7.8737      2.5685      0.1482      4.9404   -999.2500   -999.2500
   969.3000      7.8456      2.6145      0.1998      2.1488   -999.2500   -999.2500
   969.4000      7.8456      2.6373      0.1636      0.7669   -999.2500   -999.2500
   969.5000      7.8301      2.6468      0.1421      0.1917   -999.2500   -999.2500
   969.6000      7.8301      2.6617      0.1389     -0.7108   -999.2500   -999.2500
   969.7000      7.8301      2.6760      0.1444     -1.5731   -999.2500   -999.2500
   969.8000      7.8679      2.6705      0.1222     -1.2443   -999.2500   -999.2500
   969.9000      7.8679      2.6477      0.0971      0.1411   -999.2500   -999.2500
   970.0000      7.8593      2.6225      0.1251      1.6691   -999.2500   -999.2500
   970.1000      7.8593      2.5918      0.0778      3.5275   -999.2500   -999.2500
   970.2000      7.8593      2.5527      0.0497      5.8948   -999.2500   -999.2500
   970.3000      7.8395      2.5162      0.0467      8.1087   -999.2500   -999.2500
   970.4000      7.8395      2.4866      0.0232      9.9055   -999.2500   -999.2500
   970.5000      7.8940      2.4755     -0.0677     10.5777   -999.2500   -999.2500
   970.6000      7.8940      2.5022      0.0166      8.9556   -999.2500   -999.2500
   970.7000      7.8940      2.5509      0.0831      6.0070   -999.2500   -999.2500
   970.8000      7.8931      2.5890      0.0864      3.6944   -999.2500   -999.2500
   970.9000      7.8931      2.6109      0.0658      2.3674   -999.2500   -999.2500
   971.0000      7.8812      2.6153      0.1057      2.1016   -999.2500   -999.2500
   971.1000      7.8812      2.6029     -0.0116      2.8541   -999.2500   -999.2500
   971.2000      7.8812      2.5879      0.0879      3.7629   -999.2500   -999.2500
   971.3000      7.8564      2.5703      0.0565      4.8293   -999.2500   -999.2500
   971.4000      7.8564      2.5524      0.0224      5.9167   -999.2500   -999.2500
   971.5000      7.8800      2.5396      0.0350      6.6901   -999.2500   -999.2500
   971.6000      7.8800      2.5230      0.0361      7.6992   -999.2500   -999.2500
   971.7000      7.8800      2.5077     -0.0179      8.6229   -999.2500   -999.2500
   971.8000      7.8495      2.5082      0.0080      8.5959   -999.2500   -999.2500
   971.9000      7.8495      2.5121      0.0318      8.3596   -999.2500   -999.2500
   972.0000      7.8590      2.5100      0.0134      8.4877   -999.2500   -999.2500
   972.1000      7.8590      2.5170      0.0985      8.0585   -999.2500   -999.2500
   972.2000      7.8590      2.5391      0.0909      6.7198   -999.2500   -999.2500
   972.3000      7.8470      2.5715      0.1256      4.7587   -999.2500   -999.2500
   972.4000      7.8470      2.6037      0.1667      2.8038   -999.2500   -999.2500
   972.5000      7.8424      2.6273      0.1296      1.3774   -999.2500   -999.2500
   972.6000      7.8424      2.6447      0.1549      0.3209   -999.2500   -999.2500
   972.7000      7.8424      2.6490      0.1782      0.0630   -999.2500   -999.2500
   972.8000      7.8052      2.6308      0.1569      1.1614   -999.2500   -999.2500
   972.9000      7.8052      2.6051      0.1088      2.7190   -999.2500   -999.2500
   973.0000      7.8165      2.5912      0.1030      3.5661   -999.2500   -999.2500
   973.1000      7.8165      2.5874      0.1189      3.7955   -999.2500   -999.2500
   973.2000      7.8165      2.5900      0.0810      3.6391   -999.2500   -999.2500
   973.3000      7.8248      2.6049      0.0758      2.7360   -999.2500   -999.2500
   973.4000      7.8248      2.6176      0.1102      1.9622   -999.2500   -999.2500
   973.5000      7.8518      2.6069      0.0770      2.6121   -999.2500   -999.2500
   973.6000      7.8518      2.5858      0.0525      3.8937   -999.2500   -999.2500
   973.7000      7.8518      2.5715      0.0695      4.7558   -999.2500   -999.2500
   973.8000      7.8244      2.5543      0.0718      5.8023   -999.2500   -999.2500
   973.9000      7.8244      2.5298     -0.0256      7.2868   -999.2500   -999.2500
   974.0000      7.8450      2.5124      0.0416      8.3405   -999.2500   -999.2500
   974.1000      7.8450      2.5041      0.0252      8.8405   -999.2500   -999.2500
   974.2000      7.8450      2.5015      0.0815      9.0018   -999.2500   -999.2500
   974.3000      7.8631      2.5112      0.0346      8.4136   -999.2500   -999.2500
   974.4000      7.8631      2.5379      0.1017      6.7912   -999.2500   -999.2500
   974.5000      7.8479      2.5686      0.0779      4.9310   -999.2500   -999.2500
   974.6000      7.8479      2.5970      0.0864      3.2130   -999.2500   -999.2500
   974.7000      7.8479      2.6265      0.1217      1.4231   -999.2500   -999.2500
   974.8000      7.7982      2.6408      0.1268      0.5565   -999.2500   -999.2500
   974.9000      7.7982      2.6284      0.0837      1.3078   -999.2500   -999.2500
   975.0000      7.8287      2.6102      0.0960      2.4149   -999.2500   -999.2500
   975.1000      7.8287      2.6088      0.0709      2.4949   -999.2500   -999.2500
   975.2000      7.8287      2.6176      0.1431      1.9665   -999.2500   -999.2500
   975.3000      7.8761      2.6102      0.0897      2.4107   -999.2500   -999.2500
   975.4000      7.8761      2.5809      0.1308      4.1887   -999.2500   -999.2500
   975.5000      7.8641      2.5429      0.0188      6.4884   -999.2500   -999.2500
   975.6000      7.8641      2.5118      0.0656      8.3730   -999.2500   -999.2500
   975.7000      7.8641      2.4946      0.0478      9.4182   -999.2500   -999.2500
   975.8000      7.8577      2.4952      0.0470      9.3827   -999.2500   -999.2500
   975.9000      7.8577      2.5216      0.0511      7.7801   -999.2500   -999.2500
   976.0000      7.8698      2.5728      0.1130      4.6791   -999.2500   -999.2500
   976.1000      7.8698      2.6317      0.1445      1.1090   -999.2500   -999.2500
   976.2000      7.8698      2.6751      0.1966     -1.5242   -999.2500   -999.2500
   976.3000      7.8468      2.6830      0.1819     -2.0020   -999.2500   -999.2500
