~Version Information
 VERS.                                  2.0 : CWLS LAS VERSION
 WRAP.                                   NO : WRAPING MODE
 SWARE .                 MController 2.5.0I : SOFTWARE VERSION
~Well Information
 WELL.                        Montoya 1-44v : WELL
 COMP.                       Petrogulf Corp : COMPANY
 FLD.                      Purgatorie River : FIELD
 LOC.                 SE/SE Sec 1 T33S R68W : LOCATION
 DATE.                           8/24-25/04 : DATE(S) LOGGED
 SRVC.       Blanco Geological services LLC : SERVICE COMPANY
 STAT.                                   CO : STATE
 CNTY.                           Las Animas : COUNTY
 CTRY.                                  USA : COUNTRY
 API.                       05-071-08142-00 : API NUMBER
 STRT.FT                             556.00 : START DEPTH
 STOP.FT                            2600.00 : STOP DEPTH
 STEP.FT                               1.00 : DEPTH INCREMENT
 NULL.                                -9999 : NULL VALUE
~Curve information
 DEPTH.FT                                   :
 ROP.MIN/FT                                 :
 GAS.UNITS                                  :
~ASCII Log data
# ...
      1556.0          0.4          4.8 
      1557.0          0.4          4.7 
      1558.0          0.5          4.7 
      1559.0          0.5          4.5 
      1560.0          0.4          4.4 
      1561.0          0.4          4.6 
      1562.0          0.5          4.6 
      1563.0          0.5          4.5 
      1564.0          0.4          4.5 
      1565.0          0.5          4.8 
      1566.0          3.4         34.2 
      1567.0          0.3          5.8 
      1568.0          0.4          4.8 
      1569.0          0.3          4.5 
      1570.0          0.3          4.4 
      1571.0          0.3          4.5 
      1572.0          0.3          4.6 
      1573.0          0.3          4.5 
      1574.0          0.3          4.5 
      1575.0          0.3          4.4 
      1576.0          0.3          4.5 
      1577.0          0.3          4.4 
      1578.0          0.3          4.4 
      1579.0          0.3          4.5 
      1580.0          0.3          4.5 
      1581.0          0.2          5.0 
      1582.0          0.2          4.6 
      1583.0          0.2          4.7 
      1584.0          0.2          5.3 
      1585.0          0.2          5.8 
      1586.0          0.3          6.0 
      1587.0          0.4          5.4 
      1588.0          0.3          5.2 
      1589.0          0.3          5.2 
      1590.0          0.6          5.4 
      1591.0          0.3          5.0 
      1592.0          0.6          5.0 
      1593.0          0.5          5.1 
      1594.0          0.5          5.0 
      1595.0          3.5         31.0 
      1596.0          0.3         16.2 
      1597.0          0.3          8.0 
      1598.0          0.3          5.9 
      1599.0          0.2          5.7 
      1600.0          0.2          5.4 
      1601.0          0.2          5.4 
      1602.0          0.3          5.7 
      1603.0          0.4          5.9 
      1604.0          0.4          5.4 
      1605.0          0.3          4.8 
      1606.0          0.6          4.7 
      1607.0          1.0          4.6 
      1608.0          0.5          3.9 
      1609.0          0.3          3.9 
      1610.0          0.2          4.1 
      1611.0          0.2          4.4 
      1612.0          0.3          4.2 
      1613.0          0.3          4.3 
      1614.0          0.2          4.6 
      1615.0          0.3          4.4 
      1616.0          0.3          4.2 
      1617.0          0.5          4.5 
      1618.0          0.4          4.0 
      1619.0          0.5          4.0 
      1620.0          0.6          3.8 
      1621.0          0.6          3.9 
      1622.0          0.5          4.1 
      1623.0          0.4          4.4 
      1624.0          0.4          4.5 
      1625.0          4.2         47.2 
      1626.0          0.5         10.0 
      1627.0          0.6          6.0 
      1628.0          0.3          5.4 
      1629.0          0.3          5.4 
      1630.0          0.3          5.4 
      1631.0          0.4          4.9 
      1632.0          0.6          4.8 
      1633.0          0.7          4.7 
      1634.0          0.6          4.5 
      1635.0          0.5          4.1 
      1636.0          0.4          4.4 
      1637.0          0.3          4.1 
      1638.0          0.3          4.2 
      1639.0          0.3          4.3 
      1640.0          0.2          4.4 
      1641.0          0.2          4.4 
      1642.0          0.2          4.2 
      1643.0          0.2          4.3 
      1644.0          0.3          4.2 
      1645.0          0.2          4.4 
      1646.0          0.3          4.4 
      1647.0          0.3          4.3 
      1648.0          0.3          4.2 
      1649.0          0.4          4.0 
      1650.0          0.3          3.8 
      1651.0          0.2          3.6 
      1652.0          0.4          3.7 
      1653.0          0.4          4.7 
      1654.0          0.2          4.7 
      1655.0          3.6         33.5 
      1656.0          0.2         10.1 
      1657.0          0.3          7.0 
      1658.0          0.4          6.0 
      1659.0          0.5          5.8 
      1660.0          0.6          5.6 
      1661.0          0.5          5.4 
      1662.0          0.3          5.0 
      1663.0          0.5          5.0 
      1664.0          0.3          5.2 
      1665.0          0.3          4.9 
      1666.0          0.2          5.0 
      1667.0          0.3          5.0 
      1668.0          0.6          4.9 
      1669.0          0.6          4.8 
      1670.0          0.3          4.8 
      1671.0          0.2          5.2 
      1672.0          0.3          4.9 
      1673.0          0.3          5.4 
      1674.0          0.3          6.0 
      1675.0          0.9          5.7 
      1676.0          0.2          4.7 
      1677.0          0.2          4.9 
      1678.0          0.3          5.8 
      1679.0          0.5          8.2 
      1680.0          0.6          7.7 
      1681.0          0.4          6.1 
      1682.0          0.5          5.5 
      1683.0          0.5          5.5 
      1684.0          0.4          5.6 
      1685.0          4.0         35.1 
      1686.0          0.4         12.4 
      1687.0          0.4          6.9 
      1688.0          0.4          5.8 
      1689.0          0.4          5.4 
      1690.0          0.4          5.6 
      1691.0          0.4          5.7 
      1692.0          0.4          5.6 
      1693.0          0.4          5.1 
      1694.0          0.6          5.1 
      1695.0          0.4          4.6 
      1696.0          0.3          4.7 
      1697.0          0.4          6.0 
      1698.0          0.4          7.4 
      1699.0          0.6          7.3 
      1700.0          0.6          6.7 
      1701.0          0.3          5.6 
      1702.0          0.4          5.6 
      1703.0          0.2          5.5 
      1704.0          0.2          5.2 
      1705.0          0.3          5.2 
      1706.0          0.3          5.8 
      1707.0          0.3          7.5 
      1708.0          0.2          7.3 
      1709.0          0.3          6.9 
      1710.0          0.3          6.2 
      1711.0          0.3          5.3 
      1712.0          0.2          4.9 
      1713.0          0.2          4.8 
      1714.0          0.2          4.9 
      1715.0          4.2         48.8 
      1716.0          0.7          8.1 
      1717.0          0.5          6.0 
      1718.0          0.4          5.7 
      1719.0          0.4          5.4 
      1720.0          0.6          5.2 
      1721.0          0.7          4.7 
      1722.0          0.6          5.0 
      1723.0          0.6          4.5 
      1724.0          0.3          4.5 
      1725.0          0.3          4.5 
      1726.0          0.3          4.5 
      1727.0          0.4          4.6 
      1728.0          0.5          4.7 
      1729.0          0.3          4.5 
      1730.0          0.2          4.4 
      1731.0          0.3          4.2 
      1732.0          0.3          4.3 
      1733.0          0.3          4.1 
      1734.0          0.3          3.9 
      1735.0          0.2          4.0 
      1736.0          0.2          4.0 
      1737.0          0.2          3.9 
      1738.0          0.3          3.9 
      1739.0          0.3          3.9 
      1740.0          0.2          4.0 
      1741.0          0.3          3.7 
      1742.0          0.2          3.2 
      1743.0          0.3          3.5 
      1744.0          0.2          3.4 
      1745.0          3.8         48.3 
      1746.0          0.3         16.7 
      1747.0          0.3          8.7 
      1748.0          0.3          6.2 
      1749.0          0.4          5.4 
      1750.0          0.4          5.0 
      1751.0          0.3          4.9 
      1752.0          0.3          5.2 
      1753.0          0.2          4.9 
      1754.0          0.3          4.8 
      1755.0          0.4          5.0 
