~Version Information
VERS.                      2.0: CWLS Log ASCII Standard - VERSION 2.0
WRAP.                       NO: One line per depth step
~Well Information Block
STRT.FT               553.0000: 
STOP.FT              1576.5000: 
STEP.FT                 0.2500: 
NULL.                -999.2500: 
COMP.          Pioneer Natural Resources: COMPANY
WELL.           Telna 24-22 Tr: WELL
FLD.           Purgatoire River: FIELD
LOC.           748' FSL & 1931' FWL: LOCATION
PROV.                 Colorado: PROVINCE
CNTY.               Las Animas: COUNTRY
SRVC.                Patterson: SERVICE COMPANY
DATE.          Mon May 02 07:15:29 2005: LOG DATE
UWI.           05 071 08304 00: UNIQUE WELL ID
~Curve Information Block
DEPT.FT            0 000 00 00: Depth
DCAL.in                       : CDL Caliper
RHOB.g/cc                     : CDL Bulk Density
RHOC.g/cc                     : CDL Density Correction
DPOR.pu                       : CDL Density Porosity
GR.GAPI                       : Gamma Ray
NPOR.pu                       : Neutron Porosity
~Parameter Information Block
~A  Depth       DCAL        RHOB        RHOC        DPOR         GR         NPOR    
# ...
   745.0000      7.8586      2.5308      0.1482      7.2229    140.1555     28.3467
   745.2500      7.8683      2.5314      0.1123      7.1859    129.3259     28.7840
   745.5000      7.8759      2.5438      0.0364      6.4358    111.4270     29.4853
   745.7500      7.8822      2.5675      0.0871      4.9994    122.2021     27.7946
   746.0000      7.8872      2.5571      0.0556      5.6324    116.4179     28.9249
   746.2500      7.8885      2.5576      0.0776      5.5987    120.5553     29.4887
   746.5000      7.8859      2.5764      0.0240      4.4576    117.6374     29.4982
   746.7500      7.8825      2.5746      0.0062      4.5727    114.4985     28.2427
   747.0000      7.8790      2.5772      0.1006      4.4107    121.2834     27.4474
   747.2500      7.8752      2.5316      0.0695      7.1746    118.2960     26.5867
   747.5000      7.8693      2.5681      0.0525      4.9622     97.7724     26.3980
   747.7500      7.8624      2.6094      0.1596      2.4617     86.7769     24.0732
   748.0000      7.8615      2.5908      0.1393      3.5875     68.8139     20.0687
   748.2500      7.8690      2.4923      0.0645      9.5567     69.3926     18.3829
   748.5000      7.8781      2.3027     -0.0758     21.0491     83.8240     17.8037
   748.7500      7.8783      2.3233     -0.0156     19.7977    101.9448     17.9724
   749.0000      7.8669      2.3737      0.1192     16.7476    110.6383     16.9595
   749.2500      7.8702      2.4246      0.2399     13.6627    120.3996     17.9390
   749.5000      7.9035      2.3115      0.0441     20.5159    128.3579     17.6761
   749.7500      7.9315      2.1918      0.0549     27.7701    128.1261     17.1300
   750.0000      7.9512      1.9086     -0.0311     44.9329    133.2256     14.5086
   750.2500      7.9768      1.6985     -0.1059     57.6692    113.3831     13.2108
   750.5000      8.0050      1.3957     -0.1243     76.0211    103.5881     10.8894
   750.7500      8.0204      1.3279      0.0444     80.1279     99.3858     10.4132
   751.0000      8.0275      1.2893      0.0714     82.4663     78.8732     11.0299
   751.2500      8.0521      1.3449      0.1380     79.0969     62.2830     12.3454
   751.5000      8.1160      1.5447      0.1829     66.9866     70.8008     14.8847
   751.7500      8.1826      1.6050      0.2172     63.3339     67.9514     15.8021
   752.0000      8.1555      1.5490      0.1097     66.7280     89.5390     15.0546
   752.2500      8.0407      1.4689     -0.0370     71.5790     91.5491     15.6129
   752.5000      7.9649      1.3605     -0.0678     78.1532     82.0307     19.1771
   752.7500      7.9472      1.5346      0.1370     67.6012     91.0093     23.0275
   753.0000      7.9388      1.9852      0.2800     40.2927    111.0672     25.0517
   753.2500      7.9144      2.2450      0.3753     24.5447    106.5044     27.9756
   753.5000      7.8621      2.4382      0.2100     12.8385    129.7853     28.7708
   753.7500      7.8043      2.5200      0.1894      7.8817    124.7936     27.9340
   754.0000      7.7750      2.5810      0.2032      4.1794    107.1249     25.6761
   754.2500      7.7687      2.5199      0.1070      7.8835     97.2530     25.0385
   754.5000      7.7687      2.4547      0.1141     11.8391    110.2487     23.6041
   754.7500      7.7689      2.3901      0.0404     15.7520    121.3670     25.1151
   755.0000      7.7682      2.4276      0.0536     13.4816    139.7478     23.0471
   755.2500      7.7672      2.5407      0.2607      6.6260    133.5815     22.8780
   755.5000      7.7667      2.5112      0.1627      8.4110    125.8089     24.8173
   755.7500      7.7661      2.4513      0.0799     12.0452    141.1357     25.1032
   756.0000      7.7652      2.5194      0.1097      7.9138    147.1512     27.9490
   756.2500      7.7648      2.5243      0.0583      7.6196    151.1282     28.5295
   756.5000      7.7647      2.5680      0.0845      4.9676    123.5201     28.5278
   756.7500      7.7641      2.5575      0.0272      5.6035    109.9281     29.6645
   757.0000      7.7635      2.4948      0.0003      9.4064     89.4111     28.8461
   757.2500      7.7629      2.3707     -0.0755     16.9252     97.2188     27.6721
   757.5000      7.7611      2.3658      0.0312     17.2262    107.6614     28.1516
   757.7500      7.7516      2.4101      0.1314     14.5416    108.4450     27.2350
   758.0000      7.7295      2.5299      0.2554      7.2809    124.0255     23.9873
   758.2500      7.7207      2.6020      0.3358      2.9091    136.4841     22.3287
   758.5000      7.7645      2.5622      0.2208      5.3201    121.8011     19.4094
   758.7500      7.8405      2.4284      0.1617     13.4330    117.1000     19.0617
   759.0000      7.9061      2.1931      0.0341     27.6937    137.8953     20.5295
   759.2500      7.9509      2.1553      0.0351     29.9847    139.6634     21.4743
   759.5000      7.9789      2.2537      0.1478     24.0212    138.1498     21.9952
   759.7500      7.9968      2.3351      0.1790     19.0822    131.8876     20.8244
   760.0000      8.0126      2.3121      0.0974     20.4792    124.9735     17.4837
   760.2500      8.0285      2.1273      0.1092     31.6774    123.1681     15.1072
   760.5000      8.0457      1.7157     -0.0765     56.6239    106.8452     13.1417
   760.7500      8.0693      1.5287     -0.0450     67.9575     93.7120     13.1693
   761.0000      8.1002      1.3092     -0.0241     81.2630     79.7117     13.6756
   761.2500      8.1203      1.4057      0.0681     75.4105     77.7643     13.8411
   761.5000      8.1247      1.5397      0.0884     67.2880     90.5357     14.9024
   761.7500      8.1233      1.6987      0.1949     57.6526    102.8052     16.7516
   762.0000      8.1211      2.0379      0.2874     37.0997    128.6005     16.9727
   762.2500      8.1225      2.1694      0.5261     29.1255    131.0582     16.7091
   762.5000      8.1311      1.8597      0.3889     47.8972    115.3418     14.1622
   762.7500      8.1411      1.5109     -0.0415     69.0386    119.1384     13.5280
   763.0000      8.1462      1.4354      0.0026     73.6098    100.7881     16.8266
   763.2500      8.1464      1.7155      0.1780     56.6370     87.2056     20.7311
   763.5000      8.1263      2.1562      0.4055     29.9262    118.0455     26.9128
   763.7500      8.0258      2.3669      0.3049     17.1551    126.2844     30.8786
   764.0000      7.8542      2.5684      0.1316      4.9451    120.2686     32.4499
   764.2500      7.7483      2.5754      0.1116      4.5224    118.9833     31.1225
   764.5000      7.7239      2.5364      0.0304      6.8820    133.5598     28.9019
   764.7500      7.7217      2.4827      0.0444     10.1385    123.6460     28.4470
   765.0000      7.7221      2.4857      0.0561      9.9602    130.2316     28.1947
   765.2500      7.7221      2.5093      0.0399      8.5288    136.4531     26.1265
   765.5000      7.7219      2.5217      0.0293      7.7728    138.3055     25.2251
   765.7500      7.7215      2.5148      0.0352      8.1958    131.2054     25.5551
   766.0000      7.7212      2.5025     -0.0052      8.9405    139.5701     27.6926
   766.2500      7.7211      2.5274      0.0594      7.4295    136.3642     26.3622
   766.5000      7.7208      2.5310      0.0577      7.2125    114.8006     28.1763
   766.7500      7.7203      2.5194      0.0448      7.9144    123.5411     29.6404
   767.0000      7.7199      2.5066      0.0193      8.6895    128.2712     30.4014
   767.2500      7.7193      2.5091      0.0556      8.5365    117.8027     31.3163
   767.5000      7.7180      2.5008      0.0067      9.0424     93.6919     31.8400
   767.7500      7.7153      2.4995      0.0386      9.1235     90.4630     31.3773
   768.0000      7.7063      2.4738      0.0378     10.6762     94.3685     29.1490
   768.2500      7.6816      2.4784      0.1422     10.4010     95.0023     26.0724
   768.5000      7.6540      2.5714      0.2328      4.7651    114.0630     24.4317
   768.7500      7.6696      2.6301      0.2760      1.2058    125.7678     24.1377
