~Version Information
VERS.                      2.0: CWLS Log ASCII Standard - VERSION 2.0
WRAP.                       NO: One line per depth step
~Well Information Block
STRT.FT               185.2500: 
STOP.FT              2109.7500: 
STEP.FT                 0.2500: 
NULL.                -999.2500: 
COMP.    Petrogulf Corporation: COMPANY
WELL.             State 16-44V: WELL
FLD.          Purgatorie River: FIELD
LOC.       320' FSL & 320' FEL: LOCATION
PROV.                 Colorado: PROVINCE
CNTY.               Las Animas: COUNTRY
SRVC.                Patterson: SERVICE COMPANY
DATE. Thu Aug 11 12:58:04 2005: LOG DATE
UWI.               071-08263  : UNIQUE WELL ID
~Curve Information Block
DEPT.FT            0 000 00 00: Depth
GR.GAPI                       : Gamma Ray
CCL.                          : Casing Collar Locator
TT3.usec                      : CBL 3' Travel Time
AMP3.mV                       : CBL 3' Amplitude
~Parameter Information Block
~A  Depth        GR         CCL         TT3         AMP3    
# ...
  1056.2500     94.0275      0.0000    629.3427      9.3004
  1056.5000     94.0580      0.0000    621.2603     10.5839
  1056.7500     93.3045      0.0000    610.6899     11.9980
  1057.0000     92.5169      0.0000    589.7176     13.4101
  1057.2500     92.9801      0.0000    555.1472     14.6166
  1057.5000     96.3516      0.0000    515.1002     15.4740
  1057.7500    103.8037      0.0000    475.5742     16.0123
  1058.0000    114.8164      0.0000    435.3168     16.3882
  1058.2500    126.8460      0.0000    400.5672     16.6857
  1058.5000    136.4960      0.0000    380.5832     16.8241
  1058.7500    141.3843      0.0000    374.9693     16.7035
  1059.0000    141.2311      0.0000    380.9158     16.3513
  1059.2500    137.4704      0.0000    401.5506     15.8824
  1059.5000    132.0660      0.0000    438.4615     15.4043
  1059.7500    126.8182      0.0000    484.8815     14.9589
  1060.0000    123.4817      0.0000    536.2338     14.4978
  1060.2500    123.6100      0.0000    591.1434     13.9435
  1060.5000    127.5510      0.0000    638.0938     13.2835
  1060.7500    133.8232      0.0000    665.7308     12.6035
  1061.0000    140.1708      0.0000    677.1716     12.0142
  1061.2500    145.3150      0.0000    681.3014     11.5502
  1061.5000    149.2825      0.0000    683.0223     11.1940
  1061.7500    152.2776      0.0000    683.6025     10.9302
  1062.0000    154.0300      0.0000    683.0201     10.6991
  1062.2500    154.1610      0.0000    681.1634     10.3958
  1062.5000    152.4152      0.0000    678.1462      9.9614
  1062.7500    148.5620      0.0000    673.5607      9.4307
  1063.0000    142.8747      0.0000    665.7191      8.9138
  1063.2500    136.9396      0.0000    653.3336      8.5121
  1063.5000    133.2412      0.0000    638.9551      8.2296
  1063.7500    133.2953      0.0000    628.2106      8.0129
  1064.0000    136.4542      0.0000    624.9923      7.8345
  1064.2500    140.8681      0.0000    630.1599      7.7164
  1064.5000    145.1030      0.0000    641.5883      7.6919
  1064.7500    148.2264      0.0000    652.5294      7.7326
  1065.0000    149.0150      0.0000    657.0743      7.7401
  1065.2500    146.3632      0.0000    658.7567      7.6504
  1065.5000    140.5736      0.0000    665.1689      7.5280
  1065.7500    133.4651      0.0000    675.2914      7.5047
  1066.0000    126.9572      0.0000    681.5509      7.6390
  1066.2500    121.8035      0.0000    681.7996      7.8858
  1066.5000    117.6816      0.0000    679.9227      8.1674
  1066.7500    114.1294      0.0000    678.8967      8.4306
  1067.0000    111.1183      0.0000    679.2593      8.6418
  1067.2500    108.9037      0.0000    680.6852      8.7569
  1067.5000    107.8086      0.0000    682.4853      8.7509
  1067.7500    108.2535      0.0000    683.8567      8.6773
  1068.0000    110.6073      0.0000    684.4955      8.6262
  1068.2500    114.7998      0.0000    684.5938      8.6294
  1068.5000    120.1799      0.0000    684.0226      8.6753
  1068.7500    125.6656      0.0000    682.1061      8.7586
  1069.0000    130.0487      0.0000    678.4801      8.8542
  1069.2500    132.4703      0.0000    675.0993      8.9389
  1069.5000    132.8077      0.0000    677.4783      9.0398
  1069.7500    131.4221      0.0000    689.4728      9.1916
  1070.0000    128.2759      0.0000    705.7277      9.3976
  1070.2500    122.4994      0.0000    714.0747      9.6489
  1070.5000    113.3961      0.0000    706.5607      9.8982
  1070.7500    102.1118      0.0000    688.0880     10.0195
  1071.0000     91.9928      0.0000    671.6656      9.9035
  1071.2500     86.7632      0.0000    663.6143      9.6228
  1071.5000     87.9137      0.0000    660.2292      9.3712
  1071.7500     93.6027      0.0000    657.1702      9.2032
  1072.0000    100.0766      0.0000    654.3436      8.9979
  1072.2500    104.2883      0.0000    653.2821      8.7022
  1072.5000    105.4261      0.0000    654.0898      8.4216
  1072.7500    104.4716      0.0000    654.7411      8.2563
  1073.0000    102.9059      0.0000    652.2076      8.1729
  1073.2500    101.7109      0.0000    645.9081      7.9903
  1073.5000    100.9310      0.0000    639.9432      7.4608
  1073.7500     99.8757      0.0000    640.7531      6.5444
  1074.0000     97.8573      0.0000    650.2100      5.5419
  1074.2500     94.8300      0.0000    659.2081      4.7493
  1074.5000     91.6674      0.0000    655.2028      4.1791
  1074.7500     90.2161      0.0000    640.5374      3.7299
  1075.0000     92.6491      0.0000    632.3558      3.3615
  1075.2500    100.0387     -2.0000    639.7068      3.0656
  1075.5000    111.4713      0.0000    651.7874      2.8400
  1075.7500    124.6440      0.0000    654.1232      2.6998
  1076.0000    137.0869      0.0000    647.1728      2.6445
  1076.2500    146.8946      0.0000    641.5319      2.6424
  1076.5000    153.0389      0.0000    643.8032      2.6901
  1076.7500    155.6640      0.0000    653.6819      2.8208
  1077.0000    156.0546      0.0000    666.7422      3.0182
  1077.2500    155.7679      0.0000    677.3613      3.2035
  1077.5000    155.3819      0.0000    683.0082      3.3187
  1077.7500    154.0879      0.0000    685.0582      3.3664
  1078.0000    150.7902      0.0000    685.5616      3.3751
  1078.2500    145.7146      0.0000    685.0314      3.3639
  1078.5000    140.8460      0.0000    682.5119      3.3462
  1078.7500    138.6027      0.0000    677.1699      3.3441
  1079.0000    139.9089      0.0000    670.3475      3.3714
  1079.2500    143.4880      0.0000    664.9670      3.4090
  1079.5000    146.9193      0.0000    662.4492      3.4289
  1079.7500    148.2597      0.0000    661.9409      3.4288
  1080.0000    146.9456      0.0000    662.2014      3.4253
  1080.2500    143.7999      0.0000    662.6053      3.4410
  1080.5000    140.3073      0.0000    662.7234      3.4995
  1080.7500    137.4424      0.0000    661.6129      3.6101
  1081.0000    135.0648      0.0000    657.4031      3.7519
  1081.2500    132.6859      0.0000    648.6836      3.8873
  1081.5000    130.5973      0.0000    637.5573      3.9871
  1081.7500    129.7484      0.0000    629.2569      4.0337
  1082.0000    130.6851      0.0000    627.1592      4.0187
  1082.2500    133.0535      0.0000    629.5198      3.9413
  1082.5000    135.9690      0.0000    631.6516      3.7987
  1082.7500    138.3463      0.0000    632.2106      3.5930
  1083.0000    139.1183      0.0000    634.9919      3.3591
  1083.2500    137.9533      0.0000    641.6110      3.1662
  1083.5000    135.8586      0.0000    648.2661      3.0633
  1083.7500    134.5018      0.0000    651.6943      3.0362
  1084.0000    134.7623      0.0000    652.0803      3.0357
  1084.2500    136.2072      0.0000    649.9332      3.0318
  1084.5000    137.8392      0.0000    644.1322      3.0224
  1084.7500    138.9947      0.0000    634.3946      3.0074
  1085.0000    139.5583      0.0000    624.6257      2.9894
  1085.2500    139.6397      0.0000    619.6599      2.9881
  1085.5000    139.2047      0.0000    619.0338      3.0212
  1085.7500    137.9519      0.0000    620.6788      3.0819
  1086.0000    135.4707      0.0000    626.5455      3.1561
  1086.2500    131.6434      0.0000    636.9470      3.2476
  1086.5000    127.0242      0.0000    646.9812      3.3616
  1086.7500    122.4874      0.0000    653.1945      3.4848
  1087.0000    118.2781      0.0000    657.4000      3.5975
  1087.2500    113.8762      0.0000    663.5366      3.6883
  1087.5000    109.1152      0.0000    673.5079      3.7566
  1087.7500    104.9159      0.0000    685.0472      3.8176
  1088.0000    102.4159      0.0000    693.5654      3.8910
  1088.2500    101.6635      0.0000    695.3228      3.9741
  1088.5000    101.5952      0.0000    688.8768      4.0399
  1088.7500    101.2923      0.0000    677.1298      4.0610
  1089.0000    101.1491      0.0000    666.3920      4.0372
  1089.2500    102.7929      0.0000    660.5543      4.0015
  1089.5000    107.6960      0.0000    658.8434      3.9784
