~Version Information
VERS.                      2.0: CWLS Log ASCII Standard - VERSION 2.0
WRAP.                       NO: One line per depth step
~Well Information Block
STRT.FT               745.2500: 
STOP.FT              2003.5000: 
STEP.FT                 0.2500: 
NULL.                -999.2500: 
COMP.          Petrogulf Corporation: COMPANY
WELL.            Montoya 6-14V: WELL
FLD.           Purgatorie River: FIELD
LOC.           318' FSL & 882' FWL: LOCATION
CNTY.               Las Animas: COUNTY
SRVC.                         : SERVICE COMPANY
DATE.          Fri Aug 13 04:55:06 2004: LOG DATE
UWI.           05 071 08020 00: UNIQUE WELL ID
STAT.                 Colorado: STATE
~Curve Information Block
DEPT.FT            0 000 00 00: Depth
SP.mV                         : DIL Spontaneous Potential
RILD.Ohm-m                    : DIL Deep Resistivity
RILM.Ohm-m                    : DIL Medium Resistivity
RLL3.Ohm-m                    : DIL Shallow Resistivity
GR.GAPI                       : Gamma Ray
~Parameter Information Block
~A  Depth        SP         RILD        RILM        RLL3         GR     
# ...
  1977.2500     48.7017      8.2295      7.6828      7.9774      0.0022
  1977.5000     48.5254      8.0703      7.6106      8.0079   -999.2500
  1977.7500     48.2878      7.9334      7.5716      8.2123   -999.2500
  1978.0000     47.9990      7.8196      7.5628      8.4906   -999.2500
  1978.2500     47.6764      7.7299      7.5821      8.7696   -999.2500
  1978.5000     47.3420      7.6649      7.6287      9.0141   -999.2500
  1978.7500     47.0186      7.6240      7.7027      9.2253   -999.2500
  1979.0000     46.7262      7.6054      7.8045      9.4292   -999.2500
  1979.2500     46.4784      7.6070      7.9346      9.6610   -999.2500
  1979.5000     46.2811      7.6269      8.0930      9.9502   -999.2500
  1979.7500     46.1320      7.6659      8.2793     10.3119   -999.2500
  1980.0000     46.0228      7.7270      8.4925     10.7455   -999.2500
  1980.2500     45.9411      7.8146      8.7314     11.2411   -999.2500
  1980.5000     45.8731      7.9335      8.9947     11.7860   -999.2500
  1980.7500     45.8052      8.0867      9.2813     12.3686   -999.2500
  1981.0000     45.7255      8.2761      9.5903     12.9752   -999.2500
  1981.2500     45.6241      8.5029      9.9214     13.5868   -999.2500
  1981.5000     45.4937      8.8119     10.2749     14.1785   -999.2500
  1981.7500     45.3265      9.1678     10.6523     14.7245   -999.2500
  1982.0000     45.1174      9.5235     11.0563     15.2037   -999.2500
  1982.2500     44.8580      9.9260     11.4918     15.6061   -999.2500
  1982.5000     44.5305     10.3774     11.9657     15.9378   -999.2500
  1982.7500     44.0974     10.8808     12.4872     16.2265   -999.2500
  1983.0000     43.4851     11.4419     13.0671     16.5237   -999.2500
  1983.2500     42.5656     12.0745     13.7177     16.9009   -999.2500
  1983.5000     41.1439     12.8094     14.4520     17.4465   -999.2500
  1983.7500     38.9639     13.7114     15.2834     18.2729   -999.2500
  1984.0000     35.7443     14.9022     16.2248     19.5422   -999.2500
  1984.2500     31.2503     16.5973     17.2881     21.4938   -999.2500
  1984.5000     25.3869     19.1695     18.4837     24.4365   -999.2500
  1984.7500     18.2791     23.2877     19.8188     28.6637   -999.2500
  1985.0000     10.3012     30.2573     21.2963     34.3012   -999.2500
  1985.2500      2.0257     41.8657     22.9133     41.1604   -999.2500
  1985.5000     -5.8987     66.4219     24.6608     48.7033   -999.2500
  1985.7500    -12.8995    127.8078     26.5238     56.1699   -999.2500
  1986.0000    -18.6031    407.1331     28.4848     62.8242   -999.2500
  1986.2500    -22.8874 100000.0000     30.5280     68.2018   -999.2500
  1986.5000    -25.8541 100000.0000     32.6481     72.2403   -999.2500
  1986.7500    -27.7477 100000.0000     34.8585     75.2338   -999.2500
  1987.0000    -28.8618 100000.0000     37.2018     77.6238   -999.2500
  1987.2500    -29.4659 100000.0000     39.7592     79.7181   -999.2500
  1987.5000    -29.7677 100000.0000     42.6591     81.4803   -999.2500
  1987.7500    -29.9068 100000.0000     46.0842     82.5368   -999.2500
  1988.0000    -29.9658 100000.0000     50.2783     82.4570   -999.2500
  1988.2500    -29.9889    909.0137     55.5527     81.1702   -999.2500
  1988.5000    -29.9972   1679.8954     62.2891     79.2279   -999.2500
  1988.7500   -999.2500   5575.2578     70.9321     77.6725   -999.2500
  1989.0000   -999.2500 100000.0000     81.9537     77.5397   -999.2500
  1989.2500   -999.2500 100000.0000     95.7614     79.2671   -999.2500
  1989.5000   -999.2500 100000.0000    112.5236     82.3493   -999.2500
  1989.7500   -999.2500 100000.0000    131.9197     85.4480   -999.2500
  1990.0000   -999.2500 100000.0000    152.9287     86.9625   -999.2500
  1990.2500   -999.2500 100000.0000    172.7628     85.8266   -999.2500
  1990.5000   -999.2500 100000.0000    192.8738     82.1009   -999.2500
  1990.7500   -999.2500 100000.0000    208.5360     76.9561   -999.2500
  1991.0000   -999.2500 100000.0000    220.3811     71.9963   -999.2500
  1991.2500   -999.2500 100000.0000    228.7861     68.3595   -999.2500
  1991.5000   -999.2500 100000.0000    234.5683     66.2424   -999.2500
  1991.7500   -999.2500 100000.0000    238.5975     65.1769   -999.2500
  1992.0000   -999.2500 100000.0000    241.5789     64.7807   -999.2500
  1992.2500   -999.2500 100000.0000    244.0020     65.3256   -999.2500
  1992.5000   -999.2500 100000.0000    246.1928     67.6366   -999.2500
  1992.7500   -999.2500 100000.0000    248.3438     72.3990   -999.2500
  1993.0000   -999.2500 100000.0000   2673.0876     79.4238   -999.2500
  1993.2500   -999.2500 100000.0000   2964.8567     87.4193   -999.2500
  1993.5000   -999.2500 100000.0000   3341.2932     94.3925   -999.2500
  1993.7500   -999.2500 100000.0000   3830.1035     98.3744   -999.2500
  1994.0000   -999.2500 100000.0000   4462.2207     98.0685   -999.2500
  1994.2500   -999.2500 100000.0000   5266.7939     93.2137   -999.2500
  1994.5000   -999.2500 100000.0000   6260.1831     84.6255   -999.2500
  1994.7500   -999.2500   -999.2500   7428.2046     73.9251   -999.2500
  1995.0000   -999.2500   -999.2500   8708.1113     63.0129   -999.2500
  1995.2500   -999.2500   -999.2500   9986.7881     53.4698   -999.2500
  1995.5000   -999.2500   -999.2500  11131.2510     46.1603   -999.2500
  1995.7500   -999.2500   -999.2500  12041.0342     41.2013   -999.2500
  1996.0000   -999.2500   -999.2500  12684.0713     38.2219   -999.2500
  1996.2500   -999.2500   -999.2500  13092.0488     36.6930   -999.2500
  1996.5000   -999.2500   -999.2500  13327.1250     36.1263   -999.2500
  1996.7500   -999.2500   -999.2500  13451.6836     36.1121   -999.2500
  1997.0000   -999.2500   -999.2500  13513.0039     36.2620   -999.2500
  1997.2500   -999.2500   -999.2500  13540.9756     36.1313   -999.2500
  1997.5000   -999.2500   -999.2500  13553.1006     35.1724   -999.2500
  1997.7500   -999.2500   -999.2500  13557.9180     32.7958   -999.2500
  1998.0000   -999.2500   -999.2500 100000.0000     28.6015   -999.2500
  1998.2500   -999.2500   -999.2500 100000.0000     22.6978   -999.2500
  1998.5000   -999.2500   -999.2500 100000.0000     15.8397   -999.2500
  1998.7500   -999.2500   -999.2500 100000.0000      9.1779   -999.2500
  1999.0000   -999.2500   -999.2500 100000.0000      3.7324   -999.2500
  1999.2500   -999.2500   -999.2500 100000.0000     -0.0271   -999.2500
  1999.5000   -999.2500   -999.2500 100000.0000     -2.2241   -999.2500
  1999.7500   -999.2500   -999.2500 100000.0000     -3.3128   -999.2500
  2000.0000   -999.2500   -999.2500 100000.0000     -3.7708   -999.2500
  2000.2500   -999.2500   -999.2500 100000.0000     -3.9344   -999.2500
  2000.5000   -999.2500   -999.2500   -999.2500     -3.9842   -999.2500
  2000.7500   -999.2500   -999.2500   -999.2500     -3.9971   -999.2500
  2001.0000   -999.2500   -999.2500   -999.2500   -999.2500   -999.2500
  2001.2500   -999.2500   -999.2500   -999.2500   -999.2500   -999.2500
  2001.5000   -999.2500   -999.2500   -999.2500   -999.2500   -999.2500
  2001.7500   -999.2500   -999.2500   -999.2500   -999.2500   -999.2500
  2002.0000   -999.2500   -999.2500   -999.2500   -999.2500   -999.2500
  2002.2500   -999.2500   -999.2500   -999.2500   -999.2500   -999.2500
  2002.5000   -999.2500   -999.2500   -999.2500   -999.2500   -999.2500
  2002.7500   -999.2500   -999.2500   -999.2500   -999.2500   -999.2500
  2003.0000   -999.2500   -999.2500   -999.2500   -999.2500   -999.2500
  2003.2500   -999.2500   -999.2500   -999.2500   -999.2500   -999.2500
  2003.5000   -999.2500   -999.2500   -999.2500   -999.2500   -999.2500
