~Version Information
VERS.                      2.0: CWLS Log ASCII Standard - VERSION 2.0
WRAP.                       NO: One line per depth step
~Well Information Block
STRT.FT               806.0000: 
STOP.FT              1814.0000: 
STEP.FT                 0.2500: 
NULL.                -999.2500: 
COMP.          Pioneer Natural Resources: COMPANY
WELL.            Hill 33-22 Tr: WELL
FLD.           Purgatoire River: FIELD
LOC.           1573' FSL & 1585' FEL: LOCATION
PROV.                 Colorado: PROVINCE
CNTY.               Las Animas: COUNTRY
SRVC.                Patterson: SERVICE COMPANY
DATE.          Thu Apr 14 09:13:17 2005: LOG DATE
UWI.           05 071 08316 00: UNIQUE WELL ID
~Curve Information Block
DEPT.FT            0 000 00 00: Depth
SN.Ohm-m                      : IEL Short Normal
SP.mV                         : IEL Spontaneous Potential
DIR.Ohm-m                     : IEL Induction Resistivity
GR.GAPI                       : Gamma Ray
~Parameter Information Block
~A  Depth        SN          SP         DIR          GR     
# ...
  1007.0000     15.3666     46.6666     18.6489    153.0124
  1007.2500     16.3586     46.7092     18.4744    151.3319
  1007.5000     16.9761     46.6885     18.3226    146.3649
  1007.7500     17.0507     46.6553     18.2168    141.8484
  1008.0000     16.9044     46.6757     18.1695    134.3695
  1008.2500     16.9038     46.7862     18.1762    129.4067
  1008.5000     17.1678     46.9754     18.2182    122.6343
  1008.7500     17.6234     47.2133     18.2703    119.1201
  1009.0000     18.1268     47.4941     18.3105    116.6542
  1009.2500     18.5146     47.8462     18.3282    117.3971
  1009.5000     18.6656     48.3025     18.3253    121.7745
  1009.7500     18.5961     48.8573     18.3108    126.0636
  1010.0000     18.4929     49.4475     18.2919    132.8665
  1010.2500     18.5115     49.9785     18.2663    136.7751
  1010.5000     18.5568     50.3797     18.2197    140.6726
  1010.7500     18.4395     50.6402     18.1275    141.8667
  1011.0000     18.1296     50.7941     17.9640    142.4411
  1011.2500     17.7535     50.8818     17.7142    142.7638
  1011.5000     17.4627     50.9213     17.3848    143.7333
  1011.7500     17.3086     50.8994     17.0062    144.4852
  1012.0000     17.2541     50.7821     16.6275    145.1717
  1012.2500     17.2602     50.5449     16.3038    145.1443
  1012.5000     17.2433     50.2035     16.0793    144.2658
  1012.7500     17.0721     49.8120     15.9717    143.1704
  1013.0000     16.7161     49.4301     15.9634    141.1926
  1013.2500     16.3438     49.0993     16.0066    140.0953
  1013.5000     16.1871     48.8446     16.0432    139.5738
  1013.7500     16.2765     48.6832     16.0299    140.1942
  1014.0000     16.4479     48.6217     15.9547    142.0666
  1014.2500     16.5924     48.6453     15.8366    143.2659
  1014.5000     16.7459     48.7135     15.7132    144.3128
  1014.7500     16.9688     48.7742     15.6255    144.7306
  1015.0000     17.2091     48.7887     15.6066    145.5854
  1015.2500     17.3418     48.7480     15.6756    146.2715
  1015.5000     17.3336     48.6667     15.8360    146.8745
  1015.7500     17.2768     48.5597     16.0779    146.8832
  1016.0000     17.2876     48.4262     16.3818    146.8973
  1016.2500     17.4541     48.2572     16.7229    147.2568
  1016.5000     17.8383     48.0557     17.0741    147.7707
  1016.7500     18.3900     47.8449     17.4090    147.0230
  1017.0000     18.8082     47.6507     17.7074    142.4335
  1017.2500     18.6193     47.4807     17.9676    136.8556
  1017.5000     17.5432     47.3332     18.2174    126.2306
  1017.7500     15.7610     47.2388     18.5124    119.1151
  1018.0000     13.7250     47.2806     18.9175    110.7195
  1018.2500     11.9483     47.5435     19.4802    107.4065
  1018.5000     11.1512     48.0233     20.2129    105.5970
  1018.7500     12.0190     48.5807     21.0876    105.3263
  1019.0000     14.4951     48.9761     22.0456    103.2833
  1019.2500     17.7223     48.9610     23.0145     99.3947
  1019.5000     20.5539     48.3974     23.9278     89.6909
  1019.7500     21.9916     47.3692     24.7415     82.1813
  1020.0000     21.8663     46.2134     25.4472     73.3009
  1020.2500     21.3355     45.4170     26.0820     70.8685
  1020.5000     22.0355     45.4022     26.7258     73.5139
  1020.7500     24.5601     46.3008     27.4757     78.6579
  1021.0000     28.1710     47.8553     28.4031     88.3636
  1021.2500     31.7439     49.5500     29.5134     94.1408
  1021.5000     34.4085     50.9079     30.7220     99.2997
  1021.7500     35.6186     51.7268     31.8686     99.9905
  1022.0000     35.2656     52.0880     32.7743     97.8640
  1022.2500     33.8024     52.1999     33.3228     95.3863
  1022.5000     32.0118     52.2506     33.5067     91.6747
  1022.7500     30.4805     52.3476     33.3977     89.7885
  1023.0000     29.3585     52.5130     33.0805     88.3847
  1023.2500     28.5996     52.6994     32.6139     88.4771
  1023.5000     28.2146     52.8279     32.0422     89.7625
  1023.7500     28.1841     52.8348     31.4267     90.9247
  1024.0000     28.2988     52.7074     30.8565     92.3521
  1024.2500     28.3196     52.4906     30.4234     92.7671
  1024.5000     28.1803     52.2678     30.1783     92.3129
  1024.7500     27.9122     52.1251     30.1005     91.4158
  1025.0000     27.5886     52.1159     30.1071     89.9678
  1025.2500     27.3455     52.2472     30.1062     89.4452
  1025.5000     27.2177     52.4844     30.0622     89.3877
  1025.7500     27.0614     52.7576     30.0169     89.2079
  1026.0000     26.8088     52.9728     30.0474     87.2764
  1026.2500     26.6190     53.0425     30.2016     84.4277
  1026.5000     26.6669     52.9218     30.4584     78.2469
  1026.7500     26.9035     52.6127     30.7386     73.7010
  1027.0000     27.1105     52.1380     30.9590     68.0161
  1027.2500     27.1899     51.5255     31.0984     65.6280
  1027.5000     27.3019     50.8239     31.2205     63.8079
  1027.7500     27.6629     50.1166     31.4337     62.9528
  1028.0000     28.3707     49.4949     31.8300     61.0935
  1028.2500     29.4381     49.0083     32.4473     59.4374
  1028.5000     30.7144     48.6445     33.2668     57.0062
  1028.7500     31.8209     48.3590     34.2239     55.8695
  1029.0000     32.4045     48.1186     35.2165     55.4097
  1029.2500     32.3991     47.9204     36.1259     56.0050
  1029.5000     32.0505     47.7879     36.8572     57.8125
  1029.7500     31.7699     47.7599     37.3790     59.0819
  1030.0000     31.8368     47.8777     37.7199     60.1323
  1030.2500     32.1715     48.1621     37.9250     60.0031
  1030.5000     32.4047     48.5870     38.0241     58.8262
  1030.7500     32.2587     49.0686     38.0444     57.8209
  1031.0000     31.8471     49.4902     38.0412     56.7708
  1031.2500     31.4009     49.7521     38.0926     56.6859
  1031.5000     30.9798     49.8165     38.2407     57.6751
  1031.7500     30.6562     49.7228     38.4355     59.0199
  1032.0000     30.5792     49.5643     38.5546     61.7473
  1032.2500     30.7746     49.4455     38.5061     63.7727
  1032.5000     31.1325     49.4495     38.3150     66.4889
  1032.7500     31.5253     49.6314     38.0967     67.5789
  1033.0000     31.8196     50.0158     37.9482     67.3680
  1033.2500     31.8245     50.5835     37.8794     65.9967
  1033.5000     31.4209     51.2679     37.8419     63.1719
  1033.7500     30.7698     51.9773     37.8029     61.7325
  1034.0000     30.2376     52.6288     37.7747     61.4149
  1034.2500     30.1035     53.1681     37.7825     62.4408
  1034.5000     30.3416     53.5683     37.8122     64.7846
  1034.7500     30.6684     53.8160     37.7978     66.1559
  1035.0000     30.8007     53.9019     37.6572     67.4294
  1035.2500     30.6644     53.8221     37.3500     67.9452
  1035.5000     30.4133     53.5909     36.9121     68.6573
  1035.7500     30.2888     53.2537     36.4365     69.0612
  1036.0000     30.3679     52.8880     36.0139     68.9642
  1036.2500     30.3352     52.5774     35.6797     68.0077
  1036.5000     29.6284     52.3720     35.4093     65.0464
  1036.7500     28.0326     52.2753     35.1632     62.5193
  1037.0000     26.0351     52.2731     34.9364     59.4295
  1037.2500     24.4756     52.3596     34.7610     58.6157
  1037.5000     24.0208     52.5225     34.6629     59.5500
  1037.7500     24.9020     52.7225     34.6227     61.1778
  1038.0000     26.7691     52.9156     34.5914     64.0113
  1038.2500     28.7674     53.0970     34.5502     65.6251
  1038.5000     30.0573     53.2996     34.5523     67.2910
  1038.7500     30.3931     53.5378     34.6931     68.1434
  1039.0000     30.1475     53.7627     35.0320     70.0282
  1039.2500     29.7971     53.8782     35.5447     72.2277
  1039.5000     29.5360     53.7968     36.1415     77.0672
  1039.7500     29.3976     53.4783     36.7249     80.8145
  1040.0000     29.4686     52.9316     37.2237     85.7914
  1040.2500     29.7805     52.2008     37.5829     87.8826
