~Version Information
VERS.                      2.0: CWLS Log ASCII Standard - VERSION 2.0
WRAP.                       NO: One line per depth step
~Well Information Block
STRT.FT               454.0000: 
STOP.FT              1389.0000: 
STEP.FT                 0.1000: 
NULL.                -999.2500: 
COMP.          Pioneer Natural Resources: COMPANY
WELL.          Lorencito 6-3-34-66: WELL
FLD.           Purgatoire River: FIELD
LOC.           2545' FNL & 1914' FWL: LOCATION
STAT.                 Colorado: State
CNTY.               Las Animas: COUNTY
CTRY. USA : Country
SECT. 3 : Section
TOWN. 34S : Township
RANG. 66W : Range
SRVC.                Patterson: SERVICE COMPANY
DATE.          Mon Sep 12 07:20:37 2005: LOG DATE
API.        05 071 08369 00: UNIQUE WELL ID
~Curve Information Block
DEPT.FT            0 000 00 00: Depth
DCAL.in                       : CDL Caliper
RHOB.g/cc                     : CDL Bulk Density
RHOC.g/cc                     : CDL Density Correction
DPOR.pu                       : CDL Density Porosity
GR.GAPI                       : Gamma Ray
NPOR.pu                       : Neutron Porosity
~Parameter Information Block
~A  Depth       DCAL        RHOB        RHOC        DPOR         GR         NPOR    
   454.0000      5.0539      2.3688      0.5745     17.0423    112.4386     16.9461
   454.1000      5.0539      2.3662      0.5617     17.1988    108.9241     16.6630
   454.2000      5.0539      2.3504      0.5662     18.1585    108.3530     16.1603
   454.3000      5.1310      2.3224      0.5613     19.8545    105.7470     16.0729
   454.4000      5.1310      2.2820      0.5243     22.3030    101.1812     16.1837
   454.5000      5.0917      2.2475      0.4741     24.3919     98.4714     15.8728
   454.6000      5.0917      2.2378      0.4901     24.9836     95.6917     15.2002
   454.7000      5.0917      2.2417      0.4994     24.7442     91.5173     14.9778
   454.8000      5.0919      2.2412      0.5042     24.7768     90.2429     15.3919
   454.9000      5.0919      2.2420      0.5050     24.7295     94.5023     15.8558
   455.0000      5.0836      2.2614      0.5423     23.5531     97.0419     16.0104
   455.1000      5.0836      2.3027      0.5265     21.0506     91.3850     15.9639
   455.2000      5.0836      2.3488      0.5812     18.2546     83.3106     15.8042
   455.3000      5.0779      2.3749      0.5735     16.6698     80.7531     15.4443
   455.4000      5.0779      2.3747      0.5694     16.6872     86.0777     14.7250
   455.5000      5.0899      2.3634      0.5751     17.3690     96.8940     13.9894
   455.6000      5.0899      2.3554      0.5641     17.8555    104.1421     14.1212
   455.7000      5.0899      2.3520      0.5427     18.0580    100.1602     15.1271
   455.8000      5.0562      2.3490      0.5314     18.2447     87.8572     15.8325
   455.9000      5.0562      2.3427      0.5110     18.6263     80.3758     15.6221
   456.0000      5.0754      2.3380      0.4652     18.9120     86.4325     14.8893
   456.1000      5.0754      2.3414      0.5177     18.7050     98.4063     14.2597
   456.2000      5.0754      2.3445      0.5193     18.5157    104.2191     14.1828
   456.3000      5.0844      2.3367      0.5138     18.9882    101.5664     14.4834
   456.4000      5.0844      2.3187      0.4904     20.0772     93.6604     14.6332
   456.5000      5.0727      2.2963      0.4475     21.4340     84.3203     14.8487
   456.6000      5.0727      2.2798      0.4346     22.4336     80.2507     15.3564
   456.7000      5.0727      2.2805      0.4207     22.3929     85.3122     15.6292
   456.8000      5.0901      2.2968      0.4783     21.4051     95.2235     15.7006
   456.9000      5.0901      2.3162      0.4667     20.2282    105.2198     16.3581
   457.0000      5.0909      2.3335      0.4713     19.1842    113.9599     17.6360
   457.1000      5.0909      2.3497      0.4689     18.2026    121.2728     18.4021
   457.2000      5.0909      2.3627      0.4758     17.4124    123.1188     17.9953
   457.3000      5.0865      2.3701      0.4847     16.9619    117.4260     17.4345
   457.4000      5.0865      2.3715      0.4927     16.8787    113.8121     17.6895
   457.5000      5.0815      2.3658      0.4905     17.2246    120.4476     18.3301
   457.6000      5.0815      2.3530      0.4616     18.0017    129.8576     18.4881
   457.7000      5.0815      2.3382      0.4043     18.8964    131.6880     17.9258
   457.8000      5.0722      2.3299      0.4070     19.4006    131.3226     17.0212
   457.9000      5.0722      2.3313      0.4046     19.3164    136.6027     16.4397
   458.0000      5.0730      2.3363      0.4437     19.0091    142.3056     16.6121
   458.1000      5.0730      2.3366      0.4216     18.9923    143.8463     17.2817
   458.2000      5.0730      2.3340      0.3852     19.1526    143.0873     18.1257
   458.3000      5.0845      2.3343      0.3989     19.1348    142.0762     18.7351
   458.4000      5.0845      2.3359      0.3966     19.0385    139.5470     18.5408
   458.5000      5.0883      2.3367      0.4171     18.9872    133.5643     18.0024
   458.6000      5.0883      2.3401      0.3909     18.7796    129.7949     17.7891
   458.7000      5.0883      2.3512      0.3984     18.1093    131.2308     17.6847
   458.8000      5.0897      2.3642      0.4364     17.3203    133.6744     17.5414
   458.9000      5.0897      2.3698      0.4243     16.9809    133.6952     17.3971
   459.0000      5.0813      2.3735      0.4029     16.7568    128.8030     17.3453
   459.1000      5.0813      2.3854      0.4472     16.0344    118.1295     17.8801
   459.2000      5.0813      2.4205      0.4150     13.9087    107.3150     18.7832
   459.3000      5.0911      2.5245      0.4388      7.6045    102.9265     18.7648
   459.4000      5.0911      2.7452      0.4428     -5.7689    104.0021     17.5207
   459.5000      7.1945      3.0341      0.6011    -23.2769    107.3729     16.4150
   459.6000      7.1945      3.2682      0.6252    -37.4675    109.1073     16.3819
   459.7000      7.1945      3.4054      0.6504    -45.7803    110.4429     17.1448
   459.8000     20.8168      3.4654      0.6699    -49.4161    116.0679     18.1926
   459.9000     20.8168      3.4035      0.6962    -45.6646    125.3937     19.1218
   460.0000     10.0673      3.1508      0.5331    -30.3539    133.5112     19.4187
   460.1000     10.0673      2.7866     -0.2823     -8.2813    133.7486     18.8472
   460.2000     10.0673      2.5021     -0.4755      8.9641    124.4572     18.0998
   460.3000      8.2740      2.3628     -0.4713     17.4040    115.3647     18.1749
   460.4000      8.2740      2.3085     -0.4865     20.6948    111.4066     18.9649
   460.5000      8.3517      2.3057     -0.5088     20.8656    109.2073     19.3451
   460.6000      8.3517      2.3464     -0.4714     18.4021    110.4257     19.0406
   460.7000      8.3517      2.3897     -0.4583     15.7735    118.2472     18.4629
   460.8000      8.3601      2.3922     -0.4652     15.6235    127.3760     17.7378
   460.9000      8.3601      2.3583     -0.5287     17.6780    128.5419     17.1587
   461.0000      8.3516      2.3299     -0.4801     19.4007    121.1717     16.9044
   461.1000      8.3516      2.3285     -0.5297     19.4837    111.8121     16.9520
   461.2000      8.3516      2.3336     -0.4724     19.1783    105.0211     17.2222
   461.3000      8.3200      2.3156     -0.5435     20.2647    103.2505     17.4449
   461.4000      8.3200      2.2882     -0.5582     21.9296    108.0998     17.5131
   461.5000      8.3387      2.2900     -0.5457     21.8173    115.8793     17.3794
   461.6000      8.3387      2.3237     -0.5224     19.7741    119.9104     17.4698
   461.7000      8.3387      2.3559     -0.4705     17.8261    117.1245     18.3059
   461.8000      8.3294      2.3655     -0.5086     17.2444    112.0913     19.0552
   461.9000      8.3294      2.3644     -0.5319     17.3077    108.6081     18.7673
   462.0000      8.3804      2.3745     -0.5632     16.6966    106.5560     18.0692
   462.1000      8.3804      2.4002     -0.4793     15.1414    108.0474     18.0845
   462.2000      8.3804      2.4214     -0.4207     13.8556    114.4852     18.8354
   462.3000      8.3436      2.4224     -0.5042     13.7934    125.6123     19.5056
   462.4000      8.3436      2.4157     -0.4821     14.1999    141.9973     19.9363
   462.5000      8.3890      2.4090     -0.4619     14.6081    155.6546     20.4290
   462.6000      8.3890      2.3878     -0.4791     15.8907    155.5219     20.9266
   462.7000      8.3890      2.3454     -0.5238     18.4623    146.9302     20.9257
   462.8000      8.3732      2.3103     -0.6067     20.5877    136.8972     20.4679
   462.9000      8.3732      2.3155     -0.5561     20.2719    124.8512     20.3742
   463.0000      8.3544      2.3495     -0.5479     18.2097    118.2980     20.5917
   463.1000      8.3544      2.3807     -0.5062     16.3199    123.5499     20.7405
   463.2000      8.3544      2.4020     -0.4804     15.0278    131.1577     21.1421
   463.3000      8.3551      2.4254     -0.4759     13.6104    134.7786     21.7503
   463.4000      8.3551      2.4453     -0.4477     12.4081    138.5012     21.9720
   463.5000      8.3558      2.4389     -0.4609     12.7937    145.4483     21.5909
