~Version Information
VERS.                      2.0: CWLS Log ASCII Standard - VERSION 2.0
WRAP.                       NO: One line per depth step
~Well Information Block
STRT.FT               928.1000: 
STOP.FT              2417.7000: 
STEP.FT                 0.1000: 
NULL.                -999.2500: 
COMP.          Pioneer Natural Resources: COMPANY
WELL.            Chevron 13-13: WELL
FLD.           Purgatoire River: FIELD
LOC.           1560' FSL & 711' FWL--: LOCATION
CNTY.               Las Animas: COUNTY
SRVC.          Superior Well Services: SERVICE COMPANY
DATE.          Mon Feb 12 14:51:53 2007: LOG DATE
UWI.           05 071 08319 00: UNIQUE WELL ID
STAT.                 Colorado: STATE
~Curve Information Block
DEPT.FT            0 000 00 00: Depth
DIR.Ohm-m                     : IEL Induction Resistivity
GR.GAPI                       : Gamma Ray
SN.Ohm-m                      : IEL Short Normal
SP.mV                         : IEL Spontaneous Potential
~Parameter Information Block
~A  Depth       DIR          GR          SN          SP     
# ...
  1249.7000     22.4923     76.0077     21.3278    -71.5257
  1249.8000     22.4773     76.7456     21.1119    -71.2862
  1249.9000     22.4773     77.3811     21.1119    -71.2862
  1250.0000     22.5326     77.8897     21.0355    -71.0592
  1250.1000     22.5326     78.2676     21.0355    -71.0592
  1250.2000     22.5326     78.5347     21.0355    -71.0592
  1250.3000     22.6481     78.7273     21.1076    -70.8390
  1250.4000     22.6481     78.8893     21.1076    -70.8390
  1250.5000     22.7888     79.0678     21.3250    -70.6187
  1250.6000     22.7888     79.3001     21.3250    -70.6187
  1250.7000     22.7888     79.6102     21.3250    -70.6187
  1250.8000     22.9087     80.0039     21.4966    -70.3916
  1250.9000     22.9087     80.4657     21.4966    -70.3916
  1251.0000     22.9688     80.9622     21.5248    -70.1514
  1251.1000     22.9688     81.4457     21.5248    -70.1514
  1251.2000     22.9688     81.8571     21.5248    -70.1514
  1251.3000     22.9498     82.1348     21.5349    -69.8935
  1251.4000     22.9498     82.2186     21.5349    -69.8935
  1251.5000     22.8532     82.0578     21.5724    -69.6155
  1251.6000     22.8532     81.6146     21.5724    -69.6155
  1251.7000     22.8532     80.8667     21.5724    -69.6155
  1251.8000     22.6941     79.8118     21.5277    -69.3169
  1251.9000     22.6941     78.4655     21.5277    -69.3169
  1252.0000     22.4923     76.8635     21.3967    -68.9993
  1252.1000     22.4923     75.0573     21.3967    -68.9993
  1252.2000     22.4923     73.1134     21.3967    -68.9993
  1252.3000     22.2673     71.1078     21.1987    -68.6660
  1252.4000     22.2673     69.1231     21.1987    -68.6660
  1252.5000     22.0361     67.2432     20.9641    -68.3214
  1252.6000     22.0361     65.5474     20.9641    -68.3214
  1252.7000     22.0361     64.1005     20.9641    -68.3214
  1252.8000     21.8115     62.9532     20.7392    -67.9706
  1252.9000     21.8115     62.1317     20.7392    -67.9706
  1253.0000     21.6010     61.6399     20.5279    -67.6188
  1253.1000     21.6010     61.4549     20.5279    -67.6188
  1253.2000     21.6010     61.5354     20.5279    -67.6188
  1253.3000     21.4077     61.8287     20.3589    -67.2711
  1253.4000     21.4077     62.2753     20.3589    -67.2711
  1253.5000     21.2334     62.8212     20.2363    -66.9321
  1253.6000     21.2334     63.4239     20.2363    -66.9321
  1253.7000     21.2334     64.0544     20.2363    -66.9321
  1253.8000     21.0810     64.6956     20.1084    -66.6060
  1253.9000     21.0810     65.3380     20.1084    -66.6060
  1254.0000     20.9542     65.9741     19.9286    -66.2959
  1254.1000     20.9542     66.5882     19.9286    -66.2959
  1254.2000     20.9542     67.1545     19.9286    -66.2959
  1254.3000     20.8578     67.6355     19.7321    -66.0041
  1254.4000     20.8578     67.9833     19.7321    -66.0041
  1254.5000     20.7978     68.1484     19.5871    -65.7320
  1254.6000     20.7978     68.0841     19.5871    -65.7320
  1254.7000     20.7978     67.7573     19.5871    -65.7320
  1254.8000     20.7801     67.1525     19.5275    -65.4805
  1254.9000     20.7801     66.2767     19.5275    -65.4805
  1255.0000     20.8048     65.1587     19.5032    -65.2501
  1255.1000     20.8048     63.8443     19.5032    -65.2501
  1255.2000     20.8048     62.3936     19.5032    -65.2501
  1255.3000     20.8610     60.8715     19.4548    -65.0412
  1255.4000     20.8610     59.3446     19.4548    -65.0412
  1255.5000     20.9264     57.8760     19.3760    -64.8544
  1255.6000     20.9264     56.5235     19.3760    -64.8544
  1255.7000     20.9264     55.3351     19.3760    -64.8544
  1255.8000     20.9756     54.3491     19.2836    -64.6910
  1255.9000     20.9756     53.5932     19.2836    -64.6910
  1256.0000     20.9910     53.0853     19.1761    -64.5523
  1256.1000     20.9910     52.8295     19.1761    -64.5523
  1256.2000     20.9910     52.8221     19.1761    -64.5523
  1256.3000     20.9703     53.0472     19.0856    -64.4396
  1256.4000     20.9703     53.4823     19.0856    -64.4396
  1256.5000     20.9254     54.0953     19.0853    -64.3540
  1256.6000     20.9254     54.8479     19.0853    -64.3540
  1256.7000     20.9254     55.6959     19.0853    -64.3540
  1256.8000     20.8776     56.5908     19.1837    -64.2956
  1256.9000     20.8776     57.4785     19.1837    -64.2956
  1257.0000     20.8501     58.3040     19.2846    -64.2635
  1257.1000     20.8501     59.0173     19.2846    -64.2635
  1257.2000     20.8501     59.5764     19.2846    -64.2635
  1257.3000     20.8612     59.9537     19.3173    -64.2550
  1257.4000     20.8612     60.1411     19.3173    -64.2550
  1257.5000     20.9212     60.1517     19.3528    -64.2664
  1257.6000     20.9212     60.0184     19.3528    -64.2664
  1257.7000     20.9212     59.7896     19.3528    -64.2664
  1257.8000     21.0305     59.5207     19.4958    -64.2925
  1257.9000     21.0305     59.2690     19.4958    -64.2925
  1258.0000     21.1818     59.0800     19.7302    -64.3274
  1258.1000     21.1818     58.9825     19.7302    -64.3274
  1258.2000     21.1818     58.9828     19.7302    -64.3274
  1258.3000     21.3634     59.0629     20.0001    -64.3650
  1258.4000     21.3634     59.1846     20.0001    -64.3650
  1258.5000     21.5624     59.2947     20.2734    -64.3994
  1258.6000     21.5624     59.3355     20.2734    -64.3994
  1258.7000     21.5624     59.2570     20.2734    -64.3994
  1258.8000     21.7660     59.0235     20.4118    -64.4254
  1258.9000     21.7660     58.6201     20.4118    -64.4254
  1259.0000     21.9593     58.0571     20.3467    -64.4392
  1259.1000     21.9593     57.3660     20.3467    -64.4392
  1259.2000     21.9593     56.5962     20.3467    -64.4392
  1259.3000     22.1252     55.8044     20.1801    -64.4384
  1259.4000     22.1252     55.0521     20.1801    -64.4384
  1259.5000     22.2475     54.3936     20.0608    -64.4221
  1259.6000     22.2475     53.8768     20.0608    -64.4221
  1259.7000     22.2475     53.5375     20.0608    -64.4221
  1259.8000     22.3199     53.4046     20.0525    -64.3915
  1259.9000     22.3199     53.5000     20.0525    -64.3915
  1260.0000     22.3535     53.8390     20.1626    -64.3490
  1260.1000     22.3535     54.4350     20.1626    -64.3490
  1260.2000     22.3535     55.2967     20.1626    -64.3490
  1260.3000     22.3745     56.4248     20.4095    -64.2981
  1260.4000     22.3745     57.8096     20.4095    -64.2981
  1260.5000     22.4091     59.4236     20.7488    -64.2428
  1260.6000     22.4091     61.2215     20.7488    -64.2428
  1260.7000     22.4091     63.1367     20.7488    -64.2428
  1260.8000     22.4675     65.0861     21.0438    -64.1867
  1260.9000     22.4675     66.9753     21.0438    -64.1867
  1261.0000     22.5390     68.7085     21.2009    -64.1321
  1261.1000     22.5390     70.1995     21.2009    -64.1321
  1261.2000     22.5390     71.3792     21.2009    -64.1321
  1261.3000     22.6018     72.2082     21.1422    -64.0800
  1261.4000     22.6018     72.6762     21.1422    -64.0800
  1261.5000     22.6375     72.8032     20.8913    -64.0288
  1261.6000     22.6375     72.6357     20.8913    -64.0288
  1261.7000     22.6375     72.2332     20.8913    -64.0288
  1261.8000     22.6401     71.6609     20.6250    -63.9753
  1261.9000     22.6401     70.9793     20.6250    -63.9753
  1262.0000     22.6140     70.2353     20.4478    -63.9149
  1262.1000     22.6140     69.4614     20.4478    -63.9149
  1262.2000     22.6140     68.6770     20.4478    -63.9149
  1262.3000     22.5675     67.8911     20.3342    -63.8426
  1262.4000     22.5675     67.1077     20.3342    -63.8426
  1262.5000     22.5070     66.3307     20.2815    -63.7539
  1262.6000     22.5070     65.5657     20.2815    -63.7539
  1262.7000     22.5070     64.8181     20.2815    -63.7539
  1262.8000     22.4351     64.0900     20.2600    -63.6462
  1262.9000     22.4351     63.3818     20.2600    -63.6462
  1263.0000     22.3536     62.6885     20.2478    -63.5195
