~Version Information
VERS.                      2.0: CWLS Log ASCII Standard - VERSION 2.0
WRAP.                       NO: One line per depth step
~Well Information Block
STRT.FT               481.5000: 
STOP.FT              2033.5000: 
STEP.FT                 0.2500: 
NULL.                -999.2500: 
COMP.          Petrogulf Corporation: COMPANY
WELL.            Montoya 7-12R: WELL
FLD.           Purgatorie River: FIELD
LOC.           1769' FNL & 658' FWL: LOCATION
CNTY.               Las Animas: COUNTY
SRVC.                         : SERVICE COMPANY
DATE.          Sat Nov 20 02:31:05 2004: LOG DATE
UWI.           05 071 08240 00: UNIQUE WELL ID
STAT.                 Colorado: STATE
~Curve Information Block
DEPT.FT            0 000 00 00: Depth
SP.mV                         : DIL Spontaneous Potential
RILD.Ohm-m                    : DIL Deep Resistivity
RILM.Ohm-m                    : DIL Medium Resistivity
RLL3.Ohm-m                    : DIL Shallow Resistivity
GR.GAPI                       : Gamma Ray
~Parameter Information Block
~A  Depth        SP         RILD        RILM        RLL3         GR     
# ...
  1881.5000      4.9138     11.7880     12.2035     12.2987    136.2851
  1881.7500      4.8428     11.8238     12.2571     12.5206    137.6621
  1882.0000      4.8190     11.8791     12.3489     12.8244    138.9293
  1882.2500      4.8223     11.9561     12.4775     13.2120    138.5092
  1882.5000      4.8313     12.0570     12.6401     13.6725    134.9343
  1882.7500      4.8260     12.1840     12.8330     14.1784    130.7642
  1883.0000      4.7894     12.3394     13.0522     14.6893    123.7328
  1883.2500      4.7100     12.5254     13.2945     15.1629    119.8777
  1883.5000      4.5821     12.7443     13.5578     15.5670    116.4453
  1883.7500      4.4061     12.9986     13.8423     15.8878    115.4891
  1884.0000      4.1880     13.2903     14.1512     16.1323    115.2571
  1884.2500      3.9369     13.6211     14.4904     16.3251    115.8080
  1884.5000      3.6633     13.9924     14.8685     16.5037    118.0538
  1884.7500      3.3768     14.4050     15.2966     16.7171    120.5229
  1885.0000      3.0840     14.8591     15.7869     17.0274    124.9390
  1885.2500      2.7880     15.3545     16.3525     17.5122    127.6646
  1885.5000      2.4884     15.8909     17.0064     18.2640    130.4291
  1885.7500      2.1818     16.4682     17.7604     19.3810    131.1573
  1886.0000      1.8635     17.0864     18.6248     20.9494    130.9001
  1886.2500      1.5285     17.7461     19.6070     23.0187    130.1740
  1886.5000      1.1730     18.4483     20.7105     25.5775    128.1423
  1886.7500      0.7951     19.1937     21.9340     28.5385    125.5119
  1887.0000      0.3962     19.9825     23.2704     31.7389    118.4755
  1887.2500     -0.0192     20.8122     24.7066     34.9609    111.5808
  1887.5000     -0.4430     21.6775     26.2224     37.9677     98.7294
  1887.7500     -0.8639     22.5674     27.7921     40.5470     89.3244
  1888.0000     -1.2681     23.4648     29.3839     42.5524     75.6455
  1888.2500     -1.6404     24.3453     30.9608     43.9315     67.6283
  1888.5000     -1.9655     25.1777     32.4800     44.7348     57.7595
  1888.7500     -2.2294     25.9257     33.8927     45.1029     52.4092
  1889.0000     -2.4196     26.5507     35.1424     45.2341     45.7083
  1889.2500     -2.5253     27.0167     36.1654     45.3370     42.0570
  1889.5000     -2.5370     27.2947     36.8931     45.5788     38.1139
  1889.7500     -2.4454     27.3675     37.2586     46.0396     36.7017
  1890.0000     -2.2417     27.2317     37.2072     46.6807     36.2856
  1890.2500     -1.9180     26.8982     36.7101     47.3385     36.7143
  1890.5000     -1.4691     26.3903     35.7757     47.7490     37.4222
  1890.7500     -0.8948     25.7399     34.4550     47.6047     37.6101
  1891.0000     -0.2019     24.9830     32.8351     46.6353     37.9841
  1891.2500      0.5940     24.1553     31.0245     44.6901     39.2206
  1891.5000      1.4687     23.2895     29.1338     41.7958     44.3822
  1891.7500      2.3914     22.4128     27.2595     38.1648     50.6122
  1892.0000      3.3286     21.5466     25.4748     34.1466     63.6374
  1892.2500      4.2479     20.7069     23.8269     30.1397     73.7563
  1892.5000      5.1221     19.9053     22.3402     26.4952     89.1179
  1892.7500      5.9322     19.1503     21.0218     23.4470     98.6778
  1893.0000      6.6676     18.4482     19.8675     21.0873    111.2501
  1893.2500      7.3258     17.8040     18.8665     19.3864    118.0699
  1893.5000      7.9099     17.2221     18.0055     18.2378    125.0392
  1893.7500      8.4260     16.7057     17.2707     17.5074    127.0683
  1894.0000      8.8813     16.2578     16.6499     17.0715    126.4670
  1894.2500      9.2823     15.8803     16.1330     16.8358    124.5687
  1894.5000      9.6341     15.5747     15.7124     16.7405    121.6064
  1894.7500      9.9401     15.3414     15.3831     16.7507    120.4839
  1895.0000     10.2026     15.1803     15.1430     16.8531    120.6319
  1895.2500     10.4231     15.0903     14.9925     17.0612    121.7290
  1895.5000     10.6038     15.0694     14.9345     17.4357    123.8670
  1895.7500     10.7478     15.1145     14.9736     18.1185    124.9686
  1896.0000     10.8608     15.2213     15.1154     19.3609    125.6874
  1896.2500     10.9518     15.3843     15.3652     21.5244    125.8281
  1896.5000     11.0340     15.5971     15.7268     25.0214    126.2486
  1896.7500     11.1242     15.8527     16.1997     30.1849    126.6787
  1897.0000     11.2415     16.1440     16.7778     37.0880    126.4844
  1897.2500     11.4046     16.4649     17.4468     45.3726    124.8523
  1897.5000     11.6286     16.8105     18.1832     54.1790    119.0930
  1897.7500     11.9209     17.1773     18.9555     62.2484    113.2177
  1898.0000     12.2791     17.5633     19.7270     68.2101    103.0969
  1898.2500     12.6898     17.9673     20.4622     70.9715     97.0945
  1898.5000     13.1297     18.3876     21.1332     70.0651     92.0076
  1898.7500     13.5687     18.8213     21.7255     65.8032     92.0697
  1899.0000     13.9740     19.2631     22.2389     59.1750     96.4460
  1899.2500     14.3147     19.7051     22.6858     51.5323    100.7204
  1899.5000     14.5655     20.1369     23.0849     44.1991    106.8399
  1899.7500     14.7093     20.5469     23.4557     38.1528    110.1740
  1900.0000     14.7378     20.9240     23.8142     33.8729    114.0670
  1900.2500     14.6517     21.2596     24.1709     31.3641    115.8786
  1900.5000     14.4589     21.5490     24.5319     30.2975    117.0838
  1900.7500     14.1728     21.7928     24.9009     30.1960    116.9549
  1901.0000     13.8102     21.9956     25.2818     30.6002    116.2853
  1901.2500     13.3900     22.1654     25.6804     31.1799    116.1448
  1901.5000     12.9319     22.3102     26.1047     31.7803    116.8860
  1901.7500     12.4557     22.4366     26.5631     32.4069    117.9294
  1902.0000     11.9813     22.5464     27.0607     33.1652    119.6543
  1902.2500     11.5281     22.6368     27.5954     34.1736    120.2033
  1902.5000     11.1145     22.6992     28.1531     35.4895    118.7163
  1902.7500     10.7565     22.7210     28.7049     37.0694    115.7756
  1903.0000     10.4659     22.6880     29.2056     38.7679    109.2435
  1903.2500     10.2485     22.5868     29.5967     40.3702    104.6494
  1903.5000     10.1033     22.4077     29.8130     41.6339     99.3241
  1903.7500     10.0224     22.1466     29.7943     42.3292     97.2933
  1904.0000      9.9926     21.8057     29.4986     42.2722     96.2854
  1904.2500      9.9981     21.3927     28.9125     41.3570     96.7599
  1904.5000     10.0240     20.9200     28.0564     39.5819     99.4123
  1904.7500     10.0592     20.4021     26.9798     37.0618    102.6418
  1905.0000     10.0989     19.8545     25.7513     34.0138    108.8786
  1905.2500     10.1451     19.2924     24.4455     30.7151    112.8281
  1905.5000     10.2054     18.7296     23.1317     27.4455    116.8823
  1905.7500     10.2909     18.1784     21.8667     24.4326    118.4292
  1906.0000     10.4124     17.6492     20.6922     21.8216    120.5286
  1906.2500     10.5774     17.1501     19.6351     19.6728    122.5723
  1906.5000     10.7875     16.6874     18.7102     17.9830    126.5922
  1906.7500     11.0370     16.2652     17.9225     16.7156    129.2137
  1907.0000     11.3134     15.8859     17.2701     15.8261    131.9243
  1907.2500     11.5985     15.5497     16.7463     15.2733    132.8168
  1907.5000     11.8710     15.2556     16.3409     15.0206    133.2429
  1907.7500     12.1093     15.0009     16.0412     15.0294    132.9840
  1908.0000     12.2941     14.7819     15.8320     15.2531    131.1664
  1908.2500     12.4109     14.5942     15.6967     15.6364    128.5461
  1908.5000     12.4540     14.4329     15.6165     16.1210    122.4970
  1908.7500     12.4223     14.2929     15.5714     16.6519    117.8149
  1909.0000     12.3265     14.1698     15.5403     17.1801    111.9483
  1909.2500     12.1861     14.0593     15.5030     17.6607    109.7281
