~Version Information
VERS.                      2.0: CWLS Log ASCII Standard - VERSION 2.0
WRAP.                       NO: One line per depth step
~Well Information Block
STRT.FT               472.0000: 
STOP.FT              2430.5000: 
STEP.FT                 0.2500: 
NULL.                -999.2500: 
COMP.          Pioneer Natural Resources: COMPANY
WELL.          Flying Horse 12-11: WELL
FLD.           Purgatoire River: FIELD
LOC.           2428' FNL & 308' FWL: LOCATION
PROV.                 Colorado: PROVINCE
CNTY.               Las Animas: COUNTRY
SRVC.                Patterson: SERVICE COMPANY
DATE.          Sun May 29 11:58:35 2005: LOG DATE
UWI.           05 071 08378 00: UNIQUE WELL ID
~Curve Information Block
DEPT.FT            0 000 00 00: Depth
SN.Ohm-m                      : IEL Short Normal
SP.mV                         : IEL Spontaneous Potential
DIR.Ohm-m                     : IEL Induction Resistivity
GR.GAPI                       : Gamma Ray
~Parameter Information Block
~A  Depth        SN          SP         DIR          GR     
# ...
  1376.5000     48.3631    -98.0794     46.5275     64.3258
  1376.7500     49.0671    -97.4825     46.2862     64.1746
  1377.0000     49.7928    -96.8665     45.8959     64.9871
  1377.2500     50.5450    -96.2258     45.3909     66.0151
  1377.5000     51.2831    -95.5733     44.7319     67.3930
  1377.7500     51.9499    -94.9397     43.8180     67.6515
  1378.0000     52.5538    -94.3605     42.5403     66.7125
  1378.2500     53.1227    -93.8595     40.8206     65.5609
  1378.5000     53.6855    -93.4448     38.6090     64.3926
  1378.7500     54.3257    -93.1146     35.8914     64.7565
  1379.0000     55.1171    -92.8656     32.7435     67.4655
  1379.2500     55.9768    -92.6937     29.3857     70.3383
  1379.5000     56.6835    -92.5885     26.1415     74.9656
  1379.7500     57.0634    -92.5279     23.3084     77.5177
  1380.0000     57.0783    -92.4817     21.0532     79.8391
  1380.2500     56.7640    -92.4212     19.4064     80.4272
  1380.5000     56.1741    -92.3322     18.3255     80.5323
  1380.7500     55.3681    -92.2182     17.7784     80.5761
  1381.0000     54.3789    -92.0944     17.8246     81.3778
  1381.2500     53.1617    -91.9758     18.7146     82.8861
  1381.5000     51.6353    -91.8660     21.1182     87.5894
  1381.7500     49.7827    -91.7534     27.0038     92.7360
  1382.0000     47.6573    -91.6135     45.1836    102.9117
  1382.2500     45.3623    -91.4224    308.9321    110.1177
  1382.5000     43.0924    -91.1713 100000.0000    118.7934
  1382.7500     41.1173    -90.8751 100000.0000    121.9497
  1383.0000     39.6788    -90.5656 100000.0000    122.3966
  1383.2500     38.9017    -90.2767 100000.0000    120.6080
  1383.5000     38.7649    -90.0310 100000.0000    116.8534
  1383.7500     39.1417    -89.8335 100000.0000    114.6568
  1384.0000     39.8778    -89.6769 100000.0000    112.6050
  1384.2500     40.8468    -89.5519 100000.0000    111.9703
  1384.5000     41.9439    -89.4572 100000.0000    111.3627
  1384.7500     43.0512    -89.4007 100000.0000    110.6039
  1385.0000     44.0919    -89.3955 100000.0000    108.1085
  1385.2500     45.1312    -89.4557 100000.0000    105.4078
  1385.5000     46.3306    -89.5905 100000.0000    100.2295
  1385.7500     47.7807    -89.8005 100000.0000     96.4610
  1386.0000     49.4398    -90.0823 100000.0000     91.0317
  1386.2500     51.1803    -90.4399 100000.0000     87.7930
  1386.5000     52.7805    -90.8888 100000.0000     83.5132
  1386.7500     53.9139    -91.4425 100000.0000     81.0535
  1387.0000     54.2351    -92.1010 100000.0000     78.5280
  1387.2500     53.4956    -92.8598 100000.0000     78.1062
  1387.5000     51.5985    -93.7276 100000.0000     79.4235
  1387.7500     48.5214    -94.7330 100000.0000     81.1025
  1388.0000     44.2761    -95.9198 100000.0000     84.4026
  1388.2500     39.0902    -97.3482      7.7740     87.6891
  1388.5000     33.5287    -99.1143      1.8088     95.4439
  1388.7500     28.2874   -101.3813      0.8383    102.2236
  1389.0000     23.8285   -104.4083      0.4747    112.5734
  1389.2500     20.1218   -108.5591      0.2964    118.2436
  1389.5000     16.6965   -114.2649      0.1994    123.6097
  1389.7500     13.0850   -121.9090      0.1444    124.6155
  1390.0000      9.3297   -131.6142      0.1111    121.2706
  1390.2500      6.0171   -142.9642      0.0876    115.4860
  1390.5000      3.7372   -154.8087      0.0680    102.6389
  1390.7500      2.5775   -165.4162      0.0506     93.0359
  1391.0000      2.2278   -173.0986      0.0362     80.3141
  1391.2500      2.4662   -176.9768      0.0256     74.0257
  1391.5000      3.4198   -177.2803      0.0186     68.0564
  1391.7500      5.1383   -174.9492      0.0145     66.1720
  1392.0000      6.8606   -170.9358      0.0126     66.5967
  1392.2500      7.3802   -165.7451      0.0123     69.2764
  1392.5000      6.4174   -159.3959      0.0137     76.8016
  1392.7500      4.8522   -151.6720      0.0173     83.6084
  1393.0000      3.5988   -142.4921      0.0237     94.7878
  1393.2500      2.9762   -132.2294      0.0337    101.6137
  1393.5000      3.0251   -121.7710      0.0472    109.0541
  1393.7500      3.8691   -112.2164      0.0629    111.6782
  1394.0000      5.5801   -104.4003      0.0802    112.1319
  1394.2500      7.8206    -98.5984      0.1018    110.1255
  1394.5000      9.9534    -94.5919      0.1350    103.5947
  1394.7500     11.6100    -91.9400      0.1932     97.2696
  1395.0000     12.9336    -90.2072      0.2998     86.7002
  1395.2500     14.3045    -89.0485      0.5005     80.4809
  1395.5000     16.0325    -88.2065      0.9249     74.8111
  1395.7500     18.1844    -87.4955      2.1549     74.2346
  1396.0000     20.4210    -86.7924     13.7795     77.9681
  1396.2500     22.0453    -86.0314 100000.0000     82.7080
  1396.5000     22.5460    -85.2041 100000.0000     91.3646
  1396.7500     22.0970    -84.3571 100000.0000     97.1629
  1397.0000     21.2915    -83.5735 100000.0000    104.5608
  1397.2500     20.5695    -82.9348 100000.0000    108.1640
  1397.5000     20.0704    -82.4829 100000.0000    111.5172
  1397.7500     19.7762    -82.2051 100000.0000    112.8277
  1398.0000     19.6036    -82.0511 100000.0000    114.7482
  1398.2500     19.4399    -81.9635 100000.0000    116.7037
  1398.5000     19.2005    -81.8996 100000.0000    120.7817
  1398.7500     18.8368    -81.8337 100000.0000    123.6017
  1399.0000     18.2641    -81.7528 100000.0000    126.4965
  1399.2500     17.3922    -81.6546 100000.0000    127.1449
  1399.5000     16.2809    -81.5494 100000.0000    126.6866
  1399.7500     15.1951    -81.4602 100000.0000    125.9832
  1400.0000     14.4474    -81.4145 100000.0000    124.9152
  1400.2500     14.1991    -81.4293 100000.0000    124.2932
  1400.5000     14.4478    -81.5010 100000.0000    123.6440
  1400.7500     15.0825    -81.6076 100000.0000    123.5277
  1401.0000     15.8548    -81.7197 100000.0000    123.9480
  1401.2500     16.4505    -81.8097 100000.0000    124.6529
  1401.5000     16.6740    -81.8590    120.6952    126.5648
  1401.7500     16.5498    -81.8636     29.0167    128.6161
  1402.0000     16.2651    -81.8356     16.9714    132.9052
  1402.2500     15.9880    -81.7971     12.6469    136.1239
  1402.5000     15.7677    -81.7669     10.6874    139.8932
  1402.7500     15.6103    -81.7483      9.7649    140.7426
  1403.0000     15.5763    -81.7300      9.3927    139.0842
  1403.2500     15.7573    -81.6976      9.3556    136.6989
  1403.5000     16.1840    -81.6477      9.5574    132.9154
  1403.7500     16.8115    -81.5926      9.9688    130.7031
  1404.0000     17.5585    -81.5542     10.5983    127.0881
  1404.2500     18.3529    -81.5546     11.4673    123.6411
  1404.5000     19.2015    -81.6072     12.5839    116.3043
  1404.7500     20.1847    -81.7121     13.9199    110.5048
  1405.0000     21.3713    -81.8538     15.4029    102.1792
  1405.2500     22.7971    -82.0061     16.9382     97.5551
  1405.5000     24.4977    -82.1429     18.4663     91.8002
  1405.7500     26.4711    -82.2489     20.0184     88.0924
  1406.0000     28.6039    -82.3245     21.7193     81.7564
  1406.2500     30.7238    -82.3829     23.7189     77.0177
  1406.5000     32.7208    -82.4449     26.0907     70.1592
  1406.7500     34.5713    -82.5336     28.7436     66.5089
  1407.0000     36.2769    -82.6699     31.4092     63.1460
  1407.2500     37.8109    -82.8678     33.7602     62.3377
  1407.5000     39.1362    -83.1287     35.6114     62.8490
  1407.7500     40.2920    -83.4385     37.0124     63.8120
  1408.0000     41.3906    -83.7728     38.1497     64.8883
  1408.2500     42.4852    -84.1093     39.1862     64.7057
  1408.5000     43.5206    -84.4361     40.1859     62.8831
  1408.7500     44.4394    -84.7521     41.1348     61.1626
  1409.0000     45.2735    -85.0616     41.9918     59.3595
  1409.2500     46.1215    -85.3697     42.7155     59.4402
  1409.5000     47.0637    -85.6824     43.2492     61.6851
  1409.7500     48.0782    -86.0094     43.5133     64.0554
