~Version Information
VERS.                      2.0: CWLS Log ASCII Standard - VERSION 2.0
WRAP.                       NO: One line per depth step
~Well Information Block
STRT.FT               557.0000: 
STOP.FT              2136.0000: 
STEP.FT                 0.2500: 
NULL.                -999.2500: 
COMP.          Petrogulf Corporation: COMPANY
WELL.           Montoya 12-41R: WELL
FLD.           Purgatorie River: FIELD
LOC.           1086' FNL & 610' FEL: LOCATION
CNTY.               Las Animas: COUNTY
SRVC.                         : SERVICE COMPANY
DATE.          Thu Nov 18 06:03:03 2004: LOG DATE
UWI.           05 071 08241 00: UNIQUE WELL ID
STAT.                 Colorado: STATE
~Curve Information Block
DEPT.FT            0 000 00 00: Depth
SP.mV                         : DIL Spontaneous Potential
RILD.Ohm-m                    : DIL Deep Resistivity
RILM.Ohm-m                    : DIL Medium Resistivity
RLL3.Ohm-m                    : DIL Shallow Resistivity
GR.GAPI                       : Gamma Ray
~Parameter Information Block
~A  Depth        SP         RILD        RILM        RLL3         GR     
# ...
  1789.0000   -109.2318     24.3082     33.7182     59.3980     80.6539
  1789.2500   -110.9155     24.6323     34.6454     60.6484     78.6383
  1789.5000   -112.9428     24.7920     34.9637     61.2229     75.3638
  1789.7500   -115.1316     24.7274     34.6173     61.1159     72.8942
  1790.0000   -117.2583     24.3996     33.6475     60.2126     69.2694
  1790.2500   -119.0807     23.8045     32.1745     58.3383     67.6481
  1790.5000   -120.3721     22.9755     30.3610     55.3537     67.9191
  1790.7500   -120.9594     21.9756     28.3724     51.2559     70.4430
  1791.0000   -120.7654     20.8795     26.3490     46.2348     77.6641
  1791.2500   -119.8254     19.7580     24.3935     40.6596     84.2627
  1791.5000   -118.2899     18.6664     22.5711     34.9972     95.5268
  1791.7500   -116.3858     17.6420     20.9170     29.6992    103.0612
  1792.0000   -114.3736     16.7046     19.4439     25.1032    113.0545
  1792.2500   -112.4864     15.8617     18.1499     21.3847    118.3800
  1792.5000   -110.8895     15.1122     17.0241     18.5652    124.3375
  1792.7500   -109.6705     14.4502     16.0509     16.5576    127.2831
  1793.0000   -108.8447     13.8671     15.2127     15.2216    130.6320
  1793.2500   -108.3829     13.3547     14.4915     14.4046    131.9856
  1793.5000   -108.2389     12.9046     13.8702     13.9619    131.8371
  1793.7500   -108.3659     12.5104     13.3328     13.7623    130.0980
  1794.0000   -108.7253     12.1669     12.8654     13.6888    126.2347
  1794.2500   -109.2769     11.8709     12.4562     13.6418    124.1936
  1794.5000   -109.9752     11.6207     12.0956     13.5457    123.8610
  1794.7500   -110.7574     11.4161     11.7770     13.3568    125.6631
  1795.0000   -111.5423     11.2572     11.4966     13.0638    130.3727
  1795.2500   -112.2394     11.1447     11.2534     12.6839    134.0899
  1795.5000   -112.7598     11.0789     11.0494     12.2547    139.8071
  1795.7500   -113.0443     11.0597     10.8886     11.8233    143.5353
  1796.0000   -113.0819     11.0863     10.7770     11.4379    148.5520
  1796.2500   -112.9203     11.1580     10.7214     11.1446    151.0901
  1796.5000   -112.6611     11.2731     10.7291     10.9876    152.9450
  1796.7500   -112.4308     11.4304     10.8073     11.0123    152.6550
  1797.0000   -112.3390     11.6283     10.9631     11.2697    150.3960
  1797.2500   -112.4381     11.8656     11.2031     11.8184    148.4637
  1797.5000   -112.7004     12.1409     11.5337     12.7258    146.2158
  1797.7500   -113.0193     12.4532     11.9612     14.0676    145.2898
  1798.0000   -113.2393     12.8017     12.4918     15.9272    143.9820
  1798.2500   -113.2052     13.1858     13.1318     18.3990    142.5854
  1798.5000   -112.8054     13.6052     13.8869     21.5831    139.0783
  1798.7500   -112.0045     14.0586     14.7609     25.5663    135.6454
  1799.0000   -110.8541     14.5431     15.7541     30.3870    128.8436
  1799.2500   -109.4778     15.0517     16.8591     35.9869    123.4061
  1799.5000   -108.0449     15.5715     18.0565     42.1715    114.7064
  1799.7500   -106.7341     16.0822     19.3074     48.5977    109.1954
  1800.0000   -105.7074     16.5549     20.5476     54.7987    102.4157
  1800.2500   -105.0831     16.9541     21.6847     60.2392     99.3102
  1800.5000   -104.9289     17.2419     22.6047     64.3846     96.9935
  1800.7500   -105.2628     17.3853     23.1919     66.7693     96.7986
  1801.0000   -106.0455     17.3628     23.3597     67.0620     97.7454
  1801.2500   -107.1946     17.1706     23.0798     65.1261     98.7290
  1801.5000   -108.5846     16.8238     22.3946     61.0687    100.4416
  1801.7500   -110.0680     16.3526     21.4023     55.2587    102.0576
  1802.0000   -111.4937     15.7961     20.2243     48.2898    106.4429
  1802.2500   -112.7395     15.1943     18.9755     40.8821    111.4067
  1802.5000   -113.7370     14.5823     17.7439     33.7431    122.0719
  1802.7500   -114.4818     13.9872     16.5873     27.4338    130.4436
  1803.0000   -115.0227     13.4275     15.5372     22.2828    142.3028
  1803.2500   -115.4418     12.9139     14.6065     18.3737    148.3860
  1803.5000   -115.8105     12.4516     13.7976     15.5942    153.7663
  1803.7500   -116.1661     12.0422     13.1066     13.7212    155.1731
  1804.0000   -116.4953     11.6859     12.5281     12.5036    155.7660
  1804.2500   -116.7432     11.3826     12.0559     11.7212    156.3781
  1804.5000   -116.8344     11.1324     11.6841     11.2136    158.7022
  1804.7500   -116.7053     10.9356     11.4076     10.8826    160.8694
  1805.0000   -116.3230     10.7923     11.2212     10.6823    163.7989
  1805.2500   -115.6943     10.7017     11.1202     10.6042    165.0874
  1805.5000   -114.8545     10.6614     11.0999     10.6623    165.6966
  1805.7500   -113.8545     10.6670     11.1548     10.8827    164.8699
  1806.0000   -112.7418     10.7119     11.2791     11.2953    161.0495
  1806.2500   -111.5561     10.7876     11.4653     11.9234    156.8274
  1806.5000   -110.3322     10.8844     11.7036     12.7737    149.2339
  1806.7500   -109.1121     10.9922     11.9811     13.8251    144.3267
  1807.0000   -107.9506     11.1013     12.2811     15.0182    138.2955
  1807.2500   -106.9064     11.2034     12.5824     16.2528    135.1369
  1807.5000   -106.0287     11.2920     12.8599     17.3946    130.7106
  1807.7500   -105.3289     11.3624     13.0870     18.2955    127.3685
  1808.0000   -104.7675     11.4112     13.2385     18.8212    121.9081
  1808.2500   -104.2547     11.4358     13.2951     18.8834    118.8375
  1808.5000   -103.6753     11.4339     13.2476     18.4651    116.8510
  1808.7500   -102.9317     11.4032     13.0986     17.6298    117.8698
  1809.0000   -101.9827     11.3417     12.8619     16.5097    122.9160
  1809.2500   -100.8792     11.2483     12.5590     15.2736    128.0913
  1809.5000    -99.7570     11.1233     12.2150     14.0848    136.8357
  1809.7500    -98.8152     10.9695     11.8545     13.0626    142.0369
  1810.0000    -98.2667     10.7919     11.4984     12.2605    147.1631
  1810.2500    -98.2901     10.5981     11.1635     11.6680    148.6156
  1810.5000    -98.9878     10.3969     10.8615     11.2314    149.0297
  1810.7500   -100.3622     10.1979     10.6003     10.8848    149.0455
  1811.0000   -102.3157     10.0102     10.3848     10.5766    149.5120
  1811.2500   -104.6605      9.8417     10.2170     10.2852    150.1872
  1811.5000   -107.1403      9.6985     10.0974     10.0194    151.6543
  1811.7500   -109.4639      9.5846     10.0247      9.8091    152.8211
  1812.0000   -111.3446      9.5024      9.9961      9.6887    154.4487
  1812.2500   -112.5476      9.4526     10.0072      9.6830    155.0148
  1812.5000   -112.9369      9.4345     10.0526      9.7963    153.8565
  1812.7500   -112.5100      9.4464     10.1251     10.0106    151.0320
  1813.0000   -111.4054      9.4859     10.2171     10.2901    143.7535
  1813.2500   -109.8786      9.5501     10.3203     10.5910    137.9612
  1813.5000   -108.2482      9.6354     10.4274     10.8728    130.5478
  1813.7500   -106.8247      9.7381     10.5321     11.1062    127.5700
  1814.0000   -105.8380      9.8540     10.6306     11.2758    126.3109
  1814.2500   -105.3937      9.9789     10.7216     11.3780    126.9986
  1814.5000   -105.4608     10.1085     10.8061     11.4166    128.8668
  1814.7500   -105.8977     10.2389     10.8874     11.4000    129.9860
  1815.0000   -106.5066     10.3667     10.9699     11.3399    130.8549
  1815.2500   -107.0986     10.4896     11.0584     11.2548    130.7252
  1815.5000   -107.5411     10.6064     11.1572     11.1701    129.1789
  1815.7500   -107.7860     10.7171     11.2694     11.1170    127.2182
  1816.0000   -107.8633     10.8234     11.3969     11.1261    123.6895
  1816.2500   -107.8551     10.9275     11.5402     11.2195    121.8366
  1816.5000   -107.8622     11.0328     11.6986     11.4041    120.8151
  1816.7500   -107.9718     11.1422     11.8707     11.6687    121.0612
