~Version Information
VERS.                      2.0: CWLS Log ASCII Standard - VERSION 2.0
WRAP.                       NO: One line per depth step
~Well Information Block
STRT.FT               260.0000: 
STOP.FT              2272.0000: 
STEP.FT                 0.2500: 
NULL.                -999.2500: 
COMP.          Pioneer Natural Resources: COMPANY
WELL.            Moo Moo 31-36: WELL
FLD.           Purgatoire River: FIELD
LOC.           612' FNL & 2326' FEL: LOCATION
PROV.                 Colorado: PROVINCE
CNTY.               Las Animas: COUNTRY
SRVC.                Patterson: SERVICE COMPANY
DATE.          Fri Jun 17 07:45:39 2005: LOG DATE
UWI.           05 071 08395 00: UNIQUE WELL ID
~Curve Information Block
DEPT.FT            0 000 00 00: Depth
DIR.Ohm-m                     : IEL Induction Resistivity
SN.Ohm-m                      : IEL Short Normal
SP.mV                         : IEL Spontaneous Potential
GR.GAPI                       : Gamma Ray
~Parameter Information Block
~A  Depth       DIR          SN          SP          GR     
# ...
  1432.5000      9.5608     11.2096    194.3341    162.1843
  1432.7500      9.5333     11.5054    194.6349    156.8665
  1433.0000      9.5094     11.8446    194.9987    148.0916
  1433.2500      9.5000     12.1464    195.3330    143.0762
  1433.5000      9.5070     12.3211    195.5543    139.3024
  1433.7500      9.5232     12.3711    195.6298    140.0268
  1434.0000      9.5390     12.3806    195.5759    145.4810
  1434.2500      9.5485     12.4081    195.4319    151.0813
  1434.5000      9.5520     12.4122    195.2360    160.5196
  1434.7500      9.5533     12.2783    195.0123    166.5063
  1435.0000      9.5563     11.9608    194.7638    173.9345
  1435.2500      9.5657     11.5706    194.4756    177.7176
  1435.5000      9.5885     11.2275    194.1246    181.9355
  1435.7500      9.6338     10.9428    193.6848    183.7903
  1436.0000      9.7099     10.6905    193.1311    184.4323
  1436.2500      9.8223     10.4704    192.4577    182.9134
  1436.5000      9.9736     10.3490    191.7083    177.5591
  1436.7500     10.1657     10.4851    190.9789    172.3176
  1437.0000     10.4006     10.9961    190.3757    162.7557
  1437.2500     10.6798     11.8264    189.9597    155.6074
  1437.5000     11.0014     12.8412    189.7326    144.3822
  1437.7500     11.3604     14.0205    189.6684    137.0845
  1438.0000     11.7508     15.4501    189.7419    127.3467
  1438.2500     12.1678     17.1048    189.9192    122.1262
  1438.5000     12.6067     18.7315    190.1361    117.0710
  1438.7500     13.0587     19.9441    190.3086    116.1926
  1439.0000     13.5074     20.4734    190.3794    119.3356
  1439.2500     13.9261     20.3307    190.3513    123.9868
  1439.5000     14.2780     19.7061    190.2769    132.2129
  1439.7500     14.5219     18.8521    190.2195    136.4885
  1440.0000     14.6229     17.9779    190.2239    138.7442
  1440.2500     14.5648     17.0930    190.3067    137.6710
  1440.5000     14.3595     16.1521    190.4516    134.8353
  1440.7500     14.0480     15.3579    190.5971    133.7991
  1441.0000     13.6914     15.0279    190.6453    134.8031
  1441.2500     13.3520     15.2243    190.5050    137.0863
  1441.5000     13.0729     15.7188    190.1405    142.2961
  1441.7500     12.8670     16.2151    189.5878    146.4066
  1442.0000     12.7185     16.5138    188.9405    152.0693
  1442.2500     12.5945     16.5510    188.3268    154.6082
  1442.5000     12.4602     16.3353    187.8726    155.6805
  1442.7500     12.2937     15.8844    187.6524    154.5365
  1443.0000     12.0934     15.2457    187.6587    150.5726
  1443.2500     11.8767     14.5350    187.8231    147.1530
  1443.5000     11.6721     13.9244    188.0585    142.9577
  1443.7500     11.5079     13.5649    188.2727    142.1106
  1444.0000     11.4028     13.4898    188.3611    144.8157
  1444.2500     11.3590     13.6365    188.2276    148.8410
  1444.5000     11.3605     13.9291    187.8368    156.5074
  1444.7500     11.3764     14.2553    187.2463    161.7705
  1445.0000     11.3705     14.4171    186.5820    168.9070
  1445.2500     11.3136     14.2266    185.9820    172.9193
  1445.5000     11.1910     13.7023    185.5431    177.5804
  1445.7500     11.0038     13.0962    185.2901    179.3887
  1446.0000     10.7661     12.6562    185.1717    179.0819
  1446.2500     10.5013     12.4533    185.0899    176.7296
  1446.5000     10.2387     12.4563    184.9535    171.8192
  1446.7500     10.0084     12.6067    184.7236    169.5086
  1447.0000      9.8366     12.8035    184.4220    169.8552
  1447.2500      9.7413     12.9434    184.0991    172.6064
  1447.5000      9.7292     12.9951    183.7927    178.2833
  1447.7500      9.7955     12.9670    183.5091    181.3494
  1448.0000      9.9267     12.8612    183.2376    182.9106
  1448.2500     10.1061     12.7251    182.9790    182.0447
  1448.5000     10.3183     12.6700    182.7701    179.7770
  1448.7500     10.5528     12.7527    182.6989    178.5678
  1449.0000     10.8041     12.8736    182.8891    176.7317
  1449.2500     11.0720     12.9626    183.4428    174.2531
  1449.5000     11.3618     13.1753    184.3857    167.0131
  1449.7500     11.6853     13.6401    185.6844    159.8903
  1450.0000     12.0600     14.2294    187.3207    147.1920
  1450.2500     12.5058     14.7990    189.3163    138.4756
  1450.5000     13.0418     15.4137    191.6459    126.9134
  1450.7500     13.6848     16.1994    194.1268    121.1987
  1451.0000     14.4510     17.1570    196.4284    116.4621
  1451.2500     15.3560     18.2063    198.2233    115.4963
  1451.5000     16.4062     19.2450    199.3580    115.4641
  1451.7500     17.5799     20.1213    199.9018    115.2624
  1452.0000     18.8115     20.6828    200.0583    114.0152
  1452.2500     20.0003     20.9000    200.0402    112.9857
  1452.5000     21.0494     20.9394    199.9991    112.2508
  1452.7500     21.9085     21.0959    200.0163    112.4914
  1453.0000     22.5883     21.5778    200.1162    113.2217
  1453.2500     23.1435     22.3504    200.2817    113.2430
  1453.5000     23.6454     23.2234    200.4706    111.7546
  1453.7500     24.1560     24.0242    200.6336    109.9264
  1454.0000     24.7055     24.7079    200.7259    107.4901
  1454.2500     25.2827     25.3754    200.7159    107.2041
  1454.5000     25.8480     26.0652    200.5934    109.7097
  1454.7500     26.3616     26.6359    200.3757    112.8830
  1455.0000     26.8032     27.0038    200.1048    117.6914
  1455.2500     27.1665     27.2451    199.8351    119.4194
  1455.5000     27.4410     27.4252    199.6138    118.4415
  1455.7500     27.6080     27.5816    199.4644    115.9089
  1456.0000     27.6565     27.7631    199.3832    111.5768
  1456.2500     27.5983     27.9407    199.3443    109.3942
  1456.5000     27.4671     28.0482    199.3095    107.4989
  1456.7500     27.3048     28.0758    199.2380    106.9193
  1457.0000     27.1558     28.0024    199.0990    107.0556
  1457.2500     27.0665     27.8120    198.8798    108.0140
  1457.5000     27.0803     27.5678    198.5831    110.7213
  1457.7500     27.2252     27.3426    198.2180    112.9075
  1458.0000     27.4959     27.1768    197.7939    115.3486
  1458.2500     27.8384     27.1042    197.3212    115.6173
  1458.5000     28.1429     27.1308    196.8121    113.4810
  1458.7500     28.2701     27.2051    196.2855    110.6680
  1459.0000     28.1274     27.2654    195.7753    105.3877
  1459.2500     27.7514     27.3149    195.3290    101.8603
  1459.5000     27.3038     27.3972    194.9790     97.8514
  1459.7500     26.9673     27.5237    194.7119     96.5658
  1460.0000     26.8317     27.6798    194.4734     96.7524
  1460.2500     26.8511     27.8246    194.2196     98.0252
  1460.5000     26.8819     27.8737    193.9638    101.4654
  1460.7500     26.7729     27.7814    193.7718    104.6990
  1461.0000     26.4512     27.5898    193.7115    110.0350
  1461.2500     25.9436     27.3271    193.8057    112.8850
  1461.5000     25.3282     26.9231    194.0242    114.5753
  1461.7500     24.6712     26.2791    194.3106    113.9142
  1462.0000     24.0018     25.4225    194.6145    111.7998
  1462.2500     23.3255     24.5619    194.9024    110.9129
  1462.5000     22.6459     23.9003    195.1456    111.6523
  1462.7500     21.9709     23.4073    195.3082    113.4925
  1463.0000     21.3071     22.9376    195.3564    117.5219
  1463.2500     20.6599     22.4549    195.2840    120.5337
  1463.5000     20.0399     21.9166    195.1201    124.7303
  1463.7500     19.4667     21.2056    194.9059    127.0989
  1464.0000     18.9613     20.3796    194.6661    130.2578
  1464.2500     18.5360     19.7196    194.4011    132.2409
  1464.5000     18.1949     19.4089    194.1002    134.6361
  1464.7500     17.9422     19.3475    193.7697    135.5178
  1465.0000     17.7907     19.3519    193.4713    135.8427
  1465.2500     17.7590     19.3654    193.3385    135.7099
  1465.5000     17.8625     19.4371    193.5239    135.1293
  1465.7500     18.1014     19.6434    194.0794    134.1570
