~Version Information
 VERS.                                  2.0 : CWLS LAS VERSION
 WRAP.                                   NO : WRAPING MODE
 SWARE .                 MController 2.5.0E : SOFTWARE VERSION
~Well Information
 WELL.                         Burson 8-31r : WELL
 COMP.                      Petrogulf CORP. : COMPANY
 FLD.                       Purgatory River : FIELD
 LOC.                        NWNE 8 33S 67W : LOCATION
 DATE.                         4/28-4/29/04 : DATE(S) LOGGED
 SRVC.                                  BGS : SERVICE COMPANY
 STAT.                             Colorado : STATE
 CNTY.                           Las Animas : COUNTY
 CTRY.                        United States : COUNTRY
 API.                       05-071-08039-00 : API NUMBER
 STRT.FT                              41.00 : START DEPTH
 STOP.FT                            2225.00 : STOP DEPTH
 STEP.FT                               1.00 : DEPTH INCREMENT
 NULL.                                -9999 : NULL VALUE
~Curve information
 DEPTH.FT                                   :
 ROP.MIN/FT                                 :
 GAS.UNITS                                  :
~ASCII Log data
# ...
     1241.00        0.200          3.7 
     1242.00        0.200          3.6 
     1243.00        0.167          3.4 
     1244.00        0.200          3.8 
     1245.00        0.167          4.0 
     1246.00        0.167          4.1 
     1247.00        0.133          5.2 
     1248.00        0.133          5.6 
     1249.00        0.150          5.9 
     1250.00        0.200          5.5 
     1251.00        0.200          5.0 
     1252.00        0.267          4.5 
     1253.00        0.267          3.7 
     1254.00        0.267          3.8 
     1255.00        0.167          3.6 
     1256.00        4.517        248.0 
     1257.00        0.300          2.6 
     1258.00        0.300          2.3 
     1259.00        0.317          2.4 
     1260.00        0.200          2.5 
     1261.00        0.267          2.6 
     1262.00        0.367          2.9 
     1263.00        0.300          3.2 
     1264.00        0.333          3.2 
     1265.00        0.100          3.0 
     1266.00        0.267          3.1 
     1267.00        0.233          3.5 
     1268.00        0.233          3.3 
     1269.00        0.233          3.1 
     1270.00        0.233          4.3 
     1271.00        0.167          7.0 
     1272.00        0.133          8.6 
     1273.00        0.150          9.2 
     1274.00        0.100          9.9 
     1275.00        0.133          8.9 
     1276.00        0.167          8.1 
     1277.00        0.200          7.1 
     1278.00        0.200          5.3 
     1279.00        0.200          4.4 
     1280.00        0.200          4.0 
     1281.00        0.167          3.9 
     1282.00        0.167          3.7 
     1283.00        0.167          3.2 
     1284.00        0.200          3.3 
     1285.00        0.167          3.8 
     1286.00        2.350         10.7 
     1287.00        0.100          9.2 
     1288.00        0.300          9.9 
     1289.00        0.300          9.3 
     1290.00        0.233          8.7 
     1291.00        0.200          8.8 
     1292.00        0.267          8.4 
     1293.00        0.233          6.8 
     1294.00        0.233          6.1 
     1295.00        0.233          5.3 
     1296.00        0.217          4.8 
     1297.00        0.267          4.9 
     1298.00        0.233          4.7 
     1299.00        0.233          4.9 
     1300.00        0.167          4.6 
     1301.00        0.267          4.7 
     1302.00        0.233          5.2 
     1303.00        0.200          6.6 
     1304.00        0.100          6.4 
     1305.00        0.133          6.8 
     1306.00        0.200          6.3 
     1307.00        0.200          5.8 
     1308.00        0.200          5.5 
     1309.00        0.233          5.5 
     1310.00        0.200          4.9 
     1311.00        0.200          4.6 
     1312.00        0.200          4.5 
     1313.00        0.250          4.7 
     1314.00        0.167          4.8 
     1315.00        0.167          5.3 
     1316.00        2.667         12.1 
     1317.00        0.067          7.8 
     1318.00        0.250          8.1 
     1319.00        0.367          7.2 
     1320.00        0.267          6.0 
     1321.00        0.233          4.9 
     1322.00        0.300          4.8 
     1323.00        0.300          4.2 
     1324.00        0.233          3.8 
     1325.00        0.200          3.7 
     1326.00        0.200          4.0 
     1327.00        0.233          3.7 
     1328.00        0.233          3.6 
     1329.00        0.233          4.2 
     1330.00        0.133          5.3 
     1331.00        0.133          5.3 
     1332.00        0.117          6.1 
     1333.00        0.233          5.6 
     1334.00        0.200          5.3 
     1335.00        0.167          4.1 
     1336.00        0.200          4.6 
     1337.00        0.233          3.7 
     1338.00        0.200          4.0 
     1339.00        0.300          3.6 
     1340.00        0.300          3.8 
     1341.00        0.233          3.6 
     1342.00        0.200          3.4 
     1343.00        0.233          3.9 
     1344.00        0.233          3.5 
     1345.00        0.233          3.6 
     1346.00        5.200         14.0 
     1347.00        0.267          5.1 
     1348.00        0.267          4.4 
     1349.00        0.267          4.1 
     1350.00        0.400          4.0 
     1351.00        0.300          4.0 
     1352.00        0.267          3.3 
     1353.00        0.283          3.5 
     1354.00        0.333          3.7 
     1355.00        0.233          3.5 
     1356.00        0.200          3.5 
     1357.00        0.233          5.2 
     1358.00        0.200          7.6 
     1359.00        0.100          8.1 
     1360.00        0.133          7.6 
     1361.00        0.200          7.6 
     1362.00        0.233         10.0 
     1363.00        0.167         15.2 
     1364.00        0.133         19.0 
     1365.00        0.133         21.6 
     1366.00        0.133         22.5 
     1367.00        0.100         21.5 
     1368.00        0.167         20.3 
     1369.00        0.167         18.2 
     1370.00        0.233         15.1 
     1371.00        0.217         11.2 
     1372.00        0.200          9.1 
     1373.00        0.200          6.7 
     1374.00        0.267          4.8 
     1375.00        0.133          4.3 
     1376.00        1.333         26.9 
     1377.00        0.467         40.7 
     1378.00        0.100         42.5 
     1379.00        0.400         43.4 
     1380.00        0.117         26.4 
     1381.00        0.200         19.8 
     1382.00        0.167         16.3 
     1383.00        0.367         13.9 
     1384.00        0.267         14.0 
     1385.00        0.167         14.0 
     1386.00        0.267         13.1 
     1387.00        0.100          9.8 
     1388.00        0.367          8.8 
     1389.00        0.267          7.2 
     1390.00        0.300          6.2 
     1391.00        0.400          5.1 
     1392.00        0.300          4.0 
     1393.00        0.317          3.9 
     1394.00        0.300          3.9 
     1395.00        0.200          3.7 
     1396.00        0.333          3.6 
     1397.00        0.100          3.8 
     1398.00        0.300          4.0 
     1399.00        0.200          4.6 
     1400.00        0.300          5.6 
     1401.00        0.400          5.1 
     1402.00        0.133          3.8 
     1403.00        0.267          4.3 
     1404.00        0.267          5.4 
     1405.00        0.233          9.5 
     1406.00       10.033         65.5 
     1407.00        0.100          7.1 
     1408.00        0.267          8.3 
     1409.00        0.333          7.7 
     1410.00        0.367          7.2 
     1411.00        0.500          5.7 
     1412.00        0.367          5.1 
     1413.00        0.300          5.4 
     1414.00        0.333          4.9 
     1415.00        0.300          4.5 
     1416.00        0.333          5.2 
     1417.00        0.283          9.2 
     1418.00        0.167         13.0 
     1419.00        0.133         21.4 
     1420.00        0.133         28.7 
     1421.00        0.133         33.3 
     1422.00        0.100         35.1 
     1423.00        0.067         39.9 
     1424.00        0.100         41.5 
     1425.00        0.167         46.1 
     1426.00        0.067         47.3 
     1427.00        0.267         49.1 
     1428.00        0.233         48.4 
     1429.00        0.267         40.7 
     1430.00        0.233         34.9 
     1431.00        0.267         27.7 
     1432.00        0.233         22.9 
     1433.00        0.233         18.1 
     1434.00        0.267         16.6 
     1435.00        0.217         14.4 
     1436.00        5.317         51.5 
     1437.00        0.400         15.4 
     1438.00        0.267         11.7 
     1439.00        0.267         10.8 
     1440.00        0.233         10.9 
