~Version Information
VERS.                      2.0: CWLS Log ASCII Standard - VERSION 2.0
WRAP.                       NO: One line per depth step
~Well Information Block
STRT.FT               340.0000: 
STOP.FT              1542.5000: 
STEP.FT                 0.1000: 
NULL.                -999.2500: 
COMP.          Petrogulf Corporation: COMPANY
WELL.            Montoya 7-21R: WELL
FLD.           Purgatorie River: FIELD
LOC.           445' FNL & 1942' FWL: LOCATION
PROV.                 Colorado: PROVINCE
CNTY.               Las Animas: COUNTRY
SRVC.                Patterson: SERVICE COMPANY
DATE.          Thu Sep 15 10:33:27 2005: LOG DATE
UWI.                          : UNIQUE WELL ID
~Curve Information Block
DEPT.FT            0 000 00 00: Depth
DCAL.in                       : CDL Caliper
RHOB.g/cc                     : CDL Bulk Density
RHOC.g/cc                     : CDL Density Correction
DPOR.pu                       : CDL Density Porosity
GR.GAPI                       : Gamma Ray
NPOR.pu                       : Neutron Porosity
~Parameter Information Block
~A  Depth       DCAL        RHOB        RHOC        DPOR         GR         NPOR    
   340.0000      8.1684      1.9468     -0.5121     42.6171     85.2805     42.1831
   340.1000      8.1684      1.9537     -0.5352     42.2020     88.3312     42.1559
   340.2000      8.1684      1.9561     -0.4685     42.0547     95.1248     42.1863
   340.3000      8.1705      1.9442     -0.5142     42.7758    100.4343     42.3476
   340.4000      8.1705      1.9311     -0.5250     43.5680    100.5929     42.6132
   340.5000      8.1719      1.9333     -0.5043     43.4347     99.9209     42.8771
   340.6000      8.1719      1.9456     -0.4568     42.6939    102.9619     42.9435
   340.7000      8.1719      1.9559     -0.4838     42.0696    106.4724     42.6937
   340.8000      8.1741      1.9626     -0.4762     41.6600    106.2398     42.2649
   340.9000      8.1741      1.9646     -0.4579     41.5365    103.3535     41.9063
   341.0000      8.1824      1.9629     -0.5110     41.6414    101.6171     41.8536
   341.1000      8.1824      1.9608     -0.4762     41.7697    103.8473     42.1482
   341.2000      8.1824      1.9649     -0.5409     41.5204    108.8159     42.4795
   341.3000      8.1897      1.9827     -0.4481     40.4414    112.5692     42.6568
   341.4000      8.1897      2.0041     -0.4628     39.1425    113.7215     42.7459
   341.5000      8.1834      2.0141     -0.4344     38.5376    113.5851     42.6725
   341.6000      8.1834      2.0092     -0.4632     38.8387    113.2121     42.4977
   341.7000      8.1834      1.9961     -0.5277     39.6282    113.4776     42.4835
   341.8000      8.1830      1.9821     -0.4673     40.4795    112.9836     42.6159
   341.9000      8.1830      1.9689     -0.5256     41.2772    109.7882     42.7786
   342.0000      8.1866      1.9641     -0.5404     41.5713    106.3054     42.9126
   342.1000      8.1866      1.9717     -0.5240     41.1086    105.3668     42.9697
   342.2000      8.1866      1.9741     -0.4536     40.9614    106.8091     42.9793
   342.3000      8.1829      1.9560     -0.5159     42.0635    110.6490     43.0220
   342.4000      8.1829      1.9327     -0.5335     43.4741    114.4024     43.2310
   342.5000      8.1816      1.9212     -0.5159     44.1723    113.4172     43.4610
   342.6000      8.1816      1.9159     -0.5174     44.4902    109.9470     43.4116
   342.7000      8.1816      1.9111     -0.5503     44.7794    108.6591     43.2453
   342.8000      8.1831      1.9142     -0.5899     44.5947    108.5010     43.2173
   342.9000      8.1831      1.9333     -0.5470     43.4373    108.8424     43.2570
   343.0000      8.1797      1.9623     -0.4774     41.6758    111.1205     43.3354
   343.1000      8.1797      1.9903     -0.5152     39.9800    114.5925     43.4543
   343.2000      8.1797      2.0170     -0.4667     38.3662    116.8422     43.4869
   343.3000      8.1744      2.0389     -0.4368     37.0389    117.0789     43.4488
   343.4000      8.1744      2.0494     -0.4895     36.3970    116.9068     43.4418
   343.5000      8.1695      2.0490     -0.4456     36.4227    118.5213     43.3430
   343.6000      8.1695      2.0364     -0.5166     37.1872    121.3036     43.0578
   343.7000      8.1695      2.0174     -0.5335     38.3391    121.7526     42.7847
   343.8000      8.1764      2.0051     -0.5009     39.0845    117.8796     42.7237
   343.9000      8.1764      2.0063     -0.5534     39.0134    111.6652     42.9259
   344.0000      8.1872      2.0167     -0.5130     38.3832    107.3539     43.2433
   344.1000      8.1872      2.0174     -0.4541     38.3380    106.5191     43.4502
   344.2000      8.1872      2.0000     -0.5006     39.3909    107.6021     43.4090
   344.3000      8.1866      1.9784     -0.5277     40.7025    108.9620     43.1183
   344.4000      8.1866      1.9519     -0.4883     42.3117    110.5620     42.7938
   344.5000      8.1935      1.9136     -0.5552     44.6286    110.5845     42.6462
   344.6000      8.1935      1.8855     -0.6032     46.3328    107.0007     42.6380
   344.7000      8.1935      1.8867     -0.5599     46.2581    103.0691     42.7300
   344.8000      8.1871      1.9045     -0.5064     45.1833    102.9951     42.8972
   344.9000      8.1871      1.9204     -0.5319     44.2165    105.2972     43.1090
   345.0000      8.1846      1.9303     -0.5122     43.6185    105.2246     43.3227
   345.1000      8.1846      1.9342     -0.5390     43.3789    102.9122     43.2967
   345.2000      8.1846      1.9441     -0.5631     42.7801    101.7972     43.0400
   345.3000      8.1885      1.9779     -0.5495     40.7331    102.5663     42.9442
   345.4000      8.1885      2.0340     -0.4889     37.3361    103.5073     43.2182
   345.5000      8.1894      2.0967     -0.4825     33.5358    104.3492     43.5980
   345.6000      8.1894      2.1547     -0.4119     30.0195    105.9387     43.6567
   345.7000      8.1894      2.2059     -0.4650     26.9158    107.4812     43.4826
   345.8000      8.1921      2.2501     -0.3983     24.2378    106.8953     43.3930
   345.9000      8.1921      2.2715     -0.3700     22.9406    102.7687     43.3392
   346.0000      8.1893      2.2654     -0.4273     23.3062     97.9889     43.1871
   346.1000      8.1893      2.2563     -0.4254     23.8607     97.5470     42.9061
   346.2000      8.1893      2.2557     -0.3957     23.8947    101.5582     42.5397
   346.3000      8.1877      2.2555     -0.4245     23.9095    105.6168     42.2003
   346.4000      8.1877      2.2542     -0.4548     23.9890    107.2419     42.0169
   346.5000      8.1865      2.2486     -0.4252     24.3301    107.8060     42.0935
   346.6000      8.1865      2.2314     -0.4232     25.3713    109.0845     42.2552
   346.7000      8.1865      2.2168     -0.4977     26.2569    109.6968     42.1607
   346.8000      8.1862      2.2255     -0.4675     25.7302    106.8910     41.7933
   346.9000      8.1862      2.2468     -0.4007     24.4348    102.1306     41.3591
   347.0000      8.1849      2.2595     -0.4552     23.6641     99.2179     40.9644
   347.1000      8.1849      2.2593     -0.4321     23.6786     98.1491     40.7595
   347.2000      8.1849      2.2528     -0.4394     24.0716     97.3607     40.8652
   347.3000      8.1831      2.2594     -0.4836     23.6701     98.0295     41.1493
   347.4000      8.1831      2.2810     -0.3797     22.3621     99.4637     41.3938
   347.5000      8.1858      2.2881     -0.4386     21.9306     99.3460     41.4269
   347.6000      8.1858      2.2708     -0.3947     22.9831     98.7815     41.3023
   347.7000      8.1858      2.2541     -0.4888     23.9933     98.3134     41.1639
   347.8000      8.1848      2.2573     -0.4224     23.7981     96.6487     41.1301
   347.9000      8.1848      2.2639     -0.4171     23.3982     95.1337     41.3050
   348.0000      8.1818      2.2570     -0.4602     23.8177     94.5898     41.4346
   348.1000      8.1818      2.2475     -0.4332     24.3952     93.7737     41.4041
   348.2000      8.1818      2.2504     -0.4440     24.2200     94.2393     41.5019
   348.3000      8.1833      2.2690     -0.4569     23.0912     97.9898     41.6629
   348.4000      8.1833      2.2886     -0.3443     21.9025    103.1711     41.6166
   348.5000      8.1823      2.2893     -0.4089     21.8585    106.4583     41.4533
   348.6000      8.1823      2.2700     -0.4172     23.0289    106.3656     41.3845
   348.7000      8.1823      2.2406     -0.4548     24.8113    104.1951     41.3873
   348.8000      8.1807      2.2080     -0.4129     26.7860    101.7749     41.3592
   348.9000      8.1807      2.1810     -0.4424     28.4261     99.8880     41.2282
   349.0000      8.1835      2.1773     -0.4922     28.6498     99.8238     41.0233
   349.1000      8.1835      2.2012     -0.4084     27.2016    101.3914     40.8977
   349.2000      8.1835      2.2230     -0.3797     25.8766    103.3750     40.9261
   349.3000      8.1780      2.2160     -0.4286     26.3042    106.5169     41.0620
   349.4000      8.1780      2.1940     -0.5314     27.6367    110.6038     41.2931
   349.5000      8.1851      2.1872     -0.4966     28.0455    113.1607     41.6443
