~Version Information
VERS.                      2.0: CWLS Log ASCII Standard - VERSION 2.0
WRAP.                       NO: One line per depth step
~Well Information Block
STRT.FT               745.2500: 
STOP.FT              2003.5000: 
STEP.FT                 0.2500: 
NULL.                -999.2500: 
COMP.          Petrogulf Corporation: COMPANY
WELL.            Montoya 6-14V: WELL
FLD.           Purgatorie River: FIELD
LOC.           318' FSL & 882' FWL: LOCATION
CNTY.               Las Animas: COUNTY
SRVC.                         : SERVICE COMPANY
DATE.          Fri Aug 13 04:55:06 2004: LOG DATE
UWI.           05 071 08020 00: UNIQUE WELL ID
STAT.                 Colorado: STATE
~Curve Information Block
DEPT.FT            0 000 00 00: Depth
SP.mV                         : DIL Spontaneous Potential
RILD.Ohm-m                    : DIL Deep Resistivity
RILM.Ohm-m                    : DIL Medium Resistivity
RLL3.Ohm-m                    : DIL Shallow Resistivity
GR.GAPI                       : Gamma Ray
~Parameter Information Block
~A  Depth        SP         RILD        RILM        RLL3         GR     
# ...
   941.2500    -23.7894     28.8969     35.4752     34.3124    104.7111
   941.5000    -23.9923     29.3071     35.3256     32.5011    109.0270
   941.7500    -24.2024     29.7876     35.3931     31.2691    113.4499
   942.0000    -24.4172     30.2963     35.6834     30.8323    121.6924
   942.2500    -24.6298     30.7936     36.1965     31.3270    127.0998
   942.5000    -24.8312     31.2580     36.9284     32.8058    133.0350
   942.7500    -25.0121     31.6991     37.8733     35.2593    134.9269
   943.0000    -25.1635     32.1559     39.0256     38.6206    134.6420
   943.2500    -25.2762     32.6817     40.3813     42.7336    132.7155
   943.5000    -25.3402     33.3232     41.9397     47.3293    128.3103
   943.7500    -25.3430     34.1054     43.7034     52.0885    125.2212
   944.0000    -25.2704     35.0280     45.6759     56.8322    121.5233
   944.2500    -25.1069     36.0699     47.8572     61.7681    119.7561
   944.5000    -24.8391     37.2000     50.2349     67.6105    117.1065
   944.7500    -24.4576     38.3829     52.7730     75.3771    114.3463
   945.0000    -23.9599     39.5775     55.4008     85.8280    107.2557
   945.2500    -23.3510     40.7318     58.0040     98.7943    100.3014
   945.5000    -22.6430     41.7802     60.4241    112.8261     87.4597
   945.7500    -21.8544     42.6537     62.4705    125.4755     78.5043
   946.0000    -21.0079     43.2967     63.9441    134.1322     67.0773
   946.2500    -20.1296     43.6757     64.6713    136.9569     62.1276
   946.5000    -19.2480     43.7748     64.5425    133.4267     59.7088
   946.7500    -18.3932     43.5878     63.5376    124.3157     61.0997
   947.0000    -17.5962     43.1218     61.7331    111.2768     66.2813
   947.2500    -16.8864     42.4141     59.2867     96.3173     71.0913
   947.5000    -16.2889     41.5389     56.4008     81.3633     79.8904
   947.7500    -15.8220     40.5862     53.2840     67.9577     86.8967
   948.0000    -15.4943     39.6224     50.1171     57.0644     99.1281
   948.2500    -15.3046     38.6594     47.0378     48.9824    107.9559
   948.5000    -15.2422     37.6565     44.1382     43.4104    120.5606
   948.7500    -15.2897     36.5523     41.4725     39.6697    127.5409
   949.0000    -15.4255     35.3087     39.0684     37.0086    134.8235
   949.2500    -15.6274     33.9404     36.9369     34.8612    137.4000
   949.5000    -15.8743     32.5124     35.0779     32.9590    138.4474
   949.7500    -16.1481     31.1122     33.4836     31.2794    138.1901
   950.0000    -16.4341     29.8178     32.1390     29.9029    138.4002
   950.2500    -16.7205     28.6781     31.0223     28.8768    139.6906
   950.5000    -16.9989     27.7063     30.1047     28.1529    143.0115
   950.7500    -17.2631     26.8870     29.3525     27.6158    145.2422
   951.0000    -17.5097     26.1886     28.7286     27.1601    147.2487
   951.2500    -17.7379     25.5767     28.1956     26.7516    147.5329
   951.5000    -17.9495     25.0251     27.7190     26.4297    146.6511
   951.7500    -18.1489     24.5206     27.2696     26.2547    145.0048
   952.0000    -18.3420     24.0617     26.8247     26.2497    140.2641
   952.2500    -18.5361     23.6539     26.3693     26.3767    135.9337
   952.5000    -18.7373     23.3046     25.8956     26.5558    130.0710
   952.7500    -18.9502     23.0187     25.4028     26.6961    127.9706
   953.0000    -19.1763     22.7963     24.8975     26.7161    128.0206
   953.2500    -19.4138     22.6331     24.3927     26.5487    129.5197
   953.5000    -19.6592     22.5255     23.9084     26.1445    132.5697
   953.7500    -19.9083     22.4776     23.4698     25.4854    134.5787
   954.0000    -20.1585     22.5096     23.1058     24.6043    136.8497
   954.2500    -20.4100     22.6609     22.8471     23.5950    137.4125
   954.5000    -20.6654     22.9850     22.7246     22.6019    136.2197
   954.7500    -20.9286     23.5366     22.7683     21.7907    134.2613
   955.0000    -21.2014     24.3529     23.0070     21.3223    131.1344
   955.2500    -21.4812     25.4349     23.4689     21.3614    129.9841
   955.5000    -21.7588     26.7336     24.1811     22.1360    130.2084
   955.7500    -22.0187     28.1527     25.1694     24.0208    130.9313
   956.0000    -22.2402     29.5716     26.4576     27.5763    130.7849
   956.2500    -22.4013     30.8868     28.0640     33.4534    128.9234
   956.5000    -22.4817     32.0440     29.9985     42.1112    123.0108
   956.7500    -22.4663     33.0423     32.2572     53.4220    117.3521
   957.0000    -22.3465     33.9104     34.8167     66.4302    107.9453
   957.2500    -22.1203     34.6805     37.6286     79.5632    102.4363
   957.5000    -21.7907     35.3758     40.6123     91.3204     96.8951
   957.7500    -21.3636     36.0115     43.6501    100.9901     94.5894
   958.0000    -20.8454     36.5978     46.5837    108.7841     90.3025
   958.2500    -20.2424     37.1333     49.2194    115.2196     85.1041
   958.5000    -19.5609     37.5937     51.3489    120.2637     72.9900
   958.7500    -18.8090     37.9242     52.7885    122.9725     63.3555
   959.0000    -17.9994     38.0420     53.4259    121.9060     50.8251
   959.2500    -17.1509     37.8529     53.2528    115.9870     46.2126
   959.5000    -16.2892     37.2783     52.3618    105.2332     47.2104
   959.7500    -15.4456     36.2851     50.9079     90.9719     53.0003
   960.0000    -14.6536     34.9057     49.0564     75.4634     67.0249
   960.2500    -13.9445     33.2368     46.9428     61.1212     78.0482
   960.5000    -13.3431     31.4134     44.6584     49.6903     94.1265
   960.7500    -12.8649     29.5712     42.2571     41.7793    103.1337
   961.0000    -12.5145     27.8167     39.7757     36.9412    112.3092
   961.2500    -12.2869     26.2156     37.2517     34.1655    115.2803
   961.5000    -12.1689     24.7951     34.7330     32.4325    116.5516
   961.7500    -12.1420     23.5545     32.2771     31.0427    116.9523
   962.0000    -12.1844     22.4758     29.9437     29.6657    119.4316
   962.2500    -12.2732     21.5343     27.7855     28.2221    122.8616
   962.5000    -12.3861     20.7051     25.8418     26.7426    129.5533
   962.7500    -12.5021     19.9678     24.1363     25.2699    133.7095
   963.0000    -12.6038     19.3072     22.6784     23.8182    137.6923
   963.2500    -12.6774     18.7126     21.4656     22.3793    138.7160
   963.5000    -12.7139     18.1774     20.4864     20.9611    138.7589
   963.7500    -12.7087     17.6992     19.7224     19.6291    138.3436
   964.0000    -12.6613     17.2796     19.1501     18.5162    137.4220
   964.2500    -12.5741     16.9228     18.7422     17.7877    136.6976
   964.5000    -12.4516     16.6339     18.4695     17.5748    135.6856
   964.7500    -12.2996     16.4181     18.3033     17.9054    135.1109
   965.0000    -12.1249     16.2814     18.2188     18.6656    134.1557
   965.2500    -11.9354     16.2325     18.1982     19.6157    133.2580
   965.5000    -11.7401     16.2845     18.2337     20.4682    131.5604
   965.7500    -11.5497     16.4524     18.3274     21.0033    130.6009
   966.0000    -11.3758     16.7491     18.4897     21.1672    130.4524
   966.2500    -11.2309     17.1789     18.7360     21.1002    131.4818
   966.5000    -11.1273     17.7346     19.0814     21.0753    133.9458
   966.7500    -11.0770     18.3993     19.5374     21.3781    135.2834
   967.0000    -11.0916     19.1552     20.1090     22.1870    135.7083
   967.2500    -11.1820     19.9956     20.7926     23.5096    135.0298
   967.5000    -11.3569     20.9330     21.5768     25.2039    133.6992
   967.7500    -11.6215     21.9957     22.4433     27.0689    133.1670
   968.0000    -11.9751     23.2103     23.3704     28.9461    132.7784
   968.2500    -12.4099     24.5762     24.3355     30.7702    132.1962
   968.5000    -12.9112     26.0407     25.3181     32.5449    129.8732
   968.7500    -13.4588     27.4891     26.3004     34.2731    127.2500
   969.0000    -14.0310     28.7639     27.2669     35.9005    122.3094
