~Version Information
VERS.                      2.0: CWLS Log ASCII Standard - VERSION 2.0
WRAP.                       NO: One line per depth step
~Well Information Block
STRT.FT               235.0000: 
STOP.FT              1633.0000: 
STEP.FT                 0.1000: 
NULL.                -999.2500: 
COMP.          Petrogulf Corporation: COMPANY
WELL.             State 16-41R: WELL
FLD.           Purgatorie River: FIELD
LOC.           280' FNL & 907' FEL: LOCATION
PROV.                 Colorado: PROVINCE
CNTY.               Las Animas: COUNTRY
SRVC.                Patterson: SERVICE COMPANY
DATE.          Wed Oct 19 07:05:20 2005: LOG DATE
API.           05-071-08345    : API
~Curve Information Block
DEPT.FT            0 000 00 00: Depth
DCAL.in                       : CDL Caliper
RHOB.g/cc                     : CDL Bulk Density
RHOC.g/cc                     : CDL Density Correction
DPOR.pu                       : CDL Density Porosity
GR.GAPI                       : Gamma Ray
NPOR.pu                       : Neutron Porosity
~Parameter Information Block
~A  Depth       DCAL        RHOB        RHOC        DPOR         GR         NPOR    
# ...
  1521.4000      7.9067      2.3294      0.0053     19.4311    161.9856     28.4260
  1521.5000      7.8883      2.3602      0.0654     17.5630    157.9199     28.8408
  1521.6000      7.8883      2.4039      0.0887     14.9144    153.9435     29.2636
  1521.7000      7.8883      2.4442      0.1064     12.4721    155.1653     29.7878
  1521.8000      7.8958      2.4770      0.1253     10.4877    157.1349     30.3501
  1521.9000      7.8958      2.5009      0.1301      9.0361    157.5152     30.5062
  1522.0000      7.9153      2.5143      0.1105      8.2218    157.9639     30.0200
  1522.1000      7.9153      2.5262      0.1298      7.5000    159.1074     29.2698
  1522.2000      7.9153      2.5448      0.1073      6.3742    160.8611     28.6859
  1522.3000      7.9158      2.5555      0.1626      5.7271    162.1157     28.3844
  1522.4000      7.9158      2.5410      0.1073      6.6077    163.0212     28.3493
  1522.5000      7.9169      2.5175      0.0695      8.0325    166.2361     28.5842
  1522.6000      7.9169      2.5129      0.0601      8.3064    170.5212     28.9643
  1522.7000      7.9169      2.5282      0.1151      7.3789    171.9234     29.1705
  1522.8000      7.9248      2.5426      0.1135      6.5063    171.1863     29.0629
  1522.9000      7.9248      2.5429      0.0697      6.4908    172.4725     28.9408
  1523.0000      7.9023      2.5363      0.0908      6.8926    175.3570     28.9439
  1523.1000      7.9023      2.5396      0.0634      6.6892    176.9312     28.7009
  1523.2000      7.9023      2.5466      0.1374      6.2670    176.2450     28.1779
  1523.3000      7.8512      2.5301      0.0870      7.2661    173.4993     27.9380
  1523.4000      7.8512      2.4970      0.0480      9.2728    171.0391     28.1654
  1523.5000      7.8299      2.4791      0.0545     10.3576    169.9309     28.4528
  1523.6000      7.8299      2.4843      0.0582     10.0408    170.1179     28.5018
  1523.7000      7.8299      2.4874      0.0842      9.8570    172.0746     28.4438
  1523.8000      7.8464      2.4611      0.0495     11.4459    175.4824     28.4333
  1523.9000      7.8464      2.4110      0.0261     14.4862    179.8142     28.4796
  1524.0000      7.8980      2.3654     -0.0187     17.2514    181.9075     28.4652
  1524.1000      7.8980      2.3431      0.0024     18.6015    178.9380     28.3589
  1524.2000      7.8980      2.3434      0.0138     18.5831    174.3446     28.4450
  1524.3000      7.8641      2.3621      0.0304     17.4473    172.4123     28.7281
  1524.4000      7.8641      2.3974      0.0795     15.3119    171.0054     28.7662
  1524.5000      7.8137      2.4384      0.1179     12.8237    167.1488     28.5587
  1524.6000      7.8137      2.4743      0.1528     10.6491    163.5129     28.6243
  1524.7000      7.8137      2.5040      0.2085      8.8493    161.4365     29.0736
  1524.8000      7.8173      2.5244      0.2049      7.6112    158.8123     29.4113
  1524.9000      7.8173      2.5287      0.2218      7.3489    156.5640     29.3766
  1525.0000      7.8998      2.5149      0.1846      8.1865    155.8475     29.1173
  1525.1000      7.8998      2.4960      0.0972      9.3309    155.4193     28.7940
  1525.2000      7.8998      2.4899      0.0739      9.7055    156.6281     28.4665
  1525.3000      7.9196      2.4959      0.1090      9.3384    157.9335     28.2531
  1525.4000      7.9196      2.5019      0.1098      8.9780    156.4103     28.3238
  1525.5000      7.8221      2.5025      0.1017      8.9406    154.8596     28.5285
  1525.6000      7.8221      2.5042      0.0785      8.8380    153.0416     28.4926
  1525.7000      7.8221      2.5140      0.0997      8.2449    147.0012     28.1046
  1525.8000      7.8313      2.5281      0.0638      7.3865    141.2378     27.6411
  1525.9000      7.8313      2.5358      0.0880      6.9218    142.4535     27.4332
  1526.0000      7.9555      2.5301      0.0648      7.2650    147.1200     27.5377
  1526.1000      7.9555      2.5190      0.0676      7.9413    149.5520     27.7870
  1526.2000      7.9555      2.5126      0.1150      8.3287    148.7354     27.9797
  1526.3000      7.9145      2.5051      0.1292      8.7800    144.6973     27.9100
  1526.4000      7.9145      2.4881      0.0972      9.8119    139.8254     27.4697
  1526.5000      7.8955      2.4669      0.0719     11.0948    138.1152     27.0016
  1526.6000      7.8955      2.4519      0.1043     12.0061    140.2926     26.8590
  1526.7000      7.8955      2.4481      0.1199     12.2374    143.4544     27.0088
  1526.8000      7.8575      2.4597      0.1389     11.5310    145.4869     27.2228
  1526.9000      7.8575      2.4838      0.1771     10.0745    144.8739     27.3188
  1527.0000      7.8917      2.5055      0.1723      8.7589    139.8359     27.3945
  1527.1000      7.8917      2.5187      0.1252      7.9547    133.6499     27.6112
  1527.2000      7.8917      2.5341      0.1751      7.0217    133.1456     27.8215
  1527.3000      8.1822      2.5608      0.2545      5.4035    138.4306     27.9013
  1527.4000      8.1822      2.5928      0.2804      3.4662    143.1593     27.9896
  1527.5000      8.1845      2.6145      0.2596      2.1522    144.8961     28.1748
  1527.6000      8.1845      2.6159      0.1974      2.0644    143.5210     28.3523
  1527.7000      8.1845      2.6057      0.1139      2.6828    137.7950     28.3536
  1527.8000      7.8586      2.6065      0.0846      2.6372    131.4179     28.2468
  1527.9000      7.8586      2.6238      0.1324      1.5863    129.3651     28.1670
  1528.0000      7.8055      2.6377      0.1058      0.7455    129.8499     28.1308
  1528.1000      7.8055      2.6353      0.0990      0.8879    131.5415     28.0800
  1528.2000      7.8055      2.6226      0.0955      1.6619    136.2132     27.9905
  1528.3000      7.8004      2.6104      0.0575      2.3985    140.2453     27.9149
  1528.4000      7.8004      2.6076      0.0269      2.5697    139.7242     27.9016
  1528.5000      7.8096      2.6118      0.0589      2.3141    137.7472     27.8733
  1528.6000      7.8096      2.6114      0.0568      2.3373    137.6753     27.6275
  1528.7000      7.8096      2.5998      0.0317      3.0408    138.4493     27.0375
  1528.8000      7.8172      2.5791      0.0272      4.2997    138.5157     26.3515
  1528.9000      7.8172      2.5577      0.0379      5.5949    138.4614     25.9112
  1529.0000      7.8353      2.5505     -0.0018      6.0273    139.0712     25.7142
  1529.1000      7.8353      2.5692     -0.0062      4.8965    138.1801     25.6872
  1529.2000      7.8353      2.6023      0.0268      2.8922    133.3392     25.8038
  1529.3000      7.8467      2.6194      0.0785      1.8536    127.5631     25.8271
  1529.4000      7.8467      2.6122      0.0408      2.2897    126.4877     25.6693
  1529.5000      7.8587      2.6039      0.0353      2.7918    129.1816     25.5175
  1529.6000      7.8587      2.6070      0.0839      2.6047    128.6099     25.3640
  1529.7000      7.8587      2.6165      0.0398      2.0277    123.4352     25.1942
  1529.8000      7.8310      2.6328      0.0472      1.0412    118.9932     25.0822
  1529.9000      7.8310      2.6488      0.0860      0.0730    117.5396     24.9531
  1530.0000      7.8006      2.6514      0.0690     -0.0835    116.8155     24.5476
  1530.1000      7.8006      2.6501      0.0510     -0.0044    114.4112     23.9809
  1530.2000      7.8006      2.6654      0.0597     -0.9307    109.2595     23.7808
  1530.3000      7.8033      2.6885      0.1248     -2.3346    103.5078     24.1580
  1530.4000      7.8033      2.6861      0.1178     -2.1849    101.0841     24.8021
  1530.5000      7.8004      2.6575      0.0245     -0.4518    101.8492     25.1721
  1530.6000      7.8004      2.6374      0.0467      0.7626    101.9828     25.0423
  1530.7000      7.8004      2.6329      0.0892      1.0338    101.0363     24.5962
  1530.8000      7.8180      2.6260      0.0429      1.4551    100.4257     24.1364
  1530.9000      7.8180      2.6127      0.0301      2.2587     98.8792     23.9293
