~Version Information
VERS.                      2.0: CWLS Log ASCII Standard - VERSION 2.0
WRAP.                       NO: One line per depth step
~Well Information Block
STRT.FT               952.6000: 
STOP.FT              2511.5000: 
STEP.FT                 0.1000: 
NULL.                -999.2500: 
COMP.          Petrogulf Corporation: COMPANY
WELL.             Royal 8-33 V: WELL
FLD.           Purgatoire River: FIELD
LOC.           2365' FSL & 2336' FEL: LOCATION
PROV.                 Colorado: PROVINCE
CNTY.               Las Animas: COUNTRY
SRVC.                Patterson: SERVICE COMPANY
DATE.          Fri Dec 05 09:15:49 2003: LOG DATE
UWI.                          : UNIQUE WELL ID
~Curve Information Block
DEPT.FT            0 000 00 00: Depth
DCAL.in                       : CDL Caliper
RHOB.g/cc                     : CDL Bulk Density
RHOC.g/cc                     : CDL Density Correction
DPOR.pu                       : CDL Density Porosity
GR.GAPI                       : Gamma Ray
NPOR.pu                       : Neutron Porosity
~Parameter Information Block
~A  Depth       DCAL        RHOB        RHOC        DPOR         GR         NPOR    
# ...
  1989.4000      8.1485      2.6623      0.5041     -0.7432    131.6344     26.2042
  1989.5000      8.1384      2.6343      0.3225      0.9512    134.8329     25.7405
  1989.6000      8.1384      2.5867      0.2282      3.8345    138.1074     25.2127
  1989.7000      8.1384      2.5546      0.2736      5.7820    140.2936     24.6928
  1989.8000      8.2312      2.5341      0.1842      7.0229    146.3251     24.4522
  1989.9000      8.2312      2.5259      0.0696      7.5197    154.2191     24.6300
  1990.0000      8.2682      2.5336      0.1415      7.0522    153.1572     24.9769
  1990.1000      8.2682      2.5486      0.1139      6.1464    145.3519     25.2741
  1990.2000      8.2682      2.5623      0.1789      5.3139    141.2602     25.5255
  1990.3000      8.2151      2.5629      0.1308      5.2789    140.4256     25.7689
  1990.4000      8.2151      2.5426      0.0624      6.5098    137.3734     26.0275
  1990.5000      8.1882      2.5156      0.0217      8.1457    134.9024     26.1722
  1990.6000      8.1882      2.5045      0.0327      8.8156    139.8255     26.2426
  1990.7000      8.1882      2.5105      0.0503      8.4562    149.7108     26.3449
  1990.8000      8.1763      2.5244      0.0489      7.6114    153.7735     26.2689
  1990.9000      8.1763      2.5395      0.1002      6.6975    145.4108     25.9561
  1991.0000      8.1624      2.5515      0.0706      5.9697    129.9634     25.5430
  1991.1000      8.1624      2.5658      0.0939      5.1003    118.6557     25.2898
  1991.2000      8.1624      2.5833      0.1309      4.0432    117.3250     25.3427
  1991.3000      8.1525      2.5890      0.1113      3.6976    122.6942     25.4678
  1991.4000      8.1525      2.5695      0.0681      4.8816    127.0621     25.5243
  1991.5000      8.1712      2.5390      0.0495      6.7264    127.1199     25.5261
  1991.6000      8.1712      2.5338      0.0608      7.0399    127.1908     25.4420
  1991.7000      8.1712      2.5653      0.1207      5.1328    130.8534     25.4064
  1991.8000      8.1561      2.5962      0.1505      3.2587    134.1475     25.4899
  1991.9000      8.1561      2.5926      0.1546      3.4812    132.9001     25.3955
  1992.0000      8.1540      2.5722      0.0640      4.7145    129.7378     25.1355
  1992.1000      8.1540      2.5654      0.0883      5.1274    128.1884     24.9545
  1992.2000      8.1540      2.5689      0.1261      4.9140    128.8642     24.7606
  1992.3000      8.1535      2.5748      0.0770      4.5547    132.2943     24.2281
  1992.4000      8.1535      2.5840      0.0721      4.0028    133.5566     23.4967
  1992.5000      8.1690      2.5860      0.1192      3.8760    127.3302     23.1818
  1992.6000      8.1690      2.5744      0.1035      4.5799    119.5024     23.6292
  1992.7000      8.1690      2.5687      0.0237      4.9258    117.9098     24.4932
  1992.8000      8.1407      2.5868      0.0940      3.8297    121.9591     24.8528
  1992.9000      8.1407      2.6089      0.1372      2.4899    128.1115     24.5378
  1993.0000      8.1717      2.6049      0.1172      2.7332    134.4823     24.3785
  1993.1000      8.1717      2.5778      0.0842      4.3776    140.5459     24.6033
  1993.2000      8.1717      2.5558      0.0697      5.7076    143.6832     24.7975
  1993.3000      8.1412      2.5560      0.0609      5.6951    139.6674     24.8634
  1993.4000      8.1412      2.5719      0.0878      4.7355    130.7549     25.0741
  1993.5000      8.1459      2.5886      0.1126      3.7185    128.6687     25.4799
  1993.6000      8.1459      2.6020      0.0975      2.9092    133.7877     25.7503
  1993.7000      8.1459      2.6079      0.1172      2.5517    133.7127     25.7619
  1993.8000      8.1388      2.5966      0.1272      3.2365    126.7327     26.0559
  1993.9000      8.1388      2.5733      0.0882      4.6505    121.0786     26.7596
  1994.0000      8.1640      2.5519      0.0696      5.9451    121.4911     27.2820
  1994.1000      8.1640      2.5362      0.0949      6.8953    127.2624     27.4672
  1994.2000      8.1640      2.5240      0.1003      7.6355    135.2254     27.5291
  1994.3000      8.1669      2.5168      0.1182      8.0716    139.2632     27.5511
  1994.4000      8.1669      2.5214      0.1114      7.7942    136.4964     27.3020
  1994.5000      8.1740      2.5317      0.1711      7.1678    132.3262     26.6140
  1994.6000      8.1740      2.5277      0.1326      7.4100    132.5818     25.8797
  1994.7000      8.1740      2.5095      0.0797      8.5155    139.9008     25.3656
  1994.8000      8.1776      2.4927      0.1404      9.5309    149.9289     24.6780
  1994.9000      8.1776      2.4841      0.1114     10.0570    150.3187     23.3895
  1995.0000      8.1798      2.4841      0.1273     10.0541    141.1438     21.7485
  1995.1000      8.1798      2.4861      0.1340      9.9359    134.1495     20.4612
  1995.2000      8.1798      2.4822      0.1186     10.1720    132.1410     19.9266
  1995.3000      8.2034      2.4775      0.0729     10.4536    131.9180     19.5375
  1995.4000      8.2034      2.4860      0.0670      9.9375    129.4209     18.6862
  1995.5000      8.2589      2.5152      0.1478      8.1715    121.1769     18.0216
  1995.6000      8.2589      2.5539      0.1824      5.8272    109.7695     18.2361
  1995.7000      8.2589      2.5781      0.2200      4.3563    101.7939     18.7682
  1995.8000      8.1422      2.5776      0.1351      4.3890     98.9094     18.9726
  1995.9000      8.1422      2.5602      0.1137      5.4440    100.2825     19.1442
  1996.0000      8.1296      2.5226      0.1083      7.7201    106.1989     19.7642
  1996.1000      8.1296      2.4636      0.0836     11.2974    113.4414     20.7557
  1996.2000      8.1296      2.4057      0.0186     14.8062    117.3423     21.8601
  1996.3000      8.1390      2.3759      0.0032     16.6145    119.1817     22.9311
  1996.4000      8.1390      2.3729      0.0448     16.7921    121.7430     23.7038
  1996.5000      8.1551      2.3772      0.0684     16.5314    124.4302     24.1031
  1996.6000      8.1551      2.3815      0.0490     16.2734    128.8932     24.4897
  1996.7000      8.1551      2.3942      0.0486     15.5054    135.0764     24.8555
  1996.8000      8.1685      2.4251      0.0577     13.6305    139.6573     24.6995
  1996.9000      8.1685      2.4638      0.1381     11.2876    143.4991     24.1701
  1997.0000      8.2276      2.4810      0.1895     10.2418    145.6653     23.9439
  1997.1000      8.2276      2.4733      0.0519     10.7114    143.7302     24.1170
  1997.2000      8.2276      2.4716      0.0988     10.8129    141.0079     24.2370
  1997.3000      8.1438      2.4979      0.0800      9.2203    140.5058     24.0117
  1997.4000      8.1438      2.5526      0.1300      5.9017    139.3373     23.4979
  1997.5000      8.1394      2.6114      0.1828      2.3387    135.0975     22.7254
  1997.6000      8.1394      2.6337      0.2081      0.9891    127.8596     21.8374
  1997.7000      8.1394      2.6120      0.1599      2.3057    122.8190     21.4154
  1997.8000      8.1608      2.5878      0.1652      3.7684    127.0986     21.4922
  1997.9000      8.1608      2.5929      0.1281      3.4589    137.6831     21.3742
  1998.0000      8.1932      2.6061      0.1854      2.6623    144.2000     21.1051
  1998.1000      8.1932      2.5940      0.0811      3.3953    143.0370     21.1797
  1998.2000      8.1932      2.5668      0.0668      5.0403    137.3080     21.5464
  1998.3000      8.1967      2.5497      0.1004      6.0805    130.7363     22.1097
  1998.4000      8.1967      2.5425      0.1029      6.5132    128.8084     22.7646
  1998.5000      8.1682      2.5366      0.0951      6.8732    133.3603     23.2714
  1998.6000      8.1682      2.5315      0.0343      7.1821    138.3357     23.6041
  1998.7000      8.1682      2.5303      0.0390      7.2538    138.0700     23.6991
  1998.8000      8.1695      2.5344      0.0546      7.0086    134.1266     23.5394
  1998.9000      8.1695      2.5439      0.0469      6.4333    135.8239     23.3850
