~Version Information
 VERS.                                  2.0 : CWLS LAS VERSION
 WRAP.                                   NO : WRAPING MODE
 SWARE .                 MController 2.5.0I : SOFTWARE VERSION
~Well Information
 WELL.                        Montoya 6-14v : WELL
 COMP.                       Petrogulf Corp : COMPANY
 FLD.                      Purgatorie River : FIELD
 LOC.                 SW/SW Sec 6 T33S R67W : LOCATION
 DATE.                              8/12/04 : DATE(S) LOGGED
 SRVC.       Blanco Geological Services LLC : SERVICE COMPANY
 STAT.                                   CO : STATE
 CNTY.                           Las Animas : COUNTY
 CTRY.                                  USA : COUNTRY
 API.                       05-071-08070-00 : API NUMBER
 STRT.FT                             803.00 : START DEPTH
 STOP.FT                            2673.00 : STOP DEPTH
 STEP.FT                               1.00 : DEPTH INCREMENT
 NULL.                                -9999 : NULL VALUE
~Curve information
 DEPTH.FT                                   :
 ROP.MIN/FT                                 :
 GAS.UNITS                                  :
~ASCII Log data
# ...
      1403.0          0.1          3.8 
      1404.0          0.2          6.8 
      1405.0          0.2          7.7 
      1406.0          0.1          8.2 
      1407.0          0.1          7.9 
      1408.0          0.1          7.2 
      1409.0          0.3          6.1 
      1410.0          4.7         66.1 
      1411.0          0.4         -0.2 
      1412.0          0.4         -0.6 
      1413.0          0.4         -0.8 
      1414.0          0.2         -0.7 
      1415.0          0.2         -0.1 
      1416.0          0.3          1.0 
      1417.0          0.2          1.4 
      1418.0          0.2          1.6 
      1419.0          0.2          1.8 
      1420.0          0.3          1.6 
      1421.0          0.3          1.5 
      1422.0          0.3          1.3 
      1423.0          0.3          1.1 
      1424.0          0.3          0.5 
      1425.0          0.4          0.6 
      1426.0          0.4          0.8 
      1427.0          0.4          1.0 
      1428.0          0.4          1.5 
      1429.0          0.4          1.2 
      1430.0          0.5          1.2 
      1431.0          0.4          1.3 
      1432.0          0.5          1.6 
      1433.0          0.4          1.0 
      1434.0          0.2          1.0 
      1435.0          0.2          3.6 
      1436.0          0.3          5.7 
      1437.0          0.2          4.6 
      1438.0          0.2          1.9 
      1439.0          0.2         -0.3 
      1440.0          4.2         24.5 
      1441.0          0.4          6.4 
      1442.0          0.5          5.6 
      1443.0          0.5          3.3 
      1444.0          0.2          1.2 
      1445.0          0.1          1.0 
      1446.0          0.1          1.2 
      1447.0          0.2          1.0 
      1448.0          0.5          1.0 
      1449.0          0.3          1.6 
      1450.0          0.5          2.1 
      1451.0          0.4          2.3 
      1452.0          0.3          2.1 
      1453.0          0.3          2.0 
      1454.0          0.3          1.7 
      1455.0          0.3          1.4 
      1456.0          0.3          1.0 
      1457.0          0.4          1.2 
      1458.0          0.3          0.9 
      1459.0          0.3          0.8 
      1460.0          0.2          0.7 
      1461.0          0.2          0.7 
      1462.0          0.3          0.3 
      1463.0          0.3          0.7 
      1464.0          0.3          0.6 
      1465.0          0.3          3.9 
      1466.0          0.2          5.9 
      1467.0          0.3          4.2 
      1468.0          0.2         -0.1 
      1469.0          0.2         -1.5 
      1470.0          4.2         12.3 
      1471.0          0.4          9.4 
      1472.0          0.3          6.9 
      1473.0          0.5          4.1 
      1474.0          0.4          1.6 
      1475.0          0.3          1.3 
      1476.0          0.3          0.8 
      1477.0          0.4          1.3 
      1478.0          0.4          2.8 
      1479.0          0.4          4.0 
      1480.0          0.3          3.7 
      1481.0          0.3          3.5 
      1482.0          0.2          3.1 
      1483.0          0.2          3.2 
      1484.0          0.2          2.7 
      1485.0          0.2          2.7 
      1486.0          0.3          2.7 
      1487.0          0.4          2.9 
      1488.0          0.3          2.8 
      1489.0          0.4          2.9 
      1490.0          0.3          2.5 
      1491.0          0.3          2.4 
      1492.0          0.3          2.5 
      1493.0          0.3          2.8 
      1494.0          0.3          7.3 
      1495.0          0.2          8.3 
      1496.0          0.1          7.0 
      1497.0          0.2          4.9 
      1498.0          0.1          2.4 
      1499.0          0.2          1.2 
      1500.0          4.0         13.9 
      1501.0          0.5         14.3 
      1502.0          0.4         12.0 
      1503.0          0.4          8.4 
      1504.0          0.3          5.5 
      1505.0          0.3          4.5 
      1506.0          0.3          3.6 
      1507.0          0.3          3.5 
      1508.0          0.4          3.5 
      1509.0          0.2          3.5 
      1510.0          0.2          3.7 
      1511.0          0.2          3.6 
      1512.0          0.2          3.5 
      1513.0          0.1          3.2 
      1514.0          0.1          3.1 
      1515.0          0.2          3.0 
      1516.0          0.2          2.9 
      1517.0          0.2          3.0 
      1518.0          0.3          3.2 
      1519.0          0.3          3.4 
      1520.0          0.3          3.4 
      1521.0          0.3          3.5 
      1522.0          0.3          3.3 
      1523.0          0.3          3.0 
      1524.0          0.2          2.8 
      1525.0          0.3          2.7 
      1526.0          0.4          7.2 
      1527.0          0.4          7.9 
      1528.0          0.3          2.9 
      1529.0          0.1          0.6 
      1530.0          4.6         14.2 
      1531.0          0.6          7.3 
      1532.0          0.6          5.3 
      1533.0          0.6          3.6 
      1534.0          0.4          2.9 
      1535.0          0.5          3.0 
      1536.0          0.5          3.3 
      1537.0          0.4          3.5 
      1538.0          0.4          3.3 
      1539.0          0.4          3.0 
      1540.0          0.4          2.8 
      1541.0          0.4          2.9 
      1542.0          0.4          2.8 
      1543.0          0.3          2.7 
      1544.0          0.4          2.5 
      1545.0          0.4          2.7 
      1546.0          0.4          2.8 
      1547.0          0.3          2.6 
      1548.0          0.3          2.6 
      1549.0          0.3          2.4 
      1550.0          0.3          2.4 
      1551.0          0.3          2.9 
      1552.0          0.3          3.0 
      1553.0          0.3          2.8 
      1554.0          0.3          2.8 
      1555.0          0.3          4.8 
      1556.0          0.2          7.3 
      1557.0          0.3          7.0 
      1558.0          0.3          3.0 
      1559.0          0.1          0.8 
      1560.0          4.3         15.8 
      1561.0          0.4         12.3 
      1562.0          0.4         11.8 
      1563.0          0.4          8.9 
      1564.0          0.3          6.9 
      1565.0          0.3          5.8 
      1566.0          0.3          5.0 
      1567.0          0.3          4.4 
      1568.0          0.5          4.2 
      1569.0          0.6          3.6 
      1570.0          0.5          3.4 
      1571.0          0.5          3.5 
      1572.0          0.3          3.8 
      1573.0          0.3          4.1 
      1574.0          0.3          4.1 
      1575.0          0.3          4.4 
      1576.0          0.3          4.1 
      1577.0          0.3          4.0 
      1578.0          0.4          4.0 
      1579.0          0.3          3.7 
      1580.0          0.3          3.7 
      1581.0          0.3          4.0 
      1582.0          0.3          4.0 
      1583.0          0.3          4.0 
      1584.0          0.2          3.9 
      1585.0          0.3          3.9 
      1586.0          0.2          7.1 
      1587.0          0.2          8.6 
      1588.0          0.2          7.4 
      1589.0          0.2          4.8 
      1590.0          4.8         32.7 
      1591.0          0.5         10.2 
      1592.0          0.4          7.9 
      1593.0          0.4          6.5 
      1594.0          0.4          5.2 
      1595.0          0.3          3.8 
      1596.0          0.4          3.8 
      1597.0          0.3          3.8 
      1598.0          0.3          4.0 
      1599.0          0.4          3.9 
      1600.0          0.2          4.0 
      1601.0          0.2          3.8 
      1602.0          0.2          4.4 
