~Version Information
 VERS.                                  2.0 : CWLS LAS VERSION
 WRAP.                                   NO : WRAPING MODE
 SWARE .                 MController 2.5.0J : SOFTWARE VERSION
~Well Information
 WELL.                        Rancher 12-35 : WELL
 COMP.        Pioneer Natural Resources Inc : COMPANY
 FLD.                      PURGATOIRE RIVER : FIELD
 LOC.                    SW/NW 35 T32S R67W : LOCATION
 DATE.                             10/11/04 : DATE(S) LOGGED
 SRVC.       BLANCO GEOLOGICAL SERVICES LLC : SERVICE COMPANY
 STAT.                             COLORADO : STATE
 CNTY.                           LAS ANIMAS : COUNTY
 CTRY.                                  USA : COUNTRY
 API.                       05-071-08179-00 : API NUMBER
 STRT.FT                             449.00 : START DEPTH
 STOP.FT                            2520.00 : STOP DEPTH
 STEP.FT                               1.00 : DEPTH INCREMENT
 NULL.                                -9999 : NULL VALUE
~Curve information
 DEPTH.FT                                   :
 ROP.MIN/FT                                 :
 GAS.UNITS                                  :
~ASCII Log data
# ...
      1849.0         0.13       1742.0 
      1850.0         0.13       1712.4 
      1851.0         0.20       1688.4 
      1852.0         0.17       1669.9 
      1853.0         0.17       1650.4 
      1854.0         0.17       1628.1 
      1855.0         0.25       1593.1 
      1856.0         0.27       1537.2 
      1857.0         0.30       1506.5 
      1858.0         0.23       1513.6 
      1859.0         0.23       1522.3 
      1860.0         0.17       2136.5 
      1861.0         0.37       2683.0 
      1862.0         0.30       2925.2 
      1863.0         0.35       2996.7 
      1864.0         0.33       3010.5 
      1865.0         0.33       2851.5 
      1866.0         0.33       2555.0 
      1867.0         0.23       2349.1 
      1868.0         0.20       2187.4 
      1869.0         0.17       2072.9 
      1870.0         0.20       1948.2 
      1871.0         0.20       1844.1 
      1872.0         0.20       1759.9 
      1873.0         0.23       1680.0 
      1874.0         0.30       1600.8 
      1875.0         0.32       1540.5 
      1876.0         0.23       1516.9 
      1877.0         0.20       1514.9 
      1878.0         0.20       1525.7 
      1879.0         0.20       1534.5 
      1880.0         0.17       1535.1 
      1881.0         0.13       1527.1 
      1882.0         0.17       1511.2 
      1883.0         0.27       1484.3 
      1884.0         0.33       1464.1 
      1885.0         0.20       1454.6 
      1886.0         0.17       1446.5 
      1887.0         0.20       1429.4 
      1888.0         0.17       1415.9 
      1889.0         0.27       1414.2 
      1890.0         0.27       4504.0 
      1891.0         0.23       4451.5 
      1892.0         0.23       4193.7 
      1893.0         0.23       3680.3 
      1894.0         0.33       2980.2 
      1895.0         0.20       2673.2 
      1896.0         0.33       2264.9 
      1897.0         0.20       2062.7 
      1898.0         0.32       1894.3 
      1899.0         0.20       1833.6 
      1900.0         0.17       1801.6 
      1901.0         0.20       1773.0 
      1902.0         0.17       1742.7 
      1903.0         0.17       1713.7 
      1904.0         0.13       1681.7 
      1905.0         0.17       1638.2 
      1906.0         0.13       1612.0 
      1907.0         0.13       1594.8 
      1908.0         0.17       1586.4 
      1909.0         0.27       1569.5 
      1910.0         0.22       1542.6 
      1911.0         0.23       1503.1 
      1912.0         0.17       1472.8 
      1913.0         0.17       1446.9 
      1914.0         0.17       1422.6 
      1915.0         0.13       1402.4 
      1916.0         0.17       1367.0 
      1917.0         0.17       1306.4 
      1918.0         0.27       1236.3 
      1919.0         0.27       1258.2 
      1920.0         0.27       3251.7 
      1921.0         0.17       3491.6 
      1922.0         0.20       3737.6 
      1923.0         0.15       3854.8 
      1924.0         0.30       4034.4 
      1925.0         0.33       3993.6 
      1926.0         0.40       3471.4 
      1927.0         0.37       2848.1 
      1928.0         0.30       2463.0 
      1929.0         0.30       2159.1 
      1930.0         0.27       1958.6 
      1931.0         0.23       1841.7 
      1932.0         0.23       1742.7 
      1933.0         0.20       1674.0 
      1934.0         0.20       1607.9 
      1935.0         0.15       1569.5 
      1936.0         0.23       1509.2 
      1937.0         0.20       1468.8 
      1938.0         0.20       1446.5 
      1939.0         0.30       1432.7 
      1940.0         0.23       1423.6 
      1941.0         0.23       1406.8 
      1942.0         0.23       1395.3 
      1943.0         0.20       1396.7 
      1944.0         0.17       1398.0 
      1945.0         0.17       1400.4 
      1946.0         0.13       1400.4 
      1947.0         0.17       1398.4 
      1948.0         0.17       1393.6 
      1949.0         0.20       1391.3 
      1950.0         0.27       3163.4 
      1951.0         0.20       2598.4 
      1952.0         0.23       2184.0 
      1953.0         0.30       1862.6 
      1954.0         0.27       1681.7 
      1955.0         0.20       1589.4 
      1956.0         0.20       1513.6 
      1957.0         0.17       1465.1 
      1958.0         0.15       1431.7 
      1959.0         0.13       1395.3 
      1960.0         0.17       1373.1 
      1961.0         0.20       1385.6 
      1962.0         0.17       1412.2 
      1963.0         0.17       1443.8 
      1964.0         0.17       1474.8 
      1965.0         0.20       1506.5 
      1966.0         0.20       1513.2 
      1967.0         0.20       1505.5 
      1968.0         0.17       1505.5 
      1969.0         0.20       1513.9 
      1970.0         0.23       1518.6 
      1971.0         0.23       1511.6 
      1972.0         0.23       1496.1 
      1973.0         0.20       1478.5 
      1974.0         0.20       1460.0 
      1975.0         0.20       1443.8 
      1976.0         0.18       1430.0 
      1977.0         0.20       1414.2 
      1978.0         0.27       1385.2 
      1979.0         0.27       1354.2 
      1980.0         0.13       1732.2 
      1981.0         0.27       2066.1 
      1982.0         0.10       2180.7 
      1983.0         0.13       2306.0 
      1984.0         0.17       2405.4 
      1985.0         0.10       2453.6 
      1986.0         0.20       2528.7 
      1987.0         0.27       2614.3 
      1988.0         0.23       2644.3 
      1989.0         0.27       2584.0 
      1990.0         0.30       2413.1 
      1991.0         0.27       2224.5 
      1992.0         0.23       2068.5 
      1993.0         0.20       1938.4 
      1994.0         0.20       1829.6 
      1995.0         0.18       1753.1 
      1996.0         0.20       1669.9 
      1997.0         0.20       1586.7 
      1998.0         0.17       1522.7 
      1999.0         0.30       1408.5 
      2000.0         0.20       1348.2 
      2001.0         0.17       1326.9 
      2002.0         0.13       1328.6 
      2003.0         0.13       1339.4 
      2004.0         0.17       1360.3 
      2005.0         0.27       1391.3 
      2006.0         0.20       1401.7 
      2007.0         0.20       1396.7 
      2008.0         0.20       1367.7 
      2009.0         0.13       1326.3 
      2010.0         0.27       2052.0 
      2011.0         0.17       2299.6 
      2012.0         0.20       2559.7 
      2013.0         0.25       2799.6 
      2014.0         0.20       2922.9 
      2015.0         0.23       3075.9 
      2016.0         0.23       3707.6 
      2017.0         0.23       4320.4 
      2018.0         0.17       4552.5 
      2019.0         0.13       4649.9 
      2020.0         0.13       4607.1 
      2021.0         0.27       4199.8 
      2022.0         0.20       3843.7 
      2023.0         0.20       3521.9 
      2024.0         0.20       3222.4 
      2025.0         0.27       2854.8 
      2026.0         0.13       2653.4 
      2027.0         0.20       2419.9 
      2028.0         0.13       2355.2 
      2029.0         0.13       2332.3 
      2030.0         0.20       2328.2 
      2031.0         0.22       2324.9 
      2032.0         0.20       2303.3 
      2033.0         0.23       2268.6 
      2034.0         0.20       2245.0 
      2035.0         0.17       2220.8 
      2036.0         0.20       2193.5 
      2037.0         0.17       2164.2 
      2038.0         0.10       2143.9 
      2039.0         0.27       2063.4 
      2040.0         0.17       2358.2 
      2041.0         0.23       2777.3 
      2042.0         0.30       3309.3 
      2043.0         0.30       3669.8 
      2044.0         0.27       3840.0 
      2045.0         0.23       3898.3 
      2046.0         0.23       3888.2 
      2047.0         0.27       3700.5 
      2048.0         0.28       3350.4 
