~Version Information
VERS.                      2.0: CWLS Log ASCII Standard - VERSION 2.0
WRAP.                       NO: One line per depth step
~Well Information Block
STRT.FT               241.5000: 
STOP.FT              2340.7500: 
STEP.FT                 0.2500: 
NULL.                -999.2500: 
COMP.          Petrogulf Corporation: COMPANY
WELL.            Montoya 1-24V: WELL
FLD.           Purgatorie River: FIELD
LOC.           605' FSL & 2557' FWL: LOCATION
CNTY.               Las Animas: COUNTY
SRVC.                         : SERVICE COMPANY
DATE.          Tue Nov 30 10:28:39 2004: LOG DATE
UWI.           05 071 08194 00: UNIQUE WELL ID
STAT.                 Colorado: STATE
~Curve Information Block
DEPT.FT            0 000 00 00: Depth
GR.GAPI                       : Gamma Ray
CCL.                          : Casing Collar Locator
TT3.usec                      : CBL 3' Travel Time
AMP3.mV                       : CBL 3' Amplitude
~Parameter Information Block
~A  Depth        GR         CCL         TT3         AMP3    
# ...
  1481.0000    124.7287      0.0000    717.5725      9.1500
  1481.2500    126.9093      0.0000    714.2846      8.8799
  1481.5000    132.8000      0.0000    714.2640      8.5574
  1481.7500    140.8073      0.0000    717.0405      8.2584
  1482.0000    148.2427      0.0000    719.5575      8.0427
  1482.2500    151.5610      0.0000    719.1600      7.9415
  1482.5000    148.3795      0.0000    715.6318      7.9598
  1482.7500    139.7273      0.0000    710.2262      8.0881
  1483.0000    129.5674      0.0000    703.4150      8.3026
  1483.2500    121.3283      0.0000    694.9613      8.5554
  1483.5000    115.1802      0.0000    685.7260      8.7729
  1483.7500    109.0582      0.0000    677.7255      8.8710
  1484.0000    101.6238      0.0000    672.4624      8.7865
  1484.2500     93.5884      0.0000    670.2394      8.5269
  1484.5000     86.8148      0.0000    670.7909      8.2002
  1484.7500     82.8864      0.0000    673.6144      7.9642
  1485.0000     82.3195      0.0000    677.7776      7.9108
  1485.2500     84.5919      0.0000    682.3813      7.9964
  1485.5000     88.6644      0.0000    687.6149      8.0920
  1485.7500     93.7085      0.0000    694.3278      8.0956
  1486.0000     99.8780      0.0000    701.3315      7.9936
  1486.2500    108.3399      0.0000    703.9262      7.8305
  1486.5000    119.8248      0.0000    697.4765      7.6509
  1486.7500    132.8545      0.0000    683.0241      7.4862
  1487.0000    143.8671      0.0000    667.3445      7.3721
  1487.2500    149.3399      0.0000    656.4525      7.3454
  1487.5000    147.8194      0.0000    650.7446      7.4196
  1487.7500    140.4437      0.0000    647.2390      7.5794
  1488.0000    130.2351      0.0000    644.4005      7.7962
  1488.2500    120.7689      0.0000    643.2239      8.0290
  1488.5000    114.6829      0.0000    644.9490      8.2152
  1488.7500    112.6884      0.0000    649.3943      8.2919
  1489.0000    113.6144      0.0000    655.2154      8.2515
  1489.2500    115.7248      0.0000    660.8787      8.1625
  1489.5000    118.4765      0.0000    665.4717      8.1175
  1489.7500    122.7223      0.0000    668.9747      8.1573
  1490.0000    128.7548      0.0000    672.1198      8.2340
  1490.2500    134.7029      0.0000    676.5349      8.2292
  1490.5000    137.6465      0.0000    685.5961      8.0242
  1490.7500    136.0646      0.0000    703.6622      7.6072
  1491.0000    130.7207      0.0000    731.2498      7.1367
  1491.2500    123.5710      0.0000    759.3987      6.8535
  1491.5000    116.2723      0.0000    771.9445      6.8919
  1491.7500    109.4582     -3.0000    757.2197      7.1820
  1492.0000    103.0427     -3.0000    718.2148      7.5276
  1492.2500     96.8320     -3.0000    671.0027      7.7410
  1492.5000     90.6671      0.0000    633.9138      7.7162
  1492.7500     84.4746      0.0000    616.1556      7.4499
  1493.0000     78.6797      0.0000    613.2535      7.0429
  1493.2500     74.5124      0.0000    613.5076      6.6549
  1493.5000     73.6863      0.0000    610.6115      6.4173
  1493.7500     77.7022      0.0000    608.4338      6.3848
  1494.0000     87.1374      0.0000    612.6937      6.5462
  1494.2500    101.0727      0.0000    621.9674      6.8412
  1494.5000    116.9980      0.0000    629.5524      7.1794
  1494.7500    131.5798      0.0000    630.7843      7.4877
  1495.0000    141.9698      0.0000    626.1229      7.7378
  1495.2500    146.8080      0.0000    619.0510      7.9323
  1495.5000    146.4243      0.0000    612.7152      8.0863
  1495.7500    142.3932      0.0000    607.6404      8.2168
  1496.0000    136.7954      0.0000    602.3484      8.3216
  1496.2500    131.6227      0.0000    596.6373      8.3825
  1496.5000    128.5773      0.0000    593.6154      8.4076
  1496.7500    129.0229      0.0000    597.5383      8.4427
  1497.0000    133.5369      0.0000    609.8455      8.5194
  1497.2500    141.2978      0.0000    627.4930      8.6126
  1497.5000    150.2852      0.0000    644.3205      8.6700
  1497.7500    158.4267      0.0000    653.5533      8.6675
  1498.0000    164.3128      0.0000    650.5079      8.6220
  1498.2500    166.6992      0.0000    635.3961      8.5668
  1498.5000    164.1913      0.0000    614.6053      8.5272
  1498.7500    156.4037      0.0000    598.2765      8.5119
  1499.0000    145.4083      0.0000    595.0216      8.5185
  1499.2500    135.2458      0.0000    607.2767      8.5387
  1499.5000    129.1744      0.0000    630.2302      8.5592
  1499.7500    126.9014      0.0000    654.8950      8.5736
  1500.0000    124.7205      0.0000    673.2303      8.5952
  1500.2500    119.0173      0.0000    681.8602      8.6413
  1500.5000    109.5542      0.0000    682.3300      8.7034
  1500.7500     98.9802      0.0000    678.6866      8.7477
  1501.0000     89.8549      0.0000    674.5723      8.7554
  1501.2500     83.2224      0.0000    671.7333      8.7562
  1501.5000     79.5451      0.0000    670.0753      8.8061
  1501.7500     79.5171      0.0000    668.3246      8.9327
  1502.0000     83.5141      0.0000    664.5366      9.1150
  1502.2500     90.9742      0.0000    657.0817      9.3130
  1502.5000    100.7357      0.0000    646.8824      9.4915
  1502.7500    111.6661      0.0000    639.0788      9.6177
  1503.0000    122.6383      0.0000    640.1539      9.6656
  1503.2500    132.1167      0.0000    651.0877      9.6352
  1503.5000    138.4792      0.0000    664.1617      9.5628
  1503.7500    141.2762      0.0000    668.7397      9.5069
  1504.0000    141.9044      0.0000    660.8583      9.5099
  1504.2500    142.5624      0.0000    647.2452      9.5575
  1504.5000    144.5966      0.0000    639.9607      9.5827
  1504.7500    148.0344      0.0000    646.3551      9.5248
  1505.0000    152.2289      0.0000    663.7709      9.3897
  1505.2500    156.3821      0.0000    683.5383      9.2486
  1505.5000    159.7564      0.0000    698.6009      9.1826
  1505.7500    162.1352      0.0000    706.9178      9.2311
  1506.0000    164.1033      0.0000    709.5670      9.3780
  1506.2500    166.4063      0.0000    707.4999      9.5686
  1506.5000    168.9407      0.0000    699.9714      9.7312
  1506.7500    170.6372      0.0000    685.5464      9.7975
  1507.0000    170.3242      0.0000    664.8674      9.7339
  1507.2500    167.5876      0.0000    642.6254      9.5658
  1507.5000    162.9571      0.0000    626.0433      9.3527
  1507.7500    157.4743      0.0000    620.5611      9.1375
  1508.0000    152.0251      0.0000    626.3946      8.9348
  1508.2500    147.0988      0.0000    638.7945      8.7555
  1508.5000    143.0589      0.0000    651.2967      8.6149
  1508.7500    140.2871      0.0000    658.8408      8.5267
  1509.0000    138.9202      0.0000    658.1482      8.5042
  1509.2500    138.5892      0.0000    646.2144      8.5527
  1509.5000    138.6870      0.0000    620.6255      8.6514
  1509.7500    139.1997      0.0000    583.2078      8.7558
  1510.0000    141.1370      0.0000    542.9930      8.8242
  1510.2500    145.5440      0.0000    513.2029      8.8418
  1510.5000    151.9199      0.0000    503.3561      8.8237
  1510.7500    158.2422      0.0000    513.4457      8.7982
  1511.0000    162.8458      0.0000    534.9645      8.7826
  1511.2500    165.7147      0.0000    557.1746      8.7716
  1511.5000    167.6472      0.0000    573.3613      8.7435
  1511.7500    168.7266      0.0000    582.9830      8.6725
  1512.0000    168.0778      0.0000    589.8701      8.5404
  1512.2500    164.9939      0.0000    599.2675      8.3582
  1512.5000    160.1220      0.0000    615.1808      8.1785
  1512.7500    155.4379      0.0000    638.0153      8.0617
  1513.0000    152.9498      0.0000    663.6669      8.0173
  1513.2500    153.3603      0.0000    685.7760      7.9981
  1513.5000    156.0183      0.0000    699.5413      7.9608
  1513.7500    160.0342      0.0000    703.2786      7.9214
  1514.0000    165.0611      0.0000    696.8318      7.9380
  1514.2500    170.6924      0.0000    679.7687      8.0501
