~Version Information
VERS.                      2.0: CWLS Log ASCII Standard - VERSION 2.0
WRAP.                       NO: One line per depth step
~Well Information Block
STRT.FT               920.0000: 
STOP.FT              3300.2000: 
STEP.FT                 0.1000: 
NULL.                -999.2500: 
COMP.          Pioneer Natural Resources: COMPANY
WELL.              Vespar 43-7: WELL
FLD.           Purgatoire River: FIELD
LOC.           2338' FSL & 1141' FEL: LOCATION
PROV.                 Colorado: PROVINCE
CNTY.               Las Animas: COUNTRY
SRVC.                Patterson: SERVICE COMPANY
DATE.          Wed Jan 26 13:38:02 2005: LOG DATE
UWI.           05 071 07955 00: UNIQUE WELL ID
~Curve Information Block
DEPT.FT            0 000 00 00: Depth
DCAL.in                       : CDL Caliper
RHOB.g/cc                     : CDL Bulk Density
RHOC.g/cc                     : CDL Density Correction
DPOR.pu                       : CDL Density Porosity
NPOR.pu                       : Neutron Porosity
GR.GAPI                       : Gamma Ray
~Parameter Information Block
~A  Depth       DCAL        RHOB        RHOC        DPOR        NPOR         GR     
# ...
  1544.0000      8.0969      2.5810      0.0464      4.1804     30.8363    103.7947
  1544.1000      8.0969      2.5772      0.0291      4.4124     31.0060    106.2290
  1544.2000      8.0969      2.5575      0.0144      5.6033     31.2524    109.8916
  1544.3000      8.1079      2.5290      0.0139      7.3317     31.3382    112.8378
  1544.4000      8.1079      2.4979     -0.0253      9.2199     31.1785    115.7814
  1544.5000      8.1234      2.4743     -0.0480     10.6489     30.6796    119.1193
  1544.6000      8.1234      2.4617     -0.0045     11.4124     29.9050    122.1879
  1544.7000      8.1234      2.4598      0.0159     11.5246     29.0739    128.1202
  1544.8000      8.1354      2.4660      0.0156     11.1502     28.2761    138.3227
  1544.9000      8.1354      2.4661      0.0560     11.1468     27.6654    147.3488
  1545.0000      8.1456      2.4538      0.0286     11.8880     27.3358    151.3604
  1545.1000      8.1456      2.4374      0.0284     12.8842     27.2711    151.6499
  1545.2000      8.1456      2.4173      0.0456     14.1044     27.2579    148.7907
  1545.3000      8.1563      2.3995     -0.0153     15.1808     26.8735    143.4964
  1545.4000      8.1563      2.3957      0.0354     15.4141     26.2835    139.5264
  1545.5000      8.1622      2.4022      0.0046     15.0208     25.9712    137.1104
  1545.6000      8.1622      2.4118      0.0530     14.4390     25.9498    131.1641
  1545.7000      8.1622      2.4243      0.0437     13.6792     25.9927    124.7866
  1545.8000      8.1616      2.4403      0.1003     12.7090     25.7223    127.7648
  1545.9000      8.1616      2.4548      0.0467     11.8280     24.9966    138.9637
  1546.0000      8.1593      2.4645      0.0605     11.2434     24.2319    148.0369
  1546.1000      8.1593      2.4684      0.0668     11.0069     23.7441    150.8592
  1546.2000      8.1593      2.4672      0.0437     11.0811     23.7089    145.9203
  1546.3000      8.1582      2.4659      0.0397     11.1573     24.1020    133.9293
  1546.4000      8.1582      2.4685      0.0374     11.0019     24.4246    125.1418
  1546.5000      8.1601      2.4688      0.0549     10.9812     24.3809    126.5411
  1546.6000      8.1601      2.4591      0.0478     11.5717     24.4318    133.6905
  1546.7000      8.1601      2.4446      0.0842     12.4511     25.0711    138.3023
  1546.8000      8.1687      2.4423      0.0155     12.5872     25.9505    137.3183
  1546.9000      8.1687      2.4611      0.0647     11.4487     26.4197    133.1931
  1547.0000      8.1855      2.4718      0.0905     10.8022     26.5641    129.1337
  1547.1000      8.1855      2.4288      0.0868     13.4061     26.6752    125.3982
  1547.2000      8.1855      2.3332     -0.0165     19.2018     26.4957    119.8566
  1547.3000      8.1992      2.2268     -0.0475     25.6471     25.7552    113.5074
  1547.4000      8.1992      2.1126      0.0045     32.5723     24.5186    108.9481
  1547.5000      8.2061      1.9552     -0.0515     42.1070     22.8089    104.9142
  1547.6000      8.2061      1.7720     -0.1781     53.2121     20.7965     98.9081
  1547.7000      8.2061      1.6328     -0.2238     61.6487     18.8274     92.7131
  1547.8000      8.2102      1.5531     -0.0632     66.4816     16.6503     88.4143
  1547.9000      8.2102      1.4744     -0.0263     71.2477     14.0369     84.3277
  1548.0000      8.2146      1.3729     -0.1181     77.4002     11.5235     78.7474
  1548.1000      8.2146      1.2935     -0.1040     82.2130      9.6758     73.5773
  1548.2000      8.2146      1.2772     -0.0313     83.1988      8.4675     70.7133
  1548.3000      8.2191      1.3233      0.0336     80.4048      7.5715     68.8670
  1548.4000      8.2191      1.4087      0.0811     75.2288      6.8314     67.6381
  1548.5000      8.2201      1.5082      0.1350     69.2025      6.4498     67.1814
  1548.6000      8.2201      1.6103      0.1572     63.0133      6.5756     68.2673
  1548.7000      8.2201      1.7215      0.1769     56.2698      6.9742     72.8215
  1548.8000      8.2222      1.8426      0.2411     48.9347      7.3077     78.7407
  1548.9000      8.2222      1.9575      0.2952     41.9674      7.5816     83.0639
  1549.0000      8.2320      2.0574      0.2858     35.9144      8.1625     87.1416
  1549.1000      8.2320      2.1426      0.3303     30.7513      9.3504     90.1930
  1549.2000      8.2320      2.2001      0.3341     27.2644     10.8653     90.7224
  1549.3000      8.2462      2.2170      0.2728     26.2449     12.2102     91.1250
  1549.4000      8.2462      2.2133      0.1252     26.4657     13.4257     90.3351
  1549.5000      8.2626      2.2202      0.1320     26.0488     14.8329     86.8949
  1549.6000      8.2626      2.2352      0.1140     25.1375     16.4097     86.3683
  1549.7000      8.2626      2.2350      0.1269     25.1544     17.7808     91.2038
  1549.8000      8.2752      2.2026      0.1064     27.1142     18.6342     96.6167
  1549.9000      8.2752      2.1336      0.0955     31.2945     19.0822     99.9586
  1550.0000      8.2775      2.0348      0.0570     37.2879     19.3736    100.7539
  1550.1000      8.2775      1.9211     -0.0306     44.1747     19.3444     98.7379
  1550.2000      8.2775      1.7992     -0.0213     51.5648     18.3877     94.6998
  1550.3000      8.2760      1.6675     -0.0608     59.5452     16.3745     89.9240
  1550.4000      8.2760      1.5339     -0.0269     67.6445     14.0490     85.6927
  1550.5000      8.2763      1.3937     -0.0312     76.1372     11.7678     84.1994
  1550.6000      8.2763      1.2333     -0.1429     85.8616      9.1319     85.1783
  1550.7000      8.2763      1.0729     -0.1802     95.5833      6.4876     82.9589
  1550.8000      8.2764      0.9643     -0.2172    102.1619      4.7335     76.3300
  1550.9000      8.2764      0.9330     -0.1171    104.0606      3.9629     70.2538
  1551.0000      8.2948      0.9520     -0.0176    102.9067      3.8865     67.6536
  1551.1000      8.2948      1.0065     -0.0662     99.6054      4.2893     68.4527
  1551.2000      8.2948      1.1272      0.0021     92.2884      4.9140     69.4805
  1551.3000      8.4227      1.3127      0.3325     81.0514      5.6085     68.5219
  1551.4000      8.4227      1.5040      0.4435     69.4554      6.7559     69.9992
  1551.5000      8.6573      1.6561      0.4579     60.2368      8.8313     77.2439
  1551.6000      8.6573      1.7502      0.4459     54.5353     11.4751     85.7145
  1551.7000      8.6573      1.7824      0.3659     52.5819     13.6413     91.3344
  1551.8000      8.6804      1.7791      0.2549     52.7789     14.8452     96.0082
  1551.9000      8.6804      1.7745      0.1717     53.0627     15.2355     99.6172
  1552.0000      8.3827      1.7753      0.1304     53.0125     14.7937    100.7782
  1552.1000      8.3827      1.7750      0.0581     53.0326     13.7862    103.7534
  1552.2000      8.3827      1.7760      0.0635     52.9669     12.7970    107.9185
  1552.3000      8.1395      1.7854      0.0480     52.3986     12.0776    106.5240
  1552.4000      8.1395      1.8162     -0.0023     50.5335     11.7385    103.3603
  1552.5000      8.0672      1.8838      0.0912     46.4336     11.8472    104.9602
  1552.6000      8.0672      1.9874      0.2000     40.1577     12.0452    104.8470
  1552.7000      8.0672      2.1180      0.2098     32.2454     11.8856    100.5306
  1552.8000      8.0508      2.2547      0.2685     23.9549     11.7754     99.8688
  1552.9000      8.0508      2.3554      0.3290     17.8567     12.3957    105.9679
  1553.0000      8.0463      2.4056      0.2217     14.8134     13.8113    114.7317
  1553.1000      8.0463      2.4328      0.1764     13.1616     15.5804    120.5717
  1553.2000      8.0463      2.4572      0.1715     11.6837     17.2485    120.3768
  1553.3000      8.0463      2.4876      0.1623      9.8394     18.6004    114.8327
  1553.4000      8.0463      2.5278      0.3024      7.4066     19.6026    110.6514
  1553.5000      8.0466      2.5653      0.2811      5.1364     20.4571    112.2443
