~Version Information
VERS.                      2.0: CWLS Log ASCII Standard - VERSION 2.0
WRAP.                       NO: One line per depth step
~Well Information Block
STRT.FT               483.0000: 
STOP.FT              1701.5000: 
STEP.FT                 0.1000: 
NULL.                -999.2500: 
COMP.          Pioneer Natural Resources: COMPANY
WELL.            Mad Dog 42-31: WELL
FLD.           Purgatorie River: FIELD
LOC.           2064' FNL & 479' FEL: LOCATION
PROV.                 Colorado: PROVINCE
CNTY.               Las Animas: COUNTRY
SRVC.                         : SERVICE COMPANY
DATE.          Sun Oct 10 04:38:02 2004: LOG DATE
UWI.           05 071 08195 00: UNIQUE WELL ID
~Curve Information Block
DEPT.FT            0 000 00 00: Depth
LTEN.lb                       : Surface Line Tension
DCAL.in                       : CDL Caliper
RHOB.g/cc                     : CDL Bulk Density
RHOC.g/cc                     : CDL Density Correction
DPOR.pu                       : CDL Density Porosity
GR.GAPI                       : Gamma Ray
NPOR.pu                       : Neutron Porosity
~Parameter Information Block
~A  Depth       LTEN        DCAL        RHOB        RHOC        DPOR         GR         NPOR    
# ...
  1129.8000    996.8993      7.9752      2.5294      0.1514      7.3105    134.1838     28.4234
  1129.9000    996.8993      7.9752      2.5115      0.1542      8.3924    137.8415     28.6044
  1130.0000    926.5057      8.0440      2.5028      0.1210      8.9228    139.9306     28.3073
  1130.1000    926.5057      8.0440      2.5035      0.1197      8.8772    139.3944     27.7111
  1130.2000    926.5057      8.0440      2.5152      0.0812      8.1724    137.4565     27.8923
  1130.3000    952.9923      8.1058      2.5351      0.1220      6.9644    136.8044     28.6790
  1130.4000    952.9923      8.1058      2.5495      0.1085      6.0930    137.1159     28.7569
  1130.5000    977.2568      8.1281      2.5529      0.1144      5.8870    136.0283     28.1474
  1130.6000    977.2568      8.1281      2.5588      0.0855      5.5281    135.6578     27.5109
  1130.7000    977.2568      8.1281      2.5761      0.1161      4.4786    138.4699     26.9262
  1130.8000    917.9446      8.0542      2.5965      0.1571      3.2452    141.2634     26.6624
  1130.9000    917.9446      8.0542      2.6061      0.1644      2.6631    140.7148     26.7707
  1131.0000    983.1692      7.9866      2.5952      0.1299      3.3216    140.1897     26.7195
  1131.1000    983.1692      7.9866      2.5726      0.0872      4.6901    144.5110     26.3499
  1131.2000    983.1692      7.9866      2.5590      0.1049      5.5170    149.3892     26.3390
  1131.3000    951.7665      7.9395      2.5583      0.0829      5.5555    147.3488     26.8159
  1131.4000    951.7665      7.9395      2.5594      0.0760      5.4899    140.6656     26.9709
  1131.5000    991.7508      7.9304      2.5484      0.0784      6.1595    134.0852     26.4838
  1131.6000    991.7508      7.9304      2.5270      0.0264      7.4570    127.3916     25.7333
  1131.7000    991.7508      7.9304      2.5177      0.0407      8.0183    121.3569     24.8539
  1131.8000    993.2198      7.9039      2.5341      0.0911      7.0233    120.6738     24.0969
  1131.9000    993.2198      7.9039      2.5645      0.1019      5.1812    122.4142     23.9688
  1132.0000    925.5582      7.8856      2.5854      0.1570      3.9127    120.0193     24.0731
  1132.1000    925.5582      7.8856      2.5894      0.0629      3.6757    116.7086     23.9819
  1132.2000    925.5582      7.8856      2.5885      0.0557      3.7255    116.4317     23.9715
  1132.3000    977.3221      7.9006      2.5832      0.0569      4.0463    115.7243     23.8326
  1132.4000    977.3221      7.9006      2.5688      0.0233      4.9217    110.8372     23.4552
  1132.5000    958.3921      7.8812      2.5558      0.0057      5.7072    104.1966     23.3753
  1132.6000    958.3921      7.8812      2.5520      0.0603      5.9397    100.7552     23.5649
  1132.7000    958.3921      7.8812      2.5562     -0.0276      5.6858    100.4731     23.5236
  1132.8000    919.8952      7.8673      2.5703     -0.0053      4.8280     96.4539     23.2358
  1132.9000    919.8952      7.8673      2.5948      0.0308      3.3449     86.0445     23.1893
  1133.0000    948.4470      7.8662      2.6230     -0.0029      1.6387     77.0574     23.2532
  1133.1000    948.4470      7.8662      2.6360      0.0835      0.8483     76.2277     22.7659
  1133.2000    948.4470      7.8662      2.6248     -0.0302      1.5247     81.3952     21.8787
  1133.3000    945.6144      7.8979      2.6200     -0.0696      1.8160     86.5203     21.3296
  1133.4000    945.6144      7.8979      2.6437      0.0489      0.3815     86.9818     21.3375
  1133.5000    892.0837      7.8843      2.6706      0.0621     -1.2499     84.6530     21.4857
  1133.6000    892.0837      7.8843      2.6785      0.0625     -1.7269     82.7167     21.4689
  1133.7000    892.0837      7.8843      2.6717      0.1158     -1.3134     79.8291     21.4613
  1133.8000    977.0833      7.8677      2.6596      0.0740     -0.5794     78.3642     21.6712
  1133.9000    977.0833      7.8677      2.6518      0.0493     -0.1120     82.1818     21.9819
  1134.0000    932.7877      7.8413      2.6458      0.0627      0.2565     88.3694     22.1399
  1134.1000    932.7877      7.8413      2.6289      0.0602      1.2797     93.8545     22.4041
  1134.2000    932.7877      7.8413      2.6042      0.0154      2.7780    101.6461     23.2199
  1134.3000    931.2963      7.8352      2.5899      0.0024      3.6433    116.7148     24.0713
  1134.4000    931.2963      7.8352      2.5905      0.0307      3.6043    134.6201     24.1856
  1134.5000   1010.2457      7.8410      2.5787      0.0789      4.3208    142.8513     23.7749
  1134.6000   1010.2457      7.8410      2.5349      0.1141      6.9745    140.9350     23.6769
  1134.7000   1010.2457      7.8410      2.4892      0.0438      9.7425    139.7805     24.4758
  1134.8000    938.1869      7.8544      2.4747      0.0993     10.6223    142.3418     25.6255
  1134.9000    938.1869      7.8544      2.4845      0.0695     10.0315    146.6927     26.0879
  1135.0000   1000.8389      7.8790      2.5031      0.0965      8.9017    153.6623     26.1230
  1135.1000   1000.8389      7.8790      2.5238      0.1163      7.6481    162.7681     26.5218
  1135.2000   1000.8389      7.8790      2.5418      0.1411      6.5582    171.1600     27.0247
  1135.3000    972.7886      7.9440      2.5537      0.1545      5.8336    172.5831     27.2551
  1135.4000    972.7886      7.9440      2.5567      0.2020      5.6575    167.7583     27.6279
  1135.5000    995.1573      8.0450      2.5524      0.1569      5.9165    164.4258     28.3754
  1135.6000    995.1573      8.0450      2.5468      0.1538      6.2565    163.5657     29.0782
  1135.7000    995.1573      8.0450      2.5341      0.1659      7.0262    162.2488     29.3435
  1135.8000   1013.9536      8.0916      2.5085      0.1111      8.5788    160.2943     29.3145
  1135.9000   1013.9536      8.0916      2.4790      0.0629     10.3615    158.2110     29.4898
  1136.0000    950.9986      8.2038      2.4509      0.1175     12.0685    154.8724     29.6439
  1136.1000    950.9986      8.2038      2.4252      0.0653     13.6224    149.2430     29.3352
  1136.2000    950.9986      8.2038      2.4097      0.0628     14.5664    144.9723     28.7576
  1136.3000   1011.3903      8.1547      2.3991      0.0628     15.2032    150.4424     28.2802
  1136.4000   1011.3903      8.1547      2.3832      0.0727     16.1715    169.0098     28.4064
  1136.5000   1009.5745      8.1266      2.3603      0.0352     17.5580    184.5852     29.0831
  1136.6000   1009.5745      8.1266      2.3293      0.0321     19.4394    180.7941     29.3058
  1136.7000   1009.5745      8.1266      2.2866      0.0507     22.0263    169.2263     29.0232
  1136.8000    975.6705      8.1512      2.2405      0.0129     24.8196    162.3089     29.1824
  1136.9000    975.6705      8.1512      2.2091      0.0352     26.7226    158.6401     29.9374
  1137.0000   1012.5564      8.1563      2.1936      0.0296     27.6630    159.9161     30.7018
  1137.1000   1012.5564      8.1563      2.1850     -0.0085     28.1831    168.2942     31.0167
  1137.2000   1012.5564      8.1563      2.1878      0.0109     28.0122    174.4782     30.7243
  1137.3000   1032.5332      8.1699      2.2123      0.0202     26.5279    169.6794     29.9816
  1137.4000   1032.5332      8.1699      2.2587      0.1298     23.7141    160.7744     29.0565
  1137.5000    973.8334      8.1663      2.3152      0.1184     20.2905    156.2589     28.5520
  1137.6000    973.8334      8.1663      2.3718      0.1208     16.8609    155.3114     29.0045
  1137.7000    973.8334      8.1663      2.4242      0.0732     13.6822    158.3758     29.9054
  1137.8000    987.4617      8.1356      2.4659      0.0927     11.1554    166.5078     30.3866
  1137.9000    987.4617      8.1356      2.4908      0.0336      9.6487    172.9118     30.3741
  1138.0000    997.6621      8.1010      2.5089      0.0424      8.5490    171.3389     30.1335
  1138.1000    997.6621      8.1010      2.5345      0.0548      6.9981    168.4121     29.7283
