~Version Information
VERS.                      2.0: CWLS Log ASCII Standard - VERSION 2.0
WRAP.                       NO: One line per depth step
~Well Information Block
STRT.FT               -12.5000: 
STOP.FT              2284.7500: 
STEP.FT                 0.2500: 
NULL.                -999.2500: 
COMP.          Pioneer Natural Resources: COMPANY
WELL.          Hill Climb 22-2: WELL
FLD.           Purgatorie River: FIELD
LOC.           1820' FNL & 2193' FWL--: LOCATION
PROV.                       CO: PROVINCE
CNTY.               Las Animas: COUNTRY
SRVC.                         : SERVICE COMPANY
DATE.          Fri Oct 22 11:44:16 2004: LOG DATE
UWI.                          : UNIQUE WELL ID
~Curve Information Block
DEPT.FT            0 000 00 00: Depth
GR.GAPI                       : Gamma Ray
CCL.                          : Casing Collar Locator
TT3.usec                      : CBL 3' Travel Time
AMP3.mV                       : CBL 3' Amplitude
~Parameter Information Block
~A  Depth        GR         CCL         TT3         AMP3    
# ...
  1495.0000    132.1335      0.0000    258.6280     73.7417
  1495.2500    134.9198      0.0000    258.6179     73.7053
  1495.5000    137.7710      0.0000    258.6231     73.5605
  1495.7500    140.5552      0.0000    258.6444     73.3567
  1496.0000    143.2261      0.0000    258.6755     73.1776
  1496.2500    145.2281      0.0000    258.7061     73.0818
  1496.5000    145.1822      0.0000    258.7267     73.0737
  1496.7500    142.1699      0.0000    258.7310     73.1221
  1497.0000    137.5947      0.0000    258.7197     73.1909
  1497.2500    134.8017      0.0000    258.7017     73.2540
  1497.5000    136.2799      0.0000    258.6914     73.2938
  1497.7500    141.5728      0.0000    258.6969     73.2952
  1498.0000    147.8951      0.0000    258.7134     73.2479
  1498.2500    152.0927      0.0000    258.7297     73.1560
  1498.5000    151.8772      0.0000    258.7392     73.0425
  1498.7500    146.1790      0.0000    258.7417     72.9422
  1499.0000    135.2633      0.0000    258.7394     72.8841
  1499.2500    120.6013      0.0000    258.7346     72.8773
  1499.5000    104.4007      0.0000    258.7297     72.9093
  1499.7500     88.9643      0.0000    258.7267     72.9620
  1500.0000     76.3298      0.0000    258.7266     73.0256
  1500.2500     68.5667      0.0000    258.7306     73.0962
  1500.5000     67.9835      0.0000    258.7398     73.1608
  1500.7500     75.8868      0.0000    258.7538     73.1993
  1501.0000     90.5057      0.0000    258.7683     73.2014
  1501.2500    106.7701      0.0000    258.7778     73.1735
  1501.5000    119.3422      0.0000    258.7792     73.1299
  1501.7500    126.4676      0.0000    258.7745     73.0834
  1502.0000    130.6598      0.0000    258.7681     73.0468
  1502.2500    135.5645      0.0000    258.7617     73.0336
  1502.5000    142.5014      0.0000    258.7538     73.0526
  1502.7500    149.7772      0.0000    258.7437     73.1012
  1503.0000    154.0541      0.0000    258.7331     73.1623
  1503.2500    151.9616      0.0000    258.7224     73.2113
  1503.5000    141.8564      0.0000    258.7102     73.2356
  1503.7500    125.5669      0.0000    258.6976     73.2483
  1504.0000    108.2144      0.0000    258.6909     73.2749
  1504.2500     95.3244      0.0000    258.6956     73.3219
  1504.5000     89.6324      0.0000    258.7113     73.3622
  1504.7500     90.4821      0.0000    258.7335     73.3574
  1505.0000     95.8108      0.0000    258.7570     73.2948
  1505.2500    104.2082      0.0000    258.7773     73.1991
  1505.5000    115.0815      0.0000    258.7902     73.1119
  1505.7500    127.4411      0.0000    258.7935     73.0607
  1506.0000    139.4309      0.0000    258.7897     73.0445
  1506.2500    149.3502      0.0000    258.7841     73.0527
  1506.5000    156.6382      0.0000    258.7789     73.0942
  1506.7500    161.7082      0.0000    258.7722     73.1933
  1507.0000    165.4133      0.0000    258.7627     73.3513
  1507.2500    168.5975      0.0000    258.7533     73.5270
  1507.5000    171.2936      0.0000    258.7476     73.6659
  1507.7500    172.4512      0.0000    258.7452     73.7437
  1508.0000    171.3109      0.0000    258.7441     73.7784
  1508.2500    168.9392      0.0000    258.7450     73.8032
  1508.5000    167.6871      0.0000    258.7495     73.8288
  1508.7500    169.1974      0.0000    258.7553     73.8312
  1509.0000    173.1252      0.0000    258.7573     73.7792
  1509.2500    177.2760      0.0000    258.7543     73.6711
  1509.5000    178.5617      0.0000    258.7505     73.5381
  1509.7500    174.5989      0.0000    258.7480     73.4224
  1510.0000    165.6894      0.0000    258.7438     73.3617
  1510.2500    155.4293      0.0000    258.7347     73.3862
  1510.5000    148.3429      0.0000    258.7238     73.5038
  1510.7500    146.3590      0.0000    258.7160     73.6834
  1511.0000    147.8907      0.0000    258.7119     73.8695
  1511.2500    150.0461      0.0000    258.7071     74.0183
  1511.5000    150.9344      0.0000    258.6992     74.1132
  1511.7500    149.9832      0.0000    258.6895     74.1519
  1512.0000    147.2299      0.0000    258.6807     74.1344
  1512.2500    143.0604      0.0000    258.6736     74.0646
  1512.5000    138.4026      0.0000    258.6675     73.9554
  1512.7500    134.5115      0.0000    258.6607     73.8318
  1513.0000    132.2160      0.0000    258.6505     73.7273
  1513.2500    131.3482      0.0000    258.6355     73.6711
  1513.5000    130.9174      0.0000    258.6214     73.6683
  1513.7500    129.9387      0.0000    258.6199     73.6964
  1514.0000    128.3656      0.0000    258.6391     73.7301
  1514.2500    127.4763      0.0000    258.6716     73.7728
  1514.5000    129.1885      0.0000    258.6988     73.8544
  1514.7500    134.5047      0.0000    258.7063     73.9922
  1515.0000    142.3082      0.0000    258.6936     74.1637
  1515.2500    149.8110      0.0000    258.6686     74.3225
  1515.5000    154.5463      0.0000    258.6385     74.4372
  1515.7500    155.9663      0.0000    258.6095     74.5074
  1516.0000    155.0153      0.0000    258.5888     74.5480
  1516.2500    152.5015      0.0000    258.5826     74.5649
  1516.5000    148.4366      0.0000    258.5918     74.5497
  1516.7500    142.9818      0.0000    258.6133     74.4905
  1517.0000    137.4847      0.0000    258.6418     74.3843
  1517.2500    134.0598      0.0000    258.6707     74.2441
  1517.5000    134.0012      0.0000    258.6931     74.0938
  1517.7500    136.5178      0.0000    258.7043     73.9545
  1518.0000    139.0608      0.0000    258.7055     73.8456
  1518.2500    139.2120      0.0000    258.7022     73.8013
  1518.5000    136.4497      0.0000    258.6963     73.8650
  1518.7500    132.1349      0.0000    258.6839     74.0430
  1519.0000    128.0819      0.0000    258.6620     74.2793
  1519.2500    125.4872      0.0000    258.6340     74.4945
  1519.5000    124.6992      0.0000    258.6061     74.6410
  1519.7500    124.8799      0.0000    258.5819     74.7110
  1520.0000    123.7999      0.0000    258.5648     74.7081
  1520.2500    119.1516      0.0000    258.5624     74.6310
  1520.5000    110.7980      0.0000    258.5799     74.4873
  1520.7500    101.4334      0.0000    258.6098     74.3171
  1521.0000     94.7552      0.0000    258.6350     74.1950
  1521.2500     92.9867      0.0000    258.6439     74.1915
  1521.5000     95.6931      0.0000    258.6388     74.3118
  1521.7500    100.4272      0.0000    258.6292     74.4787
  1522.0000    104.7380      0.0000    258.6224     74.5874
  1522.2500    108.0409      0.0000    258.6223     74.5802
  1522.5000    111.5160      0.0000    258.6313     74.4691
  1522.7500    116.3558      0.0000    258.6479     74.3123
  1523.0000    122.7200      0.0000    258.6645     74.1782
  1523.2500    130.2792      0.0000    258.6713     74.1132
  1523.5000    138.5726      0.0000    258.6644     74.1234
  1523.7500    146.3493      0.0000    258.6481     74.1899
  1524.0000    151.4058      0.0000    258.6312     74.2971
  1524.2500    151.9377      0.0000    258.6208     74.4313
  1524.5000    147.9871      0.0000    258.6210     74.5602
  1524.7500    141.3571      0.0000    258.6324     74.6352
  1525.0000    134.3942      0.0000    258.6509     74.6232
  1525.2500    128.9803      0.0000    258.6674     74.5314
  1525.5000    126.1226      0.0000    258.6718     74.4039
  1525.7500    125.8838      0.0000    258.6591     74.2977
  1526.0000    127.7135      0.0000    258.6334     74.2484
  1526.2500    130.9843      0.0000    258.6051     74.2520
  1526.5000    134.9921      0.0000    258.5869     74.2839
  1526.7500    138.6828      0.0000    258.5863     74.3370
  1527.0000    141.1146      0.0000    258.5991     74.4242
  1527.2500    142.1061      0.0000    258.6109     74.5425
  1527.5000    141.5837      0.0000    258.6072     74.6488
  1527.7500    138.5332      0.0000    258.5845     74.6792
  1528.0000    131.8011      0.0000    258.5528     74.5931
  1528.2500    122.2171      0.0000    258.5276     74.4088
