~Version Information
VERS.                      2.0: CWLS Log ASCII Standard - VERSION 2.0
WRAP.                       NO: One line per depth step
~Well Information Block
STRT.FT               577.8000: 
STOP.FT              2445.8000: 
STEP.FT                 0.1000: 
NULL.                -999.2500: 
COMP.          Petrogulf Corporation: COMPANY
WELL.             State 16-32V: WELL
FLD.           Purgatorie River: FIELD
LOC.           1599' FNL & 1783' FEL: LOCATION
CNTY.               Las Animas: COUNTY
SRVC.                         : SERVICE COMPANY
DATE.          Thu Jun 05 16:36:04 2003: LOG DATE
UWI.           05 071 07726 00: UNIQUE WELL ID
STAT.                 Colorado: STATE
~Curve Information Block
DEPT.FT            0 000 00 00: Depth
DCAL.in                       : Caliper from Density Tool
RHOB.g/cc                     : Bulk Density
RHOC.g/cc                     : Density Correction
DPOR.pu                       : Density Porosity
GR.GAPI                       : Gamma Ray
NPOR.pu                       : Neutron Porosity
~Parameter Information Block
~A  Depth       DCAL        RHOB        RHOC        DPOR         GR         NPOR    
# ...
  1941.0000      8.0595      2.6971      0.0539     -2.8539    106.4703     26.9595
  1941.1000      8.0595      2.6971      0.0539     -2.8539    106.5220     26.9122
  1941.2000      8.0595      2.6971      0.0539     -2.8539    106.4507     26.8475
  1941.3000      7.9891      2.7659      0.0653     -7.0243    106.2529     26.7621
  1941.4000      7.9891      2.7659      0.0653     -7.0243    105.9323     26.6550
  1941.5000      8.0212      2.7943      0.0740     -8.7436    105.4986     26.5274
  1941.6000      8.0212      2.7943      0.0740     -8.7436    104.9670     26.3836
  1941.7000      8.0212      2.7943      0.0740     -8.7436    104.3590     26.2302
  1941.8000      8.0782      2.7930      0.0827     -8.6693    103.7038     26.0760
  1941.9000      8.0782      2.7930      0.0827     -8.6693    103.0376     25.9312
  1942.0000      8.1213      2.7644      0.0834     -6.9344    102.4042     25.8055
  1942.1000      8.1213      2.7644      0.0834     -6.9344    101.8518     25.7076
  1942.2000      8.1213      2.7644      0.0834     -6.9344    101.4281     25.6436
  1942.3000      8.1513      2.6995      0.0780     -2.9975    101.1733     25.6167
  1942.4000      8.1513      2.6995      0.0780     -2.9975    101.1151     25.6263
  1942.5000      8.1264      2.6547      0.0724     -0.2827    101.2615     25.6690
  1942.6000      8.1264      2.6547      0.0724     -0.2827    101.5966     25.7389
  1942.7000      8.1264      2.6547      0.0724     -0.2827    102.0809     25.8290
  1942.8000      8.0958      2.5999      0.0645      3.0369    102.6572     25.9321
  1942.9000      8.0958      2.5999      0.0645      3.0369    103.2586     26.0420
  1943.0000      8.0925      2.5746      0.0607      4.5705    103.8206     26.1538
  1943.1000      8.0925      2.5746      0.0607      4.5705    104.2929     26.2641
  1943.2000      8.0925      2.5746      0.0607      4.5705    104.6524     26.3712
  1943.3000      8.1367      2.5517      0.0573      5.9604    104.9048     26.4740
  1943.4000      8.1367      2.5517      0.0573      5.9604    105.0856     26.5719
  1943.5000      8.1994      2.5432      0.0564      6.4703    105.2511     26.6640
  1943.6000      8.1994      2.5432      0.0564      6.4703    105.4666     26.7490
  1943.7000      8.1994      2.5432      0.0564      6.4703    105.7912     26.8249
  1943.8000      8.2049      2.5343      0.0563      7.0128    106.2639     26.8894
  1943.9000      8.2049      2.5343      0.0563      7.0128    106.8954     26.9406
  1944.0000      8.2218      2.5266      0.0570      7.4774    107.6652     26.9775
  1944.1000      8.2218      2.5266      0.0570      7.4774    108.5236     27.0009
  1944.2000      8.2218      2.5266      0.0570      7.4774    109.4027     27.0129
  1944.3000      8.2202      2.5044      0.0589      8.8248    110.2288     27.0181
  1944.4000      8.2202      2.5044      0.0589      8.8248    110.9319     27.0222
  1944.5000      8.1725      2.4766      0.0605     10.5077    111.4583     27.0319
  1944.6000      8.1725      2.4766      0.0605     10.5077    111.7737     27.0535
  1944.7000      8.1725      2.4766      0.0605     10.5077    111.8667     27.0927
  1944.8000      8.1467      2.4040      0.0630     14.9102    111.7452     27.1542
  1944.9000      8.1467      2.4040      0.0630     14.9102    111.4297     27.2418
  1945.0000      8.1334      2.3297      0.0641     19.4142    110.9474     27.3589
  1945.1000      8.1334      2.3297      0.0641     19.4142    110.3258     27.5092
  1945.2000      8.1334      2.3297      0.0641     19.4142    109.5876     27.6969
  1945.3000      8.1429      2.1805      0.0646     28.4535    108.7502     27.9271
  1945.4000      8.1429      2.1805      0.0646     28.4535    107.8244     28.2054
  1945.5000      8.1597      2.0644      0.0646     35.4884    106.8180     28.5369
  1945.6000      8.1597      2.0644      0.0646     35.4884    105.7363     28.9259
  1945.7000      8.1597      2.0644      0.0646     35.4884    104.5870     29.3737
  1945.8000      8.1374      1.8877      0.0654     46.1978    103.3800     29.8791
  1945.9000      8.1374      1.8877      0.0654     46.1978    102.1284     30.4363
  1946.0000      8.1500      1.7805      0.0665     52.6967    100.8484     31.0357
  1946.1000      8.1500      1.7805      0.0665     52.6967     99.5562     31.6637
  1946.2000      8.1500      1.7805      0.0665     52.6967     98.2682     32.3032
  1946.3000      8.1876      1.6488      0.0678     60.6759     96.9975     32.9350
  1946.4000      8.1876      1.6488      0.0678     60.6759     95.7530     33.5391
  1946.5000      8.3004      1.5830      0.0672     64.6663     94.5371     34.0963
  1946.6000      8.3004      1.5830      0.0672     64.6663     93.3462     34.5899
  1946.7000      8.3004      1.5830      0.0672     64.6663     92.1708     35.0076
  1946.8000      8.6945      1.5135      0.0628     68.8783     90.9943     35.3420
  1946.9000      8.6945      1.5135      0.0628     68.8783     89.7925     35.5916
  1947.0000      9.4843      1.4815      0.0572     70.8194     88.5348     35.7603
  1947.1000      9.4843      1.4815      0.0572     70.8194     87.1848     35.8569
  1947.2000      9.4843      1.4815      0.0572     70.8194     85.7012     35.8941
  1947.3000     10.3728      1.4451      0.0454     73.0229     84.0405     35.8871
  1947.4000     10.3728      1.4451      0.0454     73.0229     82.1650     35.8518
  1947.5000     10.5929      1.4256      0.0360     74.2040     80.0467     35.8038
  1947.6000     10.5929      1.4256      0.0360     74.2040     77.6729     35.7568
  1947.7000     10.5929      1.4256      0.0360     74.2040     75.0545     35.7213
  1947.8000      9.9939      1.4067      0.0210     75.3534     72.2268     35.7038
  1947.9000      9.9939      1.4067      0.0210     75.3534     69.2523     35.7060
  1948.0000      9.3444      1.4068      0.0114     75.3449     66.2182     35.7247
  1948.1000      9.3444      1.4068      0.0114     75.3449     63.2314     35.7524
  1948.2000      9.3444      1.4068      0.0114     75.3449     60.4113     35.7781
  1948.3000      9.3319      1.4383     -0.0004     73.4334     57.8833     35.7888
  1948.4000      9.3319      1.4383     -0.0004     73.4334     55.7684     35.7710
  1948.5000      9.7761      1.4859     -0.0049     70.5536     54.1784     35.7125
  1948.6000      9.7761      1.4859     -0.0049     70.5536     53.2068     35.6039
  1948.7000      9.7761      1.4859     -0.0049     70.5536     52.9245     35.4389
  1948.8000      9.9229      1.6003     -0.0034     63.6202     53.3777     35.2149
  1948.9000      9.9229      1.6003     -0.0034     63.6202     54.5837     34.9329
  1949.0000      9.6001      1.7020      0.0038     57.4555     56.5313     34.5965
  1949.1000      9.6001      1.7020      0.0038     57.4555     59.1814     34.2116
  1949.2000      9.6001      1.7020      0.0038     57.4555     62.4639     33.7858
  1949.3000      9.2212      1.8768      0.0215     46.8589     66.2847     33.3276
  1949.4000      9.2212      1.8768      0.0215     46.8589     70.5250     32.8465
  1949.5000      8.9280      1.9947      0.0353     39.7134     75.0497     32.3528
  1949.6000      8.9280      1.9947      0.0353     39.7134     79.7140     31.8573
  1949.7000      8.9280      1.9947      0.0353     39.7134     84.3747     31.3710
  1949.8000      8.8678      2.1519      0.0549     30.1849     88.8998     30.9053
  1949.9000      8.8678      2.1519      0.0549     30.1849     93.1802     30.4700
  1950.0000      8.9773      2.2370      0.0666     25.0329     97.1340     30.0743
  1950.1000      8.9773      2.2370      0.0666     25.0329    100.7115     29.7247
  1950.2000      8.9773      2.2370      0.0666     25.0329    103.8926     29.4254
  1950.3000      8.9667      2.3352      0.0833     19.0786    106.6820     29.1776
  1950.4000      8.9667      2.3352      0.0833     19.0786    109.1038     28.9802
  1950.5000      8.7376      2.3849      0.0940     16.0682    111.1913     28.8295
