~Version Information
VERS.                      2.0: CWLS Log ASCII Standard - VERSION 2.0
WRAP.                       NO: One line per depth step
~Well Information Block
STRT.FT                -4.5000: 
STOP.FT              1680.2500: 
STEP.FT                 0.2500: 
NULL.                -999.2500: 
COMP.          Pioneer Natural Resources: COMPANY
WELL.            Salty 42-6 Tr: WELL
FLD.           Purgatorie River: FIELD
LOC.           2409' FNL & 599' FEL--: LOCATION
PROV.                       CO: PROVINCE
CNTY.               Las Animas: COUNTRY
SRVC.                         : SERVICE COMPANY
DATE.          Mon Dec 20 13:36:48 2004: LOG DATE
UWI.           071-08238      : UNIQUE WELL ID
~Curve Information Block
DEPT.FT            0 000 00 00: Depth
HVOLTA.V                      : Head Voltage Apparent
GR.GAPI                       : Gamma Ray
CCL.                          : Casing Collar Locator
TT3.usec                      : CBL 3' Travel Time
AMP3.mV                       : CBL 3' Amplitude
~Parameter Information Block
~A  Depth      HVOLTA        GR         CCL         TT3         AMP3    
# ...
   443.5000     97.2697     44.8592      0.0000    768.4785     11.4658
   443.7500     97.1060     45.3111      0.0000    768.4200     11.5956
   444.0000     97.1741     46.4911      0.0000    768.3491     11.6935
   444.2500     97.1227     48.2049      0.0000    768.2709     11.7191
   444.5000     97.2051     50.1539      0.0000    768.1914     11.6752
   444.7500     97.1908     52.2568      0.0000    768.1068     11.5954
   445.0000     97.2290     55.0213      0.0000    768.0067     11.5129
   445.2500     97.3485     59.3004      0.0000    767.8871     11.4420
   445.5000     97.2661     65.5257      0.0000    767.7576     11.3861
   445.7500     97.2386     73.2559      0.0000    767.6386     11.3522
   446.0000     97.0892     81.4800      0.0000    767.5456     11.3525
   446.2500     97.1776     89.2775      0.0000    767.4673     11.3929
   446.5000     97.1944     96.2803      0.0000    767.3589     11.4672
   446.7500     97.2493    102.6480      0.0000    767.1628     11.5620
   447.0000     97.0917    108.5201      0.0000    766.8457     11.6617
   447.2500     97.0271    113.3451      0.0000    766.4225     11.7441
   447.5000     97.1299    115.7319      0.0000    765.9500     11.7803
   447.7500     97.1095    114.1737      0.0000    765.4933     11.7540
   448.0000     97.0642    108.2144      0.0000    765.0931     11.6821
   448.2500     97.1837     99.1044      0.0000    764.7668     11.6098
   448.5000     96.9686     89.3686      0.0000    764.5346     11.5783
   448.7500     97.0952     81.8032      0.0000    764.4207     11.5946
   449.0000     97.0296     78.6627      0.0000    764.3777     11.6294
   449.2500     97.0952     80.9262      0.0000    764.0648     11.6452
   449.5000     97.0642     87.5477      0.0000    762.5361     11.6217
   449.7500     97.3567     95.7472      0.0000    758.1303     11.5534
   450.0000     97.0738    102.8693      0.0000    749.4267     11.4403
   450.2500     97.0343    107.9846      0.0000    737.7538     11.2889
   450.5000     97.1694    111.4606      0.0000    729.3204     11.0902
   450.7500     97.1120    113.6328      0.0000    733.0368     10.7854
   451.0000     97.0952    114.4172      0.0000    753.3283     10.3051
   451.2500     97.1395    113.5692      0.0000    784.2231      9.6836
   451.5000     96.9925    110.7946      0.0000    812.1203      9.0816
   451.7500     97.0774    106.1852      0.0000    826.0993      8.6539
   452.0000     97.0068    100.9795      0.0000    826.1545      8.4244
   452.2500     97.2147     97.5382      2.0000    821.7433      8.3152
   452.5000     97.1323     97.8745     -2.0000    822.8433      8.2587
   452.7500     97.3927    101.7996      0.0000    831.7090      8.2743
   453.0000     97.0403    106.5670      0.0000    841.5471      8.4617
   453.2500     97.1812    108.7027      0.0000    842.7704      8.9079
   453.5000     97.1526    106.5489      0.0000    831.4640      9.5574
   453.7500     97.2219    101.4661      0.0000    812.2103     10.1931
   454.0000     97.2458     96.7800      0.0000    793.2540     10.6107
   454.2500     97.0128     95.3033      0.0000    780.0103     10.7965
   454.5000     97.1765     97.3567      0.0000    773.0397     10.8886
   454.7500     97.0678    100.9396      0.0000    770.2295     11.0006
   455.0000     97.2254    103.7003      0.0000    769.3867     11.1402
   455.2500     97.0821    104.6163      0.0000    769.2330     11.2616
   455.5000     97.0845    104.1780      0.0000    769.2390     11.3342
   455.7500     97.3210    103.7910      0.0000    769.2280     11.3613
   456.0000     97.0667    105.0096      0.0000    769.1526     11.3647
   456.2500     97.7874    108.4660      0.0000    769.0279     11.3648
   456.5000     97.1705    113.0340      0.0000    768.9162     11.3659
   456.7500     97.1526    116.3318      0.0000    768.8790     11.3614
   457.0000     97.2697    116.4026      0.0000    768.9198     11.3504
   457.2500     97.2518    113.1418      0.0000    768.9825     11.3489
   457.5000     97.1359    108.1201      0.0000    769.0119     11.3759
   457.7500     97.1837    103.0983      0.0000    769.0027     11.4273
   458.0000     97.1873     99.0903      0.0000    768.9871     11.4682
   458.2500     97.0606     96.8066      0.0000    768.9873     11.4513
   458.5000     97.3510     96.9648      0.0000    768.9883     11.3485
   458.7500     97.2493     99.6149      0.0000    768.9539     11.1695
   459.0000     97.0367    103.7169      0.0000    768.8661     10.9572
   459.2500     96.9651    107.8463      0.0000    768.7419     10.7628
   459.5000     97.2422    111.1938      0.0000    768.6067     10.6215
   459.7500     97.2112    113.8932      0.0000    768.4616     10.5395
   460.0000     97.3174    116.5171      0.0000    768.2899     10.4972
   460.2500     97.1837    119.1592      0.0000    768.0757     10.4649
   460.5000     97.0032    121.0367      0.0000    767.7977     10.4220
   460.7500     97.1263    121.1800      0.0000    767.4233     10.3681
   461.0000     97.2183    119.3221      0.0000    766.9379     10.3169
   461.2500     97.0032    115.7881      0.0000    766.3752     10.2810
   461.5000     97.2219    110.8976      0.0000    765.8102     10.2590
   461.7500     97.2458    105.1093      0.0000    765.3232     10.2307
   462.0000     97.2112     99.5023      0.0000    764.9799     10.1695
   462.2500     97.2447     95.5288      0.0000    764.8314     10.0661
   462.5000     97.1024     94.2421      0.0000    764.9213      9.9391
   462.7500     97.3545     95.6772      0.0000    765.2837      9.8167
   463.0000     97.0164     98.6111      0.0000    765.9072      9.7165
   463.2500     97.1705    101.0620      0.0000    766.6793      9.6505
   463.5000     97.0821    101.7671      0.0000    767.3886      9.6401
   463.7500     97.0678    101.6239      0.0000    767.8028      9.7102
   464.0000     97.1238    103.1203      0.0000    767.6973      9.8672
   464.2500     97.0439    107.5261      0.0000    766.7094     10.0921
   464.5000     97.0307    112.9178      0.0000    764.1858     10.3534
   464.7500     97.3317    115.8903      0.0000    759.4321     10.6194
   465.0000     97.1537    115.1642      0.0000    752.4490     10.8616
   465.2500     97.2087    112.4958      0.0000    744.4471     11.0579
   465.5000     97.2864    110.1574      0.0000    737.3401     11.1995
   465.7500     97.0810    108.7434      0.0000    732.5699     11.2931
   466.0000     97.2661    107.5374      0.0000    730.5112     11.3580
   466.2500     97.1263    105.7820      0.0000    730.8304     11.4193
   466.5000     97.2076    103.0913      0.0000    732.9478     11.4937
   466.7500     97.0271     99.4256      0.0000    736.0836     11.5708
   467.0000     97.1837     95.1964      0.0000    739.4028     11.6164
   467.2500     97.2386     90.9697      0.0000    742.4056     11.6017
   467.5000     96.9997     86.8623      0.0000    744.7932     11.5262
   467.7500     97.2493     82.7343      0.0000    745.9261     11.4018
   468.0000     97.0367     79.1931      0.0000    745.2906     11.2165
   468.2500     97.1156     77.7031      0.0000    743.8341     10.9288
   468.5000     97.0821     79.0696      0.0000    743.9301     10.5080
   468.7500     97.2493     82.1523      0.0000    747.3044      9.9773
   469.0000     97.3759     84.6620      0.0000    753.3230      9.4165
   469.2500     97.2529     85.1398      0.0000    759.6646      8.9217
   469.5000     97.0678     83.8579      0.0000    764.3530      8.5554
   469.7500     97.2015     81.9247      0.0000    766.8774      8.3268
   470.0000     97.0068     80.1240      0.0000    767.8040      8.2123
   470.2500     97.1873     78.8931      0.0000    767.9159      8.1878
   470.5000     97.2087     78.8687      0.0000    767.7626      8.2349
   470.7500     97.1884     80.5849      0.0000    767.5889      8.3261
   471.0000     97.0032     83.3840      0.0000    767.3419      8.4245
   471.2500     97.0821     85.2618      0.0000    766.6729      8.5053
