~Version Information
VERS.                      2.0: CWLS Log ASCII Standard - VERSION 2.0
WRAP.                       NO: One line per depth step
~Well Information Block
STRT.FT               450.0000: 
STOP.FT              1739.2500: 
STEP.FT                 0.2500: 
NULL.                -999.2500: 
COMP.          Pioneer Natural Resources: COMPANY
WELL.            Harlee L 34-9: WELL
FLD.           Purgatoire River: FIELD
LOC.           600' FSL & 2125' FEL: LOCATION
PROV.                 Colorado: PROVINCE
CNTY.               Las Animas: COUNTRY
SRVC.                Patterson: SERVICE COMPANY
DATE.          Wed Jan 26 02:00:08 2005: LOG DATE
UWI.           05 071 08009 00: UNIQUE WELL ID
~Curve Information Block
DEPT.FT            0 000 00 00: Depth
SN.Ohm-m                      : IEL Short Normal
SP.mV                         : IEL Spontaneous Potential
DIR.Ohm-m                     : IEL Induction Resistivity
GR.GAPI                       : Gamma Ray
~Parameter Information Block
~A  Depth        SN          SP         DIR          GR     
# ...
  1187.0000     25.8775   -158.3177     21.8227     79.2477
  1187.2500     25.2935   -157.7884     21.4796     79.5908
  1187.5000     24.7855   -157.1642     21.0538     83.1498
  1187.7500     24.3690   -156.4973     20.6171     87.5777
  1188.0000     24.0062   -155.8311     20.2249     95.9656
  1188.2500     23.6301   -155.1932     19.8975    101.3548
  1188.5000     23.1699   -154.5941     19.6143    106.9529
  1188.7500     22.5788   -154.0339     19.3252    108.3907
  1189.0000     21.8609   -153.5102     18.9793    107.2470
  1189.2500     21.0838   -153.0275     18.5565    104.9512
  1189.5000     20.3642   -152.6024     18.0833    100.9825
  1189.7500     19.8302   -152.2642     17.6212     99.0270
  1190.0000     19.5762   -152.0504     17.2395     98.3223
  1190.2500     19.6306   -151.9978     16.9904     99.6362
  1190.5000     19.9480   -152.1320     16.8961    103.9084
  1190.7500     20.4257   -152.4572     16.9479    107.2230
  1191.0000     20.9347   -152.9494     17.1113    109.7452
  1191.2500     21.3499   -153.5551     17.3361    108.0833
  1191.5000     21.5778   -154.1964     17.5682     99.8226
  1191.7500     21.5863   -154.7826     17.7619     91.6160
  1192.0000     21.4279   -155.2263     17.8883     78.8780
  1192.2500     21.2309   -155.4603     17.9389     72.2045
  1192.5000     21.1412   -155.4492     17.9231     67.2132
  1192.7500     21.2332   -155.1944     17.8609     67.7047
  1193.0000     21.4472   -154.7291     17.7701     73.8219
  1193.2500     21.6079   -154.1090     17.6497     80.5535
  1193.5000     21.5220   -153.4009     17.4693     91.7019
  1193.7500     21.0862   -152.6718     17.1772     97.9884
  1194.0000     20.3314   -151.9801     16.7314    104.3071
  1194.2500     19.3848   -151.3679     16.1349    107.0659
  1194.5000     18.3950   -150.8555     15.4440    111.0999
  1194.7500     17.4733   -150.4397     14.7412    114.4703
  1195.0000     16.6692   -150.0974     14.0982    120.3643
  1195.2500     15.9717   -149.7943     13.5547    124.1646
  1195.5000     15.3265   -149.4984     13.1161    128.3618
  1195.7500     14.6669   -149.1907     12.7630    129.7552
  1196.0000     13.9513   -148.8706     12.4641    130.0251
  1196.2500     13.1861   -148.5524     12.1882    129.5781
  1196.5000     12.4224   -148.2549     11.9134    129.1800
  1196.7500     11.7305   -147.9897     11.6295    129.6545
  1197.0000     11.1711   -147.7540     11.3349    131.5314
  1197.2500     10.7744   -147.5320     11.0318    132.9358
  1197.5000     10.5269   -147.3032     10.7217    134.0089
  1197.7500     10.3711   -147.0524     10.4024    133.9922
  1198.0000     10.2332   -146.7766     10.0689    134.2630
  1198.2500     10.0695   -146.4854      9.7176    135.5212
  1198.5000      9.8884   -146.1955      9.3529    139.0281
  1198.7500      9.7217   -145.9233      8.9887    141.5617
  1199.0000      9.5815   -145.6796      8.6427    144.2620
  1199.2500      9.4526   -145.4683      8.3275    145.4214
  1199.5000      9.3178   -145.2899      8.0455    147.6784
  1199.7500      9.1770   -145.1465      7.7928    150.2393
  1200.0000      9.0464   -145.0457      7.5695    155.3101
  1200.2500      8.9476   -145.0013      7.3873    158.5738
  1200.5000      8.9001   -145.0293      7.2688    161.7032
  1200.7500      8.9179   -145.1411      7.2383    162.0091
  1201.0000      9.0058   -145.3376      7.3117    159.2079
  1201.2500      9.1525   -145.6065      7.4901    155.1442
  1201.5000      9.3244   -145.9243      7.7589    146.3236
  1201.7500      9.4645   -146.2629      8.0901    138.9360
  1202.0000      9.5076   -146.5949      8.4481    125.7376
  1202.2500      9.4167   -146.8968      8.7963    115.9390
  1202.5000      9.2265   -147.1486      9.1048    102.0730
  1202.7500      9.0515   -147.3320      9.3556     95.2970
  1203.0000      9.0334   -147.4317      9.5428     91.1103
  1203.2500      9.2503   -147.4384      9.6678     92.4147
  1203.5000      9.6531   -147.3522      9.7322     98.9578
  1203.7500     10.0851   -147.1828      9.7328    104.9273
  1204.0000     10.3731   -146.9473      9.6608    113.5495
  1204.2500     10.4201   -146.6664      9.5070    117.7227
  1204.5000     10.2336   -146.3619      9.2711    120.6710
  1204.7500      9.8896   -146.0559      8.9693    120.9258
  1205.0000      9.4778   -145.7697      8.6329    120.7926
  1205.2500      9.0625   -145.5211      8.3003    121.5048
  1205.5000      8.6737   -145.3219      8.0058    124.4022
  1205.7500      8.3204   -145.1749      7.7724    126.9840
  1206.0000      8.0108   -145.0732      7.6092    130.0485
  1206.2500      7.7586   -145.0030      7.5127    130.6730
  1206.5000      7.5731   -144.9480      7.4680    128.9754
  1206.7500      7.4482   -144.8944      7.4507    126.4807
  1207.0000      7.3610   -144.8344      7.4326    122.4285
  1207.2500      7.2831   -144.7659      7.3906    120.8832
  1207.5000      7.1956   -144.6911      7.3176    122.2300
  1207.7500      7.0985   -144.6129      7.2250    125.8103
  1208.0000      7.0088   -144.5331      7.1335    133.6498
  1208.2500      6.9485   -144.4518      7.0604    138.9212
  1208.5000      6.9292   -144.3684      7.0117    144.6160
  1208.7500      6.9447   -144.2836      6.9837    146.5342
  1209.0000      6.9729   -144.1989      6.9677    147.3795
  1209.2500      6.9888   -144.1168      6.9564    147.3110
  1209.5000      6.9793   -144.0396      6.9461    146.9773
  1209.7500      6.9496   -143.9680      6.9367    146.6689
  1210.0000      6.9177   -143.9010      6.9308    145.9958
  1210.2500      6.9015   -143.8361      6.9320    145.3822
  1210.5000      6.9103   -143.7701      6.9436    144.2226
  1210.7500      6.9422   -143.6998      6.9671    143.3117
  1211.0000      6.9837   -143.6222      7.0007    141.8151
  1211.2500      7.0130   -143.5347      7.0380    140.8209
  1211.5000      7.0079   -143.4335      7.0686    139.6295
  1211.7500      6.9569   -143.3140      7.0802    139.3068
  1212.0000      6.8666   -143.1704      7.0621    140.0173
  1212.2500      6.7620   -142.9975      7.0091    141.3889
  1212.5000      6.6749   -142.7928      6.9236    144.2335
  1212.7500      6.6241   -142.5582      6.8139    145.9632
  1213.0000      6.5992   -142.3007      6.6908    147.3830
  1213.2500      6.5653   -142.0311      6.5632    147.6022
  1213.5000      6.4879   -141.7618      6.4374    147.5997
  1213.7500      6.3596   -141.5047      6.3172    147.5961
  1214.0000      6.2062   -141.2703      6.2052    147.2592
  1214.2500      6.0658   -141.0667      6.1020    146.6522
  1214.5000      5.9635   -140.8983      6.0059    145.7449
  1214.7500      5.9031   -140.7635      5.9134    145.8420
  1215.0000      5.8741   -140.6518      5.8218    147.8211
  1215.2500      5.8634   -140.5417      5.7316    150.0655
  1215.5000      5.8659   -140.4046      5.6479    153.0713
  1215.7500      5.8909   -140.2149      5.5793    153.6508
  1216.0000      5.9564   -139.9642      5.5340    151.4363
  1216.2500      6.0716   -139.6730      5.5181    148.3962
  1216.5000      6.2242   -139.3921      5.5353    143.6199
  1216.7500      6.3878   -139.1919      5.5883    141.3968
  1217.0000      6.5394   -139.1424      5.6809    139.8419
  1217.2500      6.6668   -139.2950      5.8181    139.3474
  1217.5000      6.7637   -139.6723      6.0054    137.9086
  1217.7500      6.8295   -140.2677      6.2470    135.8091
  1218.0000      6.8823   -141.0480      6.5452    130.3474
  1218.2500      6.9733   -141.9570      6.9007    125.1236
  1218.5000      7.1812   -142.9171      7.3122    115.3428
  1218.7500      7.5755   -143.8363      7.7735    108.0387
  1219.0000      8.1656   -144.6220      8.2671     96.9924
  1219.2500      8.8752   -145.1999      8.7565     90.1413
  1219.5000      9.5713   -145.5305      9.1861     81.6033
  1219.7500     10.1346   -145.6156      9.4932     77.9660
  1220.0000     10.5162   -145.4932      9.6340     77.7945
  1220.2500     10.7376   -145.2231      9.6053     82.2075
