~Version Information
VERS.                      2.0: CWLS Log ASCII Standard - VERSION 2.0
WRAP.                       NO: One line per depth step
~Well Information Block
STRT.FT               294.0000: 
STOP.FT              1961.5000: 
STEP.FT                 0.2500: 
NULL.                -999.2500: 
COMP.          Pioneer Natural Resources: COMPANY
WELL.          Commander 43-26 Tr: WELL
FLD.           Purgatoire River: FIELD
LOC.           2439' FSL & 446' FEL: LOCATION
PROV.                 Colorado: PROVINCE
CNTY.               Las Animas: COUNTRY
SRVC.                Patterson: SERVICE COMPANY
DATE.          Thu Apr 14 18:26:07 2005: LOG DATE
UWI.           05 071 08341 00: UNIQUE WELL ID
~Curve Information Block
DEPT.FT            0 000 00 00: Depth
SN.Ohm-m                      : IEL Short Normal
SP.mV                         : IEL Spontaneous Potential
DIR.Ohm-m                     : IEL Induction Resistivity
GR.GAPI                       : Gamma Ray
~Parameter Information Block
~A  Depth        SN          SP         DIR          GR     
   294.0000   2000.0000   2000.0000     68.9113     74.4198
   294.2500   2000.0000   2000.0000     68.5941     73.0899
   294.5000   2000.0000   2000.0000     68.2431     71.5208
   294.7500   2000.0000   2000.0000     68.0798     70.5622
   295.0000   2000.0000   2000.0000     68.2827     69.2075
   295.2500   2000.0000   2000.0000     68.8622     68.3166
   295.5000   2000.0000   2000.0000     69.6216     66.7360
   295.7500   2000.0000   2000.0000     70.2391     65.3946
   296.0000   2000.0000   2000.0000     70.4450     63.2067
   296.2500   2000.0000   2000.0000     70.1799     62.0851
   296.5000   2000.0000   2000.0000     69.6028     61.5810
   296.7500   2000.0000   2000.0000     68.9550     61.9984
   297.0000   2000.0000   2000.0000     68.4183     63.1651
   297.2500   2000.0000   2000.0000     68.0678     64.0912
   297.5000   2000.0000   2000.0000     67.9076     65.7614
   297.7500   2000.0000   2000.0000     67.9179     66.9727
   298.0000   2000.0000   2000.0000     68.0710     68.2654
   298.2500   2000.0000   2000.0000     68.3267     68.4938
   298.5000   2000.0000   2000.0000     68.6242     68.3041
   298.7500   2000.0000   2000.0000     68.9116     68.3516
   299.0000   2000.0000   2000.0000     69.2037     69.0408
   299.2500   2000.0000   2000.0000     69.6286     69.6675
   299.5000   2000.0000   2000.0000     70.3749     70.3584
   299.7500   2000.0000   2000.0000     71.5518     70.6640
   300.0000   2000.0000   2000.0000     73.0790     71.2484
   300.2500   2000.0000   2000.0000     74.7180     71.7506
   300.5000   2000.0000   2000.0000     76.2068     72.2170
   300.7500   2000.0000   2000.0000     77.3196     72.1316
   301.0000   2000.0000   2000.0000     77.8010     71.6889
   301.2500   2000.0000   2000.0000     77.3874     71.5232
   301.5000   2000.0000   2000.0000     76.0410     71.7359
   301.7500   2000.0000   2000.0000     74.1080     72.0516
   302.0000   2000.0000   2000.0000     72.1270     72.2010
   302.2500   2000.0000   2000.0000     70.4931     71.6944
   302.5000   2000.0000   2000.0000     69.3221     69.7307
   302.7500   2000.0000   2000.0000     68.5353     67.8175
   303.0000   2000.0000   2000.0000     67.9956     64.7513
   303.2500   2000.0000   2000.0000     67.5834     62.8871
   303.5000   2000.0000   2000.0000     67.2140     60.4416
   303.7500   2000.0000   2000.0000     66.8248     58.9697
   304.0000   2000.0000   2000.0000     66.3419     57.0723
   304.2500   2000.0000   2000.0000     65.6310     56.2469
   304.5000   2000.0000   2000.0000     64.4774     56.1865
   304.7500   2000.0000   2000.0000     62.6906     57.1052
   305.0000   2000.0000   2000.0000     60.3118     59.8529
   305.2500   2000.0000   2000.0000     57.7251     62.5855
   305.5000   2000.0000   2000.0000     55.4825     68.7242
   305.7500   2000.0000   2000.0000     53.9484     72.4435
   306.0000   2000.0000   2000.0000     53.0365     85.2196
   306.2500   2000.0000   2000.0000     52.2103     95.6409
   306.5000   2000.0000   2000.0000     50.8078    111.5820
   306.7500   2000.0000   2000.0000     48.5408    112.5797
   307.0000   2000.0000   2000.0000     45.7109    122.7456
   307.2500   2000.0000   2000.0000     42.9645    127.7365
   307.5000   2000.0000   2000.0000     41.0061    133.1865
   307.7500   2000.0000   2000.0000     40.5959    125.7520
   308.0000   2000.0000   2000.0000     42.8167    128.4712
   308.2500   2000.0000   2000.0000     49.7443    129.8739
   308.5000   2000.0000   2000.0000     66.5263    131.4485
   308.7500   2000.0000   2000.0000    110.1572    121.4189
   309.0000   2000.0000   2000.0000    275.7740    120.8974
   309.2500   2000.0000   2000.0000 100000.0000    119.4892
   309.5000   2000.0000   2000.0000 100000.0000    116.0903
   309.7500   2000.0000   2000.0000 100000.0000    103.6109
   310.0000   2000.0000   2000.0000 100000.0000    100.1923
   310.2500   2000.0000   2000.0000 100000.0000     98.0654
   310.5000   2000.0000   2000.0000 100000.0000     94.9902
   310.7500   2000.0000   2000.0000 100000.0000     93.1230
   311.0000   2000.0000   2000.0000 100000.0000     90.9318
   311.2500   2000.0000   2000.0000 100000.0000     89.7588
   311.5000   2000.0000   2000.0000 100000.0000     87.4676
   311.7500   2000.0000   2000.0000 100000.0000     85.1149
   312.0000   2000.0000   2000.0000 100000.0000     80.9674
   312.2500   2000.0000   2000.0000 100000.0000     78.9442
   312.5000   2000.0000   2000.0000 100000.0000     78.9039
   312.7500   2000.0000   2000.0000 100000.0000     81.1938
   313.0000   2000.0000   2000.0000 100000.0000     87.2919
   313.2500   2000.0000   2000.0000 100000.0000     92.3150
   313.5000   2000.0000   2000.0000 100000.0000    100.0000
   313.7500   2000.0000   2000.0000 100000.0000    104.7380
   314.0000   2000.0000   2000.0000 100000.0000    111.0694
   314.2500   2000.0000   2000.0000 100000.0000    114.9104
   314.5000   2000.0000   2000.0000 100000.0000    120.0591
   314.7500   2000.0000   2000.0000 100000.0000    122.7123
   315.0000   2000.0000   2000.0000 100000.0000    125.0233
   315.2500   2000.0000   2000.0000     12.7063    125.7316
   315.5000   2000.0000   2000.0000      5.5323    126.6247
   315.7500   2000.0000   2000.0000      3.9235    127.4131
   316.0000   2000.0000   2000.0000      3.4964    128.5336
   316.2500   2000.0000   2000.0000      3.5883    128.9774
   316.5000   2000.0000   2000.0000      4.0361    129.1620
   316.7500   2000.0000   2000.0000      4.8419    129.0120
   317.0000   2000.0000   2000.0000      6.1772    128.2772
   317.2500   2000.0000   2000.0000      8.5522    127.4059
   317.5000   2000.0000   2000.0000     13.2714    125.7053
   317.7500   2000.0000   2000.0000     23.4400    124.5382
   318.0000   2000.0000   2000.0000     42.2122    123.3249
   318.2500   2000.0000   2000.0000     51.3129    123.2959
   318.5000   2000.0000   2000.0000     37.4211    124.8152
   318.7500   2000.0000   2000.0000     25.3677    126.6249
   319.0000   2000.0000   2000.0000     19.2909    129.6199
   319.2500   2000.0000   2000.0000     16.4420    131.5205
   319.5000   2000.0000   2000.0000     15.1371    134.4501
   319.7500   2000.0000   2000.0000     14.5473    136.5498
   320.0000   2000.0000   2000.0000     14.2712    139.4412
   320.2500   2000.0000   2000.0000     14.1447    140.8570
   320.5000   2000.0000   2000.0000     14.1345    142.4169
   320.7500   2000.0000   2000.0000     14.2735    143.6450
   321.0000   2000.0000   2000.0000     14.6295    146.5153
   321.2500   2000.0000   2000.0000     15.2784    148.8982
   321.5000   2000.0000   2000.0000     16.2567    151.8440
   321.7500   2000.0000   2000.0000     17.4769    152.7089
   322.0000   2000.0000   2000.0000     18.6646    152.4111
   322.2500   2000.0000   2000.0000     19.4419    151.8316
   322.5000   2000.0000   2000.0000     19.5921    151.5932
   322.7500   2000.0000   2000.0000     19.2183    151.9534
   323.0000   2000.0000   2000.0000     18.5838    152.2047
   323.2500   2000.0000   2000.0000     17.8794    151.4515
   323.5000   2000.0000   2000.0000     17.1681    149.0195
   323.7500   2000.0000   2000.0000     16.4622    147.4384
   324.0000   2000.0000   2000.0000     15.7993    146.6914
   324.2500   2000.0000   2000.0000     15.2520    147.4561
   324.5000   2000.0000   2000.0000     14.8892    149.5607
   324.7500   2000.0000   2000.0000     14.7366    150.8144
   325.0000   2000.0000   2000.0000     14.7646    151.5135
   325.2500   2000.0000   2000.0000     14.9039    151.1560
   325.5000   2000.0000   2000.0000     15.0785    150.3264
   325.7500   2000.0000   2000.0000     15.2385    150.3163
   326.0000   2000.0000   2000.0000     15.3762    151.6079
   326.2500   2000.0000   2000.0000     15.5167    152.9681
   326.5000   2000.0000   2000.0000     15.6963    154.5785
   326.7500   2000.0000   2000.0000     15.9425    154.7681
   327.0000   2000.0000   2000.0000     16.2666    153.1282
   327.2500   2000.0000   2000.0000     16.6622    150.6104
