~Version Information
VERS.                      2.0: CWLS Log ASCII Standard - VERSION 2.0
WRAP.                       NO: One line per depth step
~Well Information Block
STRT.FT               575.0000: 
STOP.FT              2016.2000: 
STEP.FT                 0.1000: 
NULL.                -999.2500: 
COMP.          Pioneer Natural Resources: COMPANY
WELL.          Bucksnort 41-35: WELL
FLD.           Purgatoire River: FIELD
LOC.           117' FNL & 463' FEL--: LOCATION
PROV.                 Colorado: PROVINCE
CNTY.               Las Animas: COUNTRY
SRVC.                Patterson: SERVICE COMPANY
DATE.          Thu Jul 21 15:01:23 2005: LOG DATE
UWI.           05 071 08401 00: UNIQUE WELL ID
~Curve Information Block
DEPT.FT            0 000 00 00: Depth
DCAL.in                       : CDL Caliper
RHOB.g/cc                     : CDL Bulk Density
RHOC.g/cc                     : CDL Density Correction
DPOR.pu                       : CDL Density Porosity
NPOR.pu                       : Neutron Porosity
GR.GAPI                       : Gamma Ray
~Parameter Information Block
~A  Depth       DCAL        RHOB        RHOC        DPOR        NPOR         GR     
# ...
  1515.8000      7.9671      2.6182      0.0689      1.9264     27.3280    107.9909
  1515.9000      7.9671      2.6067      0.0704      2.6266     27.0173    103.2063
  1516.0000      7.9568      2.5960      0.0344      3.2740     26.2416     94.1188
  1516.1000      7.9568      2.5885      0.0596      3.7269     25.5224     88.9294
  1516.2000      7.9568      2.5820      0.0397      4.1207     25.2920     89.7718
  1516.3000      7.9514      2.5768      0.0408      4.4360     25.4333     91.7219
  1516.4000      7.9514      2.5735      0.0618      4.6342     25.4975     91.4262
  1516.5000      7.9507      2.5707      0.0369      4.8074     25.1831     92.6078
  1516.6000      7.9507      2.5735      0.0062      4.6358     24.7472    131.8436
  1516.7000      7.9507      2.5846      0.0459      3.9630     24.3362    137.0016
  1516.8000      7.9563      2.5949      0.0744      3.3405     23.7947    129.2057
  1516.9000      7.9563      2.5958      0.0454      3.2856     23.6469    116.4655
  1517.0000      7.9671      2.5884      0.0504      3.7317     24.4396    110.8808
  1517.1000      7.9671      2.5807      0.0238      4.1979     25.3595    117.3297
  1517.2000      7.9671      2.5801      0.0327      4.2373     25.4886    129.9961
  1517.3000      7.9788      2.5893      0.0113      3.6805     25.3026    138.8948
  1517.4000      7.9788      2.6046      0.0653      2.7515     25.6316    145.0623
  1517.5000      7.9940      2.6154      0.0678      2.0978     26.2677    151.9945
  1517.6000      7.9940      2.6143      0.0589      2.1656     26.6886    155.5378
  1517.7000      7.9940      2.5957      0.0810      3.2917     26.6741    152.8996
  1517.8000      8.0060      2.5670      0.0338      5.0278     26.1934    144.6405
  1517.9000      8.0060      2.5540      0.0425      5.8179     25.7320    133.8358
  1518.0000      7.9980      2.5652      0.0364      5.1380     25.8921    128.0198
  1518.1000      7.9980      2.5796      0.0680      4.2661     26.5862    129.9648
  1518.2000      7.9980      2.5767      0.0557      4.4411     27.2023    135.8431
  1518.3000      7.9777      2.5629      0.0241      5.2762     27.6201    142.1751
  1518.4000      7.9777      2.5490      0.0383      6.1216     27.8273    144.6767
  1518.5000      7.9631      2.5312      0.0324      7.2017     27.4354    141.8747
  1518.6000      7.9631      2.5108      0.0048      8.4345     26.7163    142.9521
  1518.7000      7.9631      2.5017     -0.0029      8.9864     26.3380    155.4020
  1518.8000      7.9592      2.5171      0.0115      8.0545     26.3525    168.7812
  1518.9000      7.9592      2.5540      0.0405      5.8208     26.6051    167.8335
  1519.0000      7.9612      2.5907      0.0609      3.5929     27.2701    153.5422
  1519.1000      7.9612      2.6087      0.0493      2.5011     28.0940    138.6437
  1519.2000      7.9612      2.6035      0.0568      2.8207     28.2524    133.9277
  1519.3000      7.9643      2.5796      0.0374      4.2666     27.7187    140.5297
  1519.4000      7.9643      2.5537      0.0080      5.8361     27.3583    151.5490
  1519.5000      7.9631      2.5441      0.0395      6.4197     27.9328    160.0689
  1519.6000      7.9631      2.5419      0.0746      6.5499     28.9356    164.3806
  1519.7000      7.9631      2.5239      0.0370      7.6433     29.3816    165.6694
  1519.8000      7.9602      2.4948     -0.0011      9.4068     29.5799    165.7602
  1519.9000      7.9602      2.4773     -0.0034     10.4681     29.8812    164.7211
  1520.0000      7.9592      2.4754      0.0247     10.5841     29.8267    158.8773
  1520.1000      7.9592      2.4860      0.0208      9.9397     29.3983    151.7175
  1520.2000      7.9592      2.5120      0.0233      8.3632     28.8907    150.9705
  1520.3000      7.9583      2.5429      0.0732      6.4899     28.4674    150.7401
  1520.4000      7.9583      2.5620      0.0872      5.3333     28.2256    145.4586
  1520.5000      7.9575      2.5680      0.0745      4.9707     28.0589    142.4291
  1520.6000      7.9575      2.5646      0.0928      5.1777     27.9503    146.9499
  1520.7000      7.9575      2.5550      0.0389      5.7596     28.2981    154.7501
  1520.8000      7.9607      2.5457      0.0818      6.3231     29.2302    158.6438
  1520.9000      7.9607      2.5350      0.0561      6.9683     30.0629    157.7999
  1521.0000      7.9691      2.5259      0.0257      7.5233     30.0818    157.9996
  1521.1000      7.9691      2.5288      0.0014      7.3442     29.6788    164.3661
  1521.2000      7.9691      2.5408      0.0146      6.6203     29.8824    169.7656
  1521.3000      7.9801      2.5483      0.0577      6.1645     30.7212    166.4269
  1521.4000      7.9801      2.5561     -0.0001      5.6911     31.0767    160.8313
  1521.5000      7.9918      2.5760      0.0498      4.4857     30.5624    160.4879
  1521.6000      7.9918      2.5952      0.0735      3.3213     29.9695    161.6510
  1521.7000      7.9918      2.5963      0.0900      3.2555     29.9590    158.5397
  1521.8000      7.9985      2.5820      0.0525      4.1231     30.6017    155.4443
  1521.9000      7.9985      2.5675      0.0352      4.9982     31.5472    158.4551
  1522.0000      7.9951      2.5582      0.0587      5.5614     32.1911    163.1193
  1522.1000      7.9951      2.5500      0.0296      6.0581     32.2971    163.3995
  1522.2000      7.9951      2.5494      0.0428      6.0971     32.2479    163.0439
  1522.3000      7.9854      2.5591      0.0678      5.5103     32.1493    163.5856
  1522.4000      7.9854      2.5611      0.0778      5.3869     31.7746    162.8601
  1522.5000      7.9790      2.5441      0.0447      6.4163     31.3102    165.1989
  1522.6000      7.9790      2.5174      0.0653      8.0377     31.2712    169.6139
  1522.7000      7.9790      2.4938      0.0445      9.4660     31.4681    168.7539
  1522.8000      7.9772      2.4848      0.0122     10.0140     31.1800    165.1217
  1522.9000      7.9772      2.4948      0.0642      9.4045     30.7332    159.8122
  1523.0000      7.9770      2.5141      0.0715      8.2393     30.8192    150.1269
  1523.1000      7.9770      2.5270      0.0747      7.4549     31.4189    143.8829
  1523.2000      7.9770      2.5219      0.0768      7.7626     32.2696    148.8535
  1523.3000      7.9777      2.5020      0.0434      8.9699     32.9815    164.4639
  1523.4000      7.9777      2.4821      0.0460     10.1745     33.3822    182.3206
  1523.5000      7.9769      2.4722      0.0319     10.7787     33.3939    187.5010
  1523.6000      7.9769      2.4775      0.0186     10.4532     32.8335    178.2348
  1523.7000      7.9769      2.4936      0.0570      9.4775     32.1142    168.1247
  1523.8000      7.9753      2.5026      0.0900      8.9364     31.7985    165.9545
  1523.9000      7.9753      2.4975      0.0485      9.2454     31.7912    172.0387
  1524.0000      7.9759      2.4954      0.0481      9.3697     31.7380    183.5806
  1524.1000      7.9759      2.5044      0.0908      8.8235     31.3486    192.4087
  1524.2000      7.9759      2.5136      0.0688      8.2638     30.8349    191.0676
  1524.3000      7.9774      2.5256      0.0504      7.5380     30.8414    181.8032
  1524.4000      7.9774      2.5448      0.0663      6.3783     31.3226    171.6376
  1524.5000      7.9768      2.5529      0.0936      5.8828     31.4811    164.2276
  1524.6000      7.9768      2.5411      0.0305      6.5989     30.8472    158.8408
  1524.7000      7.9768      2.5291      0.0523      7.3286     29.9193    159.0396
  1524.8000      7.9745      2.5303      0.0597      7.2526     29.3078    166.2722
  1524.9000      7.9745      2.5373      0.0360      6.8297     28.9681    172.3472
  1525.0000      7.9723      2.5378      0.0696      6.8008     28.9290    178.6578
  1525.1000      7.9723      2.5279      0.0500      7.4005     29.3897    189.7136
  1525.2000      7.9723      2.5151      0.0303      8.1747     30.0070    196.4433
  1525.3000      7.9723      2.5083      0.0280      8.5855     30.0746    192.1937
