~Version Information
 VERS.                                  2.0 : CWLS LAS VERSION
 WRAP.                                   NO : WRAPING MODE
 SWARE .                 MController 2.5.0J : SOFTWARE VERSION
~Well Information
 WELL.                          Silva 6-22V : WELL
 COMP.                       Petrogulf Corp : COMPANY
 FLD.                      Purgatoire River : FIELD
 LOC.                 SE/NW Sec 6 T33S R67W : LOCATION
 DATE.                            11/7-9/04 : DATE(S) LOGGED
 SRVC.       Blanco Geological Services LLC : SERVICE COMPANY
 STAT.                                   CO : STATE
 CNTY.                           Las Animas : COUNTY
 CTRY.                                  USA : COUNTRY
 API.                       05-071-08143-00 : API NUMBER
 STRT.FT                              35.00 : START DEPTH
 STOP.FT                            2732.00 : STOP DEPTH
 STEP.FT                               1.00 : DEPTH INCREMENT
 NULL.                                -9999 : NULL VALUE
~Curve information
 DEPTH.FT                                   :
 ROP.MIN/FT                                 :
 GAS.UNITS                                  :
~ASCII Log data
# ...
      2035.0         0.32         33.6 
      2036.0         0.20         28.1 
      2037.0         0.20         26.9 
      2038.0         0.23         26.9 
      2039.0         0.37         27.7 
      2040.0         0.40         27.3 
      2041.0         0.27         26.2 
      2042.0         0.33         25.9 
      2043.0         0.30         24.7 
      2044.0         0.33         24.0 
      2045.0         0.62         21.5 
      2046.0         0.60         19.7 
      2047.0         0.60         20.3 
      2048.0         0.63         19.6 
      2049.0         0.57         20.9 
      2050.0         0.53         21.1 
      2051.0         0.48         21.2 
      2052.0         0.67         22.1 
      2053.0         0.53         21.8 
      2054.0         0.23         20.9 
      2055.0         0.30         20.8 
      2056.0         0.30         21.3 
      2057.0         0.40         20.8 
      2058.0         0.47         20.8 
      2059.0         0.38         20.8 
      2060.0         0.30         20.1 
      2061.0         0.33         20.4 
      2062.0         0.30         20.1 
      2063.0         0.27        130.8 
      2064.0         0.20         38.6 
      2065.0         0.20         38.6 
      2066.0         0.33         32.9 
      2067.0         0.20         22.5 
      2068.0         0.50         22.7 
      2069.0         0.48         25.5 
      2070.0         0.43         25.6 
      2071.0         0.27         24.3 
      2072.0         0.53         23.8 
      2073.0         0.47         22.2 
      2074.0         0.23         21.0 
      2075.0         0.43         20.8 
      2076.0         0.43         20.4 
      2077.0         0.42         20.3 
      2078.0         0.33         19.8 
      2079.0         0.30         20.9 
      2080.0         0.20         20.0 
      2081.0         0.23         20.4 
      2082.0         0.37         19.8 
      2083.0         0.33         19.3 
      2084.0         0.33         20.2 
      2085.0         0.57         19.6 
      2086.0         0.55         19.0 
      2087.0         0.57         19.2 
      2088.0         0.70         19.2 
      2089.0         0.70         19.6 
      2090.0         0.27         19.7 
      2091.0         0.27         20.1 
      2092.0         0.30         20.5 
      2093.0         0.30        207.7 
      2094.0         0.58         60.1 
      2095.0         0.43         34.0 
      2096.0         0.27         18.7 
      2097.0         0.27         17.3 
      2098.0         0.27         18.1 
      2099.0         0.27         19.3 
      2100.0         0.23         20.7 
      2101.0         0.27         22.2 
      2102.0         0.10         22.9 
      2103.0         0.23         23.8 
      2104.0         0.23         24.4 
      2105.0         0.32         25.3 
      2106.0         0.30         24.8 
      2107.0         0.27         25.5 
      2108.0         0.27         24.0 
      2109.0         0.23         24.0 
      2110.0         0.27         23.3 
      2111.0         0.27         21.0 
      2112.0         0.30         21.6 
      2113.0         0.20         21.6 
      2114.0         0.23         20.6 
      2115.0         0.23         20.2 
      2116.0         0.27         19.4 
      2117.0         0.23         19.2 
      2118.0         0.45         21.7 
      2119.0         0.33         23.1 
      2120.0         0.37         24.7 
      2121.0         0.33         24.4 
      2122.0         0.30         24.8 
      2123.0         0.30         25.7 
      2124.0         0.33         79.6 
      2125.0         0.33         22.0 
      2126.0         0.37         22.4 
      2127.0         0.35         22.5 
      2128.0         0.30         26.3 
      2129.0         0.23         26.5 
      2130.0         0.27         26.8 
      2131.0         0.23         26.4 
      2132.0         0.53         27.6 
      2133.0         0.32         27.3 
      2134.0         0.27         24.7 
      2135.0         0.33         24.3 
      2136.0         0.30         24.0 
      2137.0         0.33         23.3 
      2138.0         0.33         23.4 
      2139.0         0.33         22.6 
      2140.0         0.37         22.2 
      2141.0         0.37         21.8 
      2142.0         0.23         20.8 
      2143.0         0.27         20.4 
      2144.0         0.32         19.8 
      2145.0         0.53         19.2 
      2146.0         0.37         19.5 
      2147.0         0.27         19.7 
      2148.0         0.30         19.2 
      2149.0         0.30         19.8 
      2150.0         0.27         19.5 
      2151.0         0.30         19.0 
      2152.0         0.33         18.3 
      2153.0         0.62         20.1 
      2154.0         0.47         86.0 
      2155.0         0.43         32.5 
      2156.0         0.40         21.9 
      2157.0         0.40         22.2 
      2158.0         0.40         22.6 
      2159.0         0.40         24.2 
      2160.0         0.37         25.3 
      2161.0         0.27         26.5 
      2162.0         0.27         26.3 
      2163.0         0.37         26.8 
      2164.0         0.33         26.3 
      2165.0         0.37         24.6 
      2166.0         0.40         22.1 
      2167.0         0.33         23.5 
      2168.0         0.33         25.0 
      2169.0         0.33         25.4 
      2170.0         0.38         24.7 
      2171.0         0.37         26.0 
      2172.0         0.33         24.7 
      2173.0         0.37         25.4 
      2174.0         0.37         24.5 
      2175.0         0.40         23.7 
      2176.0         0.37         24.1 
      2177.0         0.33         24.4 
      2178.0         0.37         24.0 
      2179.0         0.45         23.4 
      2180.0         0.37         21.6 
      2181.0         0.33         20.1 
      2182.0         0.37         21.2 
      2183.0         0.37         20.9 
      2184.0         0.60         20.4 
      2185.0         0.40        199.8 
      2186.0         0.60         30.0 
      2187.0         0.45         21.4 
      2188.0         0.43         20.6 
      2189.0         0.40         19.7 
      2190.0         0.40         20.4 
      2191.0         0.27         18.9 
      2192.0         0.30         19.1 
      2193.0         0.33         18.8 
      2194.0         0.37         18.3 
      2195.0         0.42         17.0 
      2196.0         0.17         16.9 
      2197.0         0.23         17.9 
      2198.0         0.23         17.4 
      2199.0         0.23         17.9 
      2200.0         0.27         18.1 
      2201.0         0.27         19.0 
      2202.0         0.33         22.4 
      2203.0         0.30         22.1 
      2204.0         0.23         23.8 
      2205.0         0.33         25.1 
      2206.0         0.33         25.7 
      2207.0         0.32         24.7 
      2208.0         0.27         23.0 
      2209.0         0.33         23.3 
      2210.0         0.57         21.7 
      2211.0         0.37         21.2 
      2212.0         0.53         20.8 
      2213.0         0.53         21.8 
      2214.0         1.22         21.5 
      2215.0         0.70         20.7 
      2216.0         0.47        103.9 
      2217.0         0.87         59.0 
      2218.0         0.62         24.6 
      2219.0         0.40         26.8 
      2220.0         0.40         28.5 
      2221.0         0.27         29.1 
      2222.0         0.37         28.6 
      2223.0         0.37         27.3 
      2224.0         0.37         25.6 
      2225.0         0.37         23.0 
      2226.0         0.43         21.2 
      2227.0         0.45         21.3 
      2228.0         0.40         20.8 
      2229.0         0.37         21.8 
      2230.0         0.53         22.5 
      2231.0         0.33         21.4 
      2232.0         0.27         20.9 
      2233.0         0.27         20.8 
      2234.0         0.30         21.6 
