~Version Information
VERS.                      2.0: CWLS Log ASCII Standard - VERSION 2.0
WRAP.                       NO: One line per depth step
~Well Information Block
STRT.FT               554.0000: 
STOP.FT              1002.0000: 
STEP.FT                 0.1000: 
NULL.                -999.2500: 
COMP.          Pioneer Natural Resources: COMPANY
WELL.          Rising Star 22-11: WELL
FLD.           Purgatoire River: FIELD
LOC.           2152' FNL & 2105' FWL: LOCATION
PROV.                 Colorado: PROVINCE
CNTY.               Las Animas: COUNTRY
SRVC.                Patterson: SERVICE COMPANY
DATE.          Mon Apr 11 16:46:53 2005: LOG DATE
UWI.           05 071 08354 00: UNIQUE WELL ID
~Curve Information Block
DEPT.FT            0 000 00 00: Depth
DCAL.in                       : CDL Caliper
RHOB.g/cc                     : CDL Bulk Density
RHOC.g/cc                     : CDL Density Correction
DPOR.pu                       : CDL Density Porosity
GR.GAPI                       : Gamma Ray
NPOR.pu                       : Neutron Porosity
~Parameter Information Block
~A  Depth       DCAL        RHOB        RHOC        DPOR         GR         NPOR    
# ...
   611.6000      7.9473      2.5748      0.0935      4.5565    106.6917     20.7592
   611.7000      7.9473      2.5489      0.0714      6.1280    102.8999     21.0331
   611.8000      7.9411      2.5034      0.0032      8.8839    100.6858     20.9273
   611.9000      7.9411      2.4704      0.0047     10.8829     98.4560     20.7698
   612.0000      7.9531      2.4584      0.0140     11.6117     95.5007     21.0417
   612.1000      7.9531      2.4451     -0.0254     12.4182     94.2629     21.5935
   612.2000      7.9531      2.4294     -0.0740     13.3707     96.4450     21.8967
   612.3000      7.9603      2.4408     -0.0401     12.6787     99.6429     21.7552
   612.4000      7.9603      2.4859     -0.0184      9.9474     99.2068     21.3422
   612.5000      7.9561      2.5354      0.0391      6.9432     93.5440     21.1209
   612.6000      7.9561      2.5642      0.0231      5.1972     84.3822     21.3323
   612.7000      7.9561      2.5708      0.0336      4.8026     75.0447     21.6590
   612.8000      7.9725      2.5696      0.0095      4.8751     68.7299     21.7070
   612.9000      7.9725      2.5739     -0.0029      4.6099     66.6820     21.4068
   613.0000      7.9732      2.5771      0.0374      4.4198     68.0647     21.0123
   613.1000      7.9732      2.5653     -0.0030      5.1309     69.2468     20.9032
   613.2000      7.9732      2.5510     -0.0138      6.0010     67.1795     21.1544
   613.3000      7.9767      2.5505      0.0143      6.0285     63.9136     21.2717
   613.4000      7.9767      2.5496      0.0281      6.0861     62.1416     20.8741
   613.5000      7.9442      2.5415     -0.0180      6.5768     62.4313     20.1747
   613.6000      7.9442      2.5432     -0.0117      6.4714     64.7065     19.7724
   613.7000      7.9442      2.5522      0.0332      5.9269     68.4823     19.6882
   613.8000      7.9453      2.5556      0.0069      5.7212     72.5903     19.3487
   613.9000      7.9453      2.5537      0.0509      5.8394     74.9005     19.0611
   614.0000      7.9568      2.5419      0.0799      6.5529     75.9876     19.5591
   614.1000      7.9568      2.5201      0.0860      7.8725     78.8479     20.3797
   614.2000      7.9568      2.5018      0.0957      8.9809     84.4732     20.2860
   614.3000      7.9686      2.4872      0.1238      9.8675     92.1311     19.3552
   614.4000      7.9686      2.4653      0.1340     11.1958     97.9011     18.8311
   614.5000      7.8937      2.4461      0.0519     12.3604     98.0960     19.1612
   614.6000      7.8937      2.4585      0.0488     11.6036     95.3497     19.6876
   614.7000      7.8937      2.5044      0.1354      8.8269     94.6837     19.8556
   614.8000      7.8749      2.5521      0.1761      5.9356     95.7327     19.9475
   614.9000      7.8749      2.5837      0.1693      4.0160     94.0859     20.4389
   615.0000      7.8853      2.6020      0.2091      2.9083     89.9714     21.0775
   615.1000      7.8853      2.6084      0.1907      2.5203     86.5693     21.2358
   615.2000      7.8853      2.6085      0.1541      2.5134     85.8717     20.9263
   615.3000      7.8914      2.6110      0.1312      2.3653     88.4912     20.5536
   615.4000      7.8914      2.6078      0.1228      2.5596     91.7892     20.2510
   615.5000      7.8758      2.5897      0.0791      3.6563     92.0049     20.0401
   615.6000      7.8758      2.5707      0.0731      4.8072     90.7430     20.1028
   615.7000      7.8758      2.5648      0.0430      5.1607     91.7533     20.4804
   615.8000      7.8860      2.5628      0.1325      5.2840     93.2575     20.7062
   615.9000      7.8860      2.5369      0.1121      6.8534     90.9855     20.3490
   616.0000      7.9066      2.4829     -0.0011     10.1256     85.3722     19.7797
   616.1000      7.9066      2.4377     -0.0143     12.8640     80.6721     19.5246
   616.2000      7.9066      2.4291     -0.0198     13.3866     79.9578     19.3621
   616.3000      7.8801      2.4513      0.0222     12.0407     81.9419     19.0563
   616.4000      7.8801      2.4822      0.0760     10.1702     80.2175     18.8107
   616.5000      7.9060      2.5111      0.0092      8.4205     71.9565     18.7463
   616.6000      7.9060      2.5485      0.0754      6.1487     64.5652     18.7013
   616.7000      7.9060      2.5864      0.1582      3.8521     63.9815     18.6702
   616.8000      7.9158      2.6009      0.1216      2.9773     66.4125     18.8887
   616.9000      7.9158      2.6000      0.0651      3.0329     65.8944     19.2965
   617.0000      7.9084      2.6039      0.1275      2.7960     62.0234     19.4549
   617.1000      7.9084      2.6003      0.1306      3.0111     58.5063     19.0171
   617.2000      7.9084      2.5726      0.1155      4.6904     57.5719     18.3013
   617.3000      7.9151      2.5321      0.0549      7.1481     58.3287     17.8407
   617.4000      7.9151      2.5011      0.0279      9.0251     57.2366     17.6710
   617.5000      7.9180      2.4887      0.0672      9.7779     51.9181     17.5883
   617.6000      7.9180      2.4844      0.0601     10.0366     45.0781     17.5139
   617.7000      7.9180      2.4801      0.0193     10.2971     42.1621     17.5784
   617.8000      7.9094      2.4862      0.0349      9.9288     44.5218     17.7207
   617.9000      7.9094      2.5093      0.0527      8.5249     48.6724     17.6008
   618.0000      7.9157      2.5371      0.1338      6.8435     51.7547     17.2480
   618.1000      7.9157      2.5547      0.1556      5.7787     52.3042     17.0277
   618.2000      7.9157      2.5588      0.1435      5.5292     49.4561     17.0683
   618.3000      7.9032      2.5575      0.0877      5.6084     45.1545     17.3298
   618.4000      7.9032      2.5662      0.1076      5.0766     43.3993     17.5758
   618.5000      7.8900      2.5875      0.1064      3.7876     44.1051     17.5812
   618.6000      7.8900      2.6131      0.1025      2.2389     44.2342     17.5080
   618.7000      7.8900      2.6401      0.0993      0.6012     43.0106     17.6642
   618.8000      7.8911      2.6639      0.1070     -0.8421     40.5411     17.9937
   618.9000      7.8911      2.6761      0.1258     -1.5809     37.6418     17.9404
   619.0000      7.8995      2.6705      0.1162     -1.2412     36.7940     17.3112
   619.1000      7.8995      2.6436      0.0929      0.3879     38.5630     16.6501
   619.2000      7.8995      2.5945      0.0725      3.3657     39.8625     16.3308
   619.3000      7.9133      2.5364      0.0149      6.8869     37.8681     16.1628
   619.4000      7.9133      2.4926      0.0262      9.5378     34.0910     15.8401
   619.5000      7.8757      2.4703     -0.0209     10.8895     32.0488     15.3461
   619.6000      7.8757      2.4590      0.0138     11.5751     31.4282     14.8982
   619.7000      7.8757      2.4539     -0.0104     11.8866     31.0735     14.5823
   619.8000      7.8888      2.4657      0.0145     11.1696     32.0391     14.2518
   619.9000      7.8888      2.5032      0.0747      8.8974     34.0497     13.8181
   620.0000      7.9163      2.5565      0.0910      5.6657     36.0986     13.4591
   620.1000      7.9163      2.5952      0.2308      3.3219     39.0075     13.4179
   620.2000      7.9163      2.5835      0.1989      4.0327     43.9860     13.7203
   620.3000      7.9224      2.5201      0.1440      7.8756     49.9262     14.0896
   620.4000      7.9224      2.4410      0.0873     12.6646     53.1096     14.1837
   620.5000      7.8583      2.3850      0.1225     16.0580     52.6408     13.9432
   620.6000      7.8583      2.3693      0.0543     17.0095     52.6192     13.5329
   620.7000      7.8583      2.3908      0.0637     15.7104     53.4432     13.1952
   620.8000      7.8524      2.4319      0.0967     13.2172     54.4198     13.1939
   620.9000      7.8524      2.4706      0.1109     10.8702     56.9248     13.3506
   621.0000      7.8838      2.4926      0.1724      9.5375     59.6627     13.2821
   621.1000      7.8838      2.4919      0.2009      9.5822     61.4412     12.8615
