~Version Information
VERS.                      2.0: CWLS Log ASCII Standard - VERSION 2.0
WRAP.                       NO: One line per depth step
~Well Information Block
STRT.FT                 3.7500: 
STOP.FT               979.7500: 
STEP.FT                 0.2500: 
NULL.                -999.2500: 
COMP.          Pioneer Natural Resources: COMPANY
WELL.          Rising Star 22-11: WELL
FLD.           Purgatoire River: FIELD
LOC.           2152' FNL & 2105' FWL: LOCATION
PROV.                 Colorado: PROVINCE
CNTY.               Las Animas: COUNTRY
SRVC.                Patterson: SERVICE COMPANY
DATE.          Sat Apr 16 09:17:01 2005: LOG DATE
UWI.           05 071 08354 00: UNIQUE WELL ID
~Curve Information Block
DEPT.FT            0 000 00 00: Depth
GR.GAPI                       : Gamma Ray
CCL.                          : Casing Collar Locator
TT3.usec                      : CBL 3' Travel Time
AMP3.mV                       : CBL 3' Amplitude
~Parameter Information Block
~A  Depth        GR         CCL         TT3         AMP3    
# ...
   941.7500    121.2088      0.0000   1078.3582      7.9516
   942.0000    123.3202      0.0000   1073.1554      8.2542
   942.2500    126.5410      0.0000   1060.2274      8.6948
   942.5000    131.6159      0.0000   1044.9958      9.1515
   942.7500    137.7454      0.0000   1027.8413      9.5186
   943.0000    143.5674      0.0000   1004.8319      9.7877
   943.2500    148.1366      0.0000    975.0688      9.9936
   943.5000    150.6046      0.0000    945.7060     10.1369
   943.7500    149.7570      0.0000    928.5348     10.2017
   944.0000    144.6356      0.0000    931.3782     10.2068
   944.2500    135.5671      0.0000    952.4883     10.1990
   944.5000    124.4705      0.0000    981.8127     10.2146
   944.7500    114.3076      0.0000   1006.7512     10.2614
   945.0000    107.8327      0.0000   1017.4970     10.3284
   945.2500    105.9666      0.0000   1008.9357     10.4019
   945.5000    107.1810      0.0000    980.6041     10.4750
   945.7500    108.9273      0.0000    937.4562     10.5471
   946.0000    109.8622      0.0000    889.7825     10.6198
   946.2500    110.4498      0.0000    849.0481     10.6920
   946.5000    111.4604      0.0000    821.7879     10.7567
   946.7500    112.3495      0.0000    807.4835     10.8028
   947.0000    111.5020      0.0000    801.6384     10.8206
   947.2500    108.0379      0.0000    799.8282     10.8056
   947.5000    103.0920      0.0000    799.4367     10.7589
   947.7500     98.9796      0.0000    799.3719     10.6925
   948.0000     97.0630      0.0000    799.3085     10.6353
   948.2500     96.5743      0.0000    799.1603     10.6221
   948.5000     95.6573      0.0000    798.7523     10.6722
   948.7500     93.6374      0.0000    797.5897     10.7795
   949.0000     92.2187      0.0000    794.8478     10.9197
   949.2500     94.2588      0.0000    789.9244     11.0642
   949.5000    101.1880      0.0000    783.5016     11.1917
   949.7500    111.4642      0.0000    778.2299     11.2972
   950.0000    121.5409      0.0000    777.9351     11.3904
   950.2500    128.4237      0.0000    785.6059     11.4825
   950.5000    131.2650      0.0000    801.5641     11.5737
   950.7500    130.9614      0.0000    822.7177     11.6508
   951.0000    129.1441      0.0000    843.1776     11.6934
   951.2500    127.5728      0.0000    856.7856     11.6856
   951.5000    127.5115      0.0000    860.7558     11.6267
   951.7500    129.0448      0.0000    857.1104     11.5331
   952.0000    131.1109      0.0000    850.2399     11.4273
   952.2500    132.2895      0.0000    843.6266     11.3239
   952.5000    131.5676      0.0000    839.0059     11.2237
   952.7500    128.7506      0.0000    837.1155     11.1241
   953.0000    124.6529      0.0000    837.8843     11.0349
   953.2500    120.8603      0.0000    840.2900     10.9791
   953.5000    118.9300      0.0000    843.0646     10.9724
   953.7500    119.3927      0.0000    845.8280     11.0001
   954.0000    121.3309      0.0000    849.5235     11.0143
   954.2500    123.1607      0.0000    855.9761     10.9535
   954.5000    124.1086      0.0000    867.1877     10.7762
   954.7500    124.7458      0.0000    884.6680     10.4897
   955.0000    125.8854      0.0000    908.3375     10.1575
   955.2500    127.1964      0.0000    934.7048      9.8730
   955.5000    127.0743      0.0000    956.1938      9.7149
   955.7500    123.8521      0.0000    964.4025      9.7137
   956.0000    117.4106      0.0000    956.2879      9.8487
   956.2500    109.8192      0.0000    937.5002     10.0811
   956.5000    104.0468      0.0000    919.0590     10.3990
   956.7500    101.6572      0.0000    910.0889     10.8248
   957.0000    101.7983      0.0000    912.3082     11.3687
   957.2500    102.3672      0.0000    919.5887     11.9827
   957.5000    101.8268      0.0000    922.8477     12.5751
   957.7500    100.0440      0.0000    917.2593     13.0762
   958.0000     98.1733      0.0000    905.5238     13.4864
   958.2500     98.0624      0.0000    894.1913     13.8614
   958.5000    101.1883      0.0000    888.1615     14.2487
   958.7500    107.5507      0.0000    889.4448     14.6326
   959.0000    115.6160      0.0000    899.3384     14.9409
   959.2500    123.3595      0.0000    919.1391     15.1034
   959.5000    129.1958      0.0000    947.8170     15.0993
   959.7500    132.4009      0.0000    980.0413     14.9527
   960.0000    133.3969      0.0000   1008.2307     14.7005
   960.2500    133.4917      0.0000   1027.1388     14.3703
   960.5000    133.7825      0.0000   1036.0809     13.9776
   960.7500    134.3153      0.0000   1037.1061     13.5309
   961.0000    134.4932      0.0000   1032.3179     13.0408
   961.2500    133.9280      0.0000   1023.2192     12.5263
   961.5000    132.4702      0.0000   1011.5663     12.0130
   961.7500    129.7468      0.0000    999.9348     11.5241
   962.0000    125.4435      0.0000    991.4031     11.0769
   962.2500    120.2553      0.0000    988.3813     10.6851
   962.5000    116.1282      0.0000    990.9040     10.3569
   962.7500    115.2171      0.0000    996.3657     10.0872
   963.0000    118.4544      0.0000   1002.5928      9.8541
   963.2500    124.8267      0.0000   1011.5017      9.6331
   963.5000    131.8584      0.0000   1027.8923      9.4195
   963.7500    137.1304      0.0000   1053.5358      9.2346
   964.0000    139.7036      0.0000   1082.6080      9.0965
   964.2500    140.0419      0.0000   1101.9491      8.9719
   964.5000    138.5871      0.0000   1092.5386      8.7364
   964.7500    135.1046      0.0000   1030.7498      8.1826
   965.0000    129.8344      0.0000    897.0439      7.1161
   965.2500    124.4182      0.0000    695.2941      5.5308
   965.5000    120.8104      0.0000    464.3276      3.7098
   965.7500    119.5631      0.0000    259.9885      2.0876
   966.0000    119.8031      0.0000    119.5773      0.9649
   966.2500    120.7128      0.0000     44.5101      0.3608
   966.5000    122.3330      0.0000     13.2654      0.1080
   966.7500    124.6132      0.0000      3.1373      0.0256
   967.0000    126.3377      0.0000      0.5800      0.0048
   967.2500    125.9002      0.0000      0.0767      0.0006
   967.5000    123.0306      0.0000   -999.2500   -999.2500
   967.7500    119.1348      0.0000   -999.2500   -999.2500
   968.0000    116.1374      0.0000   -999.2500   -999.2500
   968.2500    115.3933      0.0000   -999.2500   -999.2500
   968.5000    116.9621      0.0000   -999.2500   -999.2500
   968.7500    119.1554      0.0000   -999.2500   -999.2500
   969.0000    119.3828      0.0000   -999.2500   -999.2500
   969.2500    116.2219      0.0000   -999.2500   -999.2500
   969.5000    110.4312      0.0000   -999.2500   -999.2500
   969.7500    103.9162      0.0000   -999.2500   -999.2500
   970.0000     98.4705      0.0000   -999.2500   -999.2500
   970.2500     95.3708      0.0000   -999.2500   -999.2500
   970.5000     95.0168      0.0000   -999.2500   -999.2500
   970.7500     96.6064      0.0000   -999.2500   -999.2500
   971.0000     98.8163      0.0000   -999.2500   -999.2500
   971.2500    101.0552      0.0000   -999.2500   -999.2500
   971.5000    103.8076      0.0000   -999.2500   -999.2500
   971.7500    107.8138      0.0000   -999.2500   -999.2500
   972.0000    113.1010      0.0000   -999.2500   -999.2500
   972.2500    118.6916      0.0000   -999.2500   -999.2500
   972.5000    123.1352      0.0000   -999.2500   -999.2500
   972.7500    125.5217      0.0000   -999.2500   -999.2500
   973.0000    126.1032   -999.2500   -999.2500   -999.2500
   973.2500    125.8559   -999.2500   -999.2500   -999.2500
   973.5000    125.5855   -999.2500   -999.2500   -999.2500
   973.7500    125.6188   -999.2500   -999.2500   -999.2500
   974.0000    125.9342   -999.2500   -999.2500   -999.2500
   974.2500    126.2312   -999.2500   -999.2500   -999.2500
   974.5000    126.2963   -999.2500   -999.2500   -999.2500
   974.7500    126.5376   -999.2500   -999.2500   -999.2500
   975.0000    127.3964   -999.2500   -999.2500   -999.2500
