~Version Information
 VERS.                                  2.0 : CWLS LAS VERSION
 WRAP.                                   NO : WRAPING MODE
 SWARE .                 MController 2.5.0J : SOFTWARE VERSION
~Well Information
 WELL.                         State 16-41R : WELL
 COMP.                Petrogulf Corporation : COMPANY
 FLD.                      Purgatoire River : FIELD
 LOC.               NE/NE Sec 16 T33S R67W  : LOCATION
 DATE.                          10/17-18/05 : DATE(S) LOGGED
 SRVC.       BLANCO Geological Services LLC : SERVICE COMPANY
 STAT.                                   CO : STATE
 CNTY.                           Las Animas : COUNTY
 CTRY.                                  USA : COUNTRY
 API.                       05-071-08410-00 : API NUMBER
 STRT.FT                              11.00 : START DEPTH
 STOP.FT                            1635.00 : STOP DEPTH
 STEP.FT                               1.00 : DEPTH INCREMENT
 NULL.                                -9999 : NULL VALUE
~Curve information
 DEPTH.FT                                   :
 ROP.MIN/FT                                 :
 GAS.UNITS                                  :
~ASCII Log data
# ...
      1211.0         0.25         84.3 
      1212.0         0.20         85.3 
      1213.0         0.23         86.1 
      1214.0         0.20         85.8 
      1215.0         0.17         82.7 
      1216.0         0.20         80.3 
      1217.0         0.17         77.4 
      1218.0         0.27         76.3 
      1219.0         0.33         78.1 
      1220.0         0.23         77.8 
      1221.0         0.23         74.0 
      1222.0         0.37         67.1 
      1223.0         0.40         57.0 
      1224.0         0.38        143.6 
      1225.0         0.40        298.4 
      1226.0         1.83        359.8 
      1227.0         0.40        109.6 
      1228.0         0.42         93.1 
      1229.0         0.40         93.4 
      1230.0         0.33         93.2 
      1231.0         0.37         94.1 
      1232.0         0.30         92.7 
      1233.0         0.30         89.3 
      1234.0         0.23         87.2 
      1235.0         0.27         87.1 
      1236.0         0.30         85.1 
      1237.0         0.23         81.5 
      1238.0         0.23         78.2 
      1239.0         0.38         76.8 
      1240.0         0.40         72.0 
      1241.0         0.33         66.2 
      1242.0         0.23         64.5 
      1243.0         0.33         64.5 
      1244.0         0.43         64.3 
      1245.0         0.33         69.0 
      1246.0         0.40         73.5 
      1247.0         0.23         74.1 
      1248.0         0.23         74.2 
      1249.0         0.42         75.6 
      1250.0         0.37         75.8 
      1251.0         0.30         63.7 
      1252.0         0.37         61.5 
      1253.0         0.30        121.1 
      1254.0         0.27        205.4 
      1255.0         0.23        287.9 
      1256.0         2.45        295.7 
      1257.0         0.50         89.1 
      1258.0         0.23         87.7 
      1259.0         0.23         87.6 
      1260.0         0.23         87.5 
      1261.0         0.27         85.2 
      1262.0         0.23         85.7 
      1263.0         0.18         84.9 
      1264.0         0.20         82.1 
      1265.0         0.17         76.0 
      1266.0         0.20         70.3 
      1267.0         0.17         69.1 
      1268.0         0.13         68.3 
      1269.0         0.13         64.8 
      1270.0         0.17         61.7 
      1271.0         0.17         65.5 
      1272.0         0.20         73.0 
      1273.0         0.17         75.9 
      1274.0         0.13         76.1 
      1275.0         0.13         74.3 
      1276.0         0.20         70.6 
      1277.0         0.27         65.5 
      1278.0         0.23         67.4 
      1279.0         0.33         77.3 
      1280.0         0.25         82.1 
      1281.0         0.30         83.7 
      1282.0         0.23         81.2 
      1283.0         0.27         61.4 
      1284.0         0.33         51.5 
      1285.0         0.20         60.5 
      1286.0         3.08       1343.6 
      1287.0         0.30        640.6 
      1288.0         0.23        620.0 
      1289.0         0.37        615.2 
      1290.0         0.30        610.5 
      1291.0         0.33        610.2 
      1292.0         0.45        607.3 
      1293.0         0.37        596.8 
      1294.0         0.23        588.6 
      1295.0         0.20        584.8 
      1296.0         0.20        575.2 
      1297.0         0.20        568.0 
      1298.0         0.23        594.0 
      1299.0         0.20        779.0 
      1300.0         0.27        866.0 
      1301.0         0.20        868.8 
      1302.0         0.17        857.1 
      1303.0         0.20        837.4 
      1304.0         0.30        814.2 
      1305.0         0.27        775.2 
      1306.0         0.25        748.5 
      1307.0         0.23        721.9 
      1308.0         0.33        702.5 
      1309.0         0.30        679.4 
      1310.0         0.33        666.7 
      1311.0         0.33        613.3 
      1312.0         0.33        567.6 
      1313.0         0.33        659.0 
      1314.0         0.23        783.1 
      1315.0         0.23        948.5 
      1316.0         1.92       1217.6 
      1317.0         0.40        675.5 
      1318.0         0.47        626.0 
      1319.0         0.37        621.6 
      1320.0         0.43        621.9 
      1321.0         0.35        620.3 
      1322.0         0.37        615.6 
      1323.0         0.30        605.1 
      1324.0         0.27        596.5 
      1325.0         0.20        597.5 
      1326.0         0.20        601.6 
      1327.0         0.20        603.2 
      1328.0         0.20        602.9 
      1329.0         0.20        602.9 
      1330.0         0.20        602.2 
      1331.0         0.20        600.3 
      1332.0         0.23        600.0 
      1333.0         0.23        599.4 
      1334.0         0.23        597.8 
      1335.0         0.22        595.2 
      1336.0         0.23        596.2 
      1337.0         0.20        596.2 
      1338.0         0.23        596.8 
      1339.0         0.20        574.3 
      1340.0         0.30        543.8 
      1341.0         0.23        559.7 
      1342.0         0.27        662.8 
      1343.0         0.20        781.2 
      1344.0         0.13        874.9 
      1345.0         0.27       1080.2 
      1346.0         1.58       1188.1 
      1347.0         0.30        680.6 
      1348.0         0.33        639.4 
      1349.0         0.30        611.4 
      1350.0         0.27        602.2 
      1351.0         0.30        586.4 
      1352.0         0.37        569.5 
      1353.0         0.33        561.6 
      1354.0         0.43        568.9 
      1355.0         0.32        587.3 
      1356.0         0.23        592.1 
      1357.0         0.27        592.4 
      1358.0         0.23        592.1 
      1359.0         0.23        586.7 
      1360.0         0.43        582.5 
      1361.0         0.37        592.4 
      1362.0         0.20        596.2 
      1363.0         0.20        601.0 
      1364.0         0.17        608.6 
      1365.0         0.17        610.8 
      1366.0         0.17        613.0 
      1367.0         0.27        613.3 
      1368.0         0.32        609.5 
      1369.0         0.23        584.1 
      1370.0         0.23        540.7 
      1371.0         0.23        552.4 
      1372.0         0.20        613.0 
      1373.0         0.20        726.3 
      1374.0         0.20        896.1 
      1375.0         0.17       1051.0 
      1376.0         2.45       1457.9 
      1377.0         0.47        623.8 
      1378.0         0.43        613.3 
      1379.0         0.37        600.3 
      1380.0         0.30        595.6 
      1381.0         0.37        594.6 
      1382.0         0.27        599.1 
      1383.0         0.28        603.5 
      1384.0         0.20        598.4 
      1385.0         0.20        593.3 
      1386.0         0.40        581.9 
      1387.0         0.50        576.8 
      1388.0         0.33        578.7 
      1389.0         0.37        585.7 
      1390.0         0.37        591.4 
      1391.0         0.47        591.8 
      1392.0         0.55        609.2 
      1393.0         0.17        606.0 
      1394.0         0.27        598.1 
      1395.0         0.57        593.7 
      1396.0         0.23        594.3 
      1397.0         0.13        566.0 
      1398.0         0.20        544.1 
      1399.0         0.17        544.5 
      1400.0         0.20        586.7 
      1401.0         0.27        694.6 
      1402.0         0.20        809.2 
      1403.0         0.23        992.0 
      1404.0         0.22       1197.0 
      1405.0         0.33       1555.6 
      1406.0         1.57       1598.2 
      1407.0         0.50        672.4 
      1408.0         0.30        607.0 
      1409.0         0.40        618.4 
      1410.0         0.32        617.1 
