~Version Information
VERS.                      2.0: CWLS Log ASCII Standard - VERSION 2.0
WRAP.                       NO: One line per depth step
~Well Information Block
STRT.FT                -3.2500: 
STOP.FT              2202.2500: 
STEP.FT                 0.2500: 
NULL.                -999.2500: 
COMP.          Pioneer Natural Resources: COMPANY
WELL.           Parklane 43-34: WELL
FLD.           Purgatorie River: FIELD
LOC.           1704' FSL & 1119' FEL--: LOCATION
PROV.                       CO: PROVINCE
CNTY.               Las Animas: COUNTRY
SRVC.                         : SERVICE COMPANY
DATE.          Thu Oct 14 14:49:09 2004: LOG DATE
UWI.           005 071 08162  : UNIQUE WELL ID
~Curve Information Block
DEPT.FT            0 000 00 00: Depth
GR.GAPI                       : Gamma Ray
CCL.                          : Casing Collar Locator
TT3.usec                      : CBL 3' Travel Time
AMP3.mV                       : CBL 3' Amplitude
~Parameter Information Block
~A  Depth        GR         CCL         TT3         AMP3    
# ...
   298.2500     63.3361      0.0000    806.6795      3.5092
   298.5000     64.0134      0.0000    792.2123      3.5722
   298.7500     64.4219      0.0000    782.8541      3.6401
   299.0000     63.6238      0.0000    778.3326      3.6729
   299.2500     60.9695      0.0000    779.1512      3.6559
   299.5000     56.6148      0.0000    786.2845      3.6009
   299.7500     51.6081      0.0000    798.6990      3.5269
   300.0000     47.1384      0.0000    811.9325      3.4468
   300.2500     43.9162      0.0000    820.2048      3.3738
   300.5000     42.3785      0.0000    820.7999      3.3354
   300.7500     42.9149      0.0000    816.2818      3.3698
   301.0000     45.4827      0.0000    811.6470      3.5006
   301.2500     49.1733      0.0000    808.9720      3.7099
   301.5000     52.4398      0.0000    805.7690      3.9424
   301.7500     54.0520      0.0000    799.0669      4.1444
   302.0000     54.1637      0.0000    789.5422      4.2972
   302.2500     54.3281      0.0000    780.5427      4.4140
   302.5000     56.0562      0.0000    774.6074      4.5177
   302.7500     59.5400      0.0000    772.3010      4.6262
   303.0000     64.0870      0.0000    773.6246      4.7478
   303.2500     69.1461      0.0000    778.8948      4.8809
   303.5000     74.1358      0.0000    787.6798      5.0160
   303.7500     77.8995      0.0000    797.4833      5.1418
   304.0000     79.4674      0.0000    805.3304      5.2515
   304.2500     79.1465      0.0000    811.7818      5.3422
   304.5000     78.1036      0.0000    821.8813      5.4145
   304.7500     77.1358      0.0000    839.8977      5.4775
   305.0000     76.2889      0.0000    863.6010      5.5498
   305.2500     75.3070      0.0000    885.1636      5.6505
   305.5000     74.2000      0.0000    897.3632      5.7906
   305.7500     73.6330      0.0000    898.2949      5.9661
   306.0000     74.7326      0.0000    891.4297      6.1474
   306.2500     78.2174      0.0000    882.5955      6.2807
   306.5000     83.6363      0.0000    876.1624      6.3176
   306.7500     89.4816      0.0000    872.3018      6.2520
   307.0000     94.1071      0.0000    867.2682      6.1215
   307.2500     96.7060      0.0000    857.0171      5.9774
   307.5000     97.5708      0.0000    841.2932      5.8604
   307.7500     97.6626      0.0000    824.0854      5.7927
   308.0000     98.1848      0.0000    810.2561      5.7721
   308.2500    100.1868      0.0000    802.2637      5.7646
   308.5000    103.7937      0.0000    799.7248      5.7103
   308.7500    107.6128      0.0000    801.0680      5.5490
   309.0000    109.4774      0.0000    805.5701      5.2572
   309.2500    108.2667      0.0000    814.3341      4.8733
   309.5000    105.0589      0.0000    829.2090      4.4875
   309.7500    102.2396      0.0000    850.0140      4.1953
   310.0000    101.2468      0.0000    872.6558      4.0481
   310.2500    101.3213      0.0000    890.4952      4.0390
   310.5000    100.6665      0.0000    897.9747      4.1213
   310.7500     98.5508      0.0000    893.5237      4.2359
   311.0000     96.0156      0.0000    880.0836      4.3320
   311.2500     94.8745      0.0000    863.1616      4.3834
   311.5000     96.2666      0.0000    847.3320      4.3999
   311.7500     99.8872      0.0000    834.0095      4.4179
   312.0000    104.3846      0.0000    822.5405      4.4733
   312.2500    108.5355      0.0000    812.1612      4.5790
   312.5000    111.9899      0.0000    801.9391      4.7328
   312.7500    114.8012      0.0000    790.5270      4.9380
   313.0000    116.5544      0.0000    778.1245      5.2028
   313.2500    116.4613      0.0000    768.4693      5.5164
   313.5000    114.4531      0.0000    767.2763      5.8345
   313.7500    111.6029      0.0000    777.0900      6.0940
   314.0000    108.9614      0.0000    792.3173      6.2486
   314.2500    106.3135      0.0000    799.3846      6.3000
   314.5000    102.7272      0.0000    784.7599      6.2971
   314.7500     98.1014      0.0000    747.2051      6.2978
   315.0000     93.5663      0.0000    703.7825      6.3251
   315.2500     90.4733      0.0000    680.7616      6.3595
   315.5000     89.4573      0.0000    693.4203      6.3682
   315.7500     90.3480      0.0000    733.0927      6.3313
   316.0000     92.5642      0.0000    776.2555      6.2455
   316.2500     95.5575      0.0000    806.1650      6.1160
   316.5000     99.0290      0.0000    823.2892      5.9537
   316.7500    102.7356      0.0000    837.1642      5.7789
   317.0000    106.0137      0.0000    853.4857      5.6206
   317.2500    107.4437      0.0000    869.5717      5.5079
   317.5000    105.4101      0.0000    878.7372      5.4554
   317.7500     99.7786      0.0000    877.1876      5.4513
   318.0000     92.9278      0.0000    867.1413      5.4638
   318.2500     88.2356      0.0000    853.9749      5.4617
   318.5000     87.4462      0.0000    840.7455      5.4328
   318.7500     89.9302      0.0000    825.7834      5.3862
   319.0000     93.9761      0.0000    805.4387      5.3416
   319.2500     97.8231      0.0000    779.0195      5.3140
   319.5000     99.7780      0.0000    751.1296      5.3035
   319.7500     98.6901      0.0000    728.9121      5.2991
   320.0000     94.9388      0.0000    716.5110      5.2929
   320.2500     90.4772      0.0000    712.1741      5.2905
   320.5000     87.4532      0.0000    710.5336      5.3044
   320.7500     86.7223      0.0000    707.1385      5.3402
   321.0000     87.5452      0.0000    701.1884      5.3874
   321.2500     88.4701      0.0000    695.3811      5.4217
   321.5000     88.4690      0.0000    693.7012      5.4174
   321.7500     87.4472      0.0000    698.1516      5.3676
   322.0000     86.0031      0.0000    706.7007      5.2929
   322.2500     84.9787      0.0000    714.9523      5.2278
   322.5000     85.0814      0.0000    719.9703      5.1937
   322.7500     86.3431      0.0000    722.0889      5.1861
   323.0000     87.6966      0.0000    723.6780      5.1865
   323.2500     87.6720      0.0000    727.4630      5.1817
   323.5000     85.9541      0.0000    735.6443      5.1709
   323.7500     83.8544      0.0000    748.8211      5.1584
   324.0000     82.9445      0.0000    765.2108      5.1429
   324.2500     83.7498      0.0000    782.4803      5.1161
   324.5000     86.1136      0.0000    800.8784      5.0728
   324.7500     90.1666      0.0000    822.1835      5.0218
   325.0000     96.2301      0.0000    844.5728      4.9856
   325.2500    104.0239      0.0000    861.7158      4.9859
   325.5000    112.2852      0.0000    869.1367      5.0292
   325.7500    118.8861      0.0000    868.9451      5.1046
   326.0000    121.4270      0.0000    866.0894      5.1898
   326.2500    118.5700      0.0000    862.0768      5.2565
   326.5000    111.1760      0.0000    855.0066      5.2775
   326.7500    101.8901      0.0000    844.3597      5.2380
   327.0000     93.6328      0.0000    832.7131      5.1449
   327.2500     88.4257      0.0000    822.9536      5.0259
   327.5000     86.9122      0.0000    815.8827      4.9166
   327.7500     88.2857      0.0000    810.6826      4.8413
   328.0000     90.6744      0.0000    806.7079      4.8043
   328.2500     92.1382      0.0000    804.5898      4.7994
   328.5000     91.9317      0.0000    805.5098      4.8217
   328.7500     91.0801      0.0000    809.0602      4.8653
   329.0000     91.4583      0.0000    812.5488      4.9130
   329.2500     94.0802      0.0000    813.3131      4.9375
   329.5000     98.2876      0.0000    811.0711      4.9197
   329.7500    102.4598      0.0000    807.3542      4.8609
   330.0000    105.1299      0.0000    803.6351      4.7749
   330.2500    105.5162      0.0000    800.4868      4.6704
   330.5000    103.6549      0.0000    797.5409      4.5454
   330.7500    100.5336      0.0000    793.6499      4.3959
   331.0000     97.7364      0.0000    787.6987      4.2227
   331.2500     96.1799      0.0000    779.7800      4.0306
   331.5000     95.1906      0.0000    771.9479      3.8240
