~Version Information
 VERS.                                  2.0 : CWLS LAS VERSION
 WRAP.                                   NO : WRAPING MODE
 SWARE .                 MController 2.5.0J : SOFTWARE VERSION
~Well Information
 WELL.                   Flying Horse 12-11 : WELL
 COMP.    Pioneer Natural Resources USA Inc : COMPANY
 FLD.                      Purgatoire River : FIELD
 LOC.                SW/NW Sec 11 T32S R66W : LOCATION
 DATE.                           5/28-29/05 : DATE(S) LOGGED
 SRVC.       Blanco Geological Services LLC : SERVICE COMPANY
 STAT.                                   CO : STATE
 CNTY.                           Las Animas : COUNTY
 CTRY.                                  USA : COUNTRY
 API.                       05-071-08378-00 : API NUMBER
 STRT.FT                            1495.00 : START DEPTH
 STOP.FT                            2425.00 : STOP DEPTH
 STEP.FT                               1.00 : DEPTH INCREMENT
 NULL.                                -9999 : NULL VALUE
~Curve information
 DEPTH.FT                                   :
 ROP.MIN/FT                                 :
 GAS.UNITS                                  :
~ASCII Log data
      1495.0     -9999.00       1400.4 
      1496.0         0.33       1371.1 
      1497.0         0.37       1141.3 
      1498.0         0.33       1134.9 
      1499.0         0.32       1037.5 
      1500.0         0.27        895.3 
      1501.0         0.20        784.2 
      1502.0         0.23        721.5 
      1503.0         0.20        661.5 
      1504.0         0.17        627.5 
      1505.0         0.17        606.3 
      1506.0         0.13        590.8 
      1507.0         0.20        585.7 
      1508.0         0.17        576.6 
      1509.0         0.17        566.2 
      1510.0         0.23        554.0 
      1511.0         0.17        531.1 
      1512.0         0.17        511.6 
      1513.0         0.17        496.1 
      1514.0         0.17        489.0 
      1515.0         0.17        482.6 
      1516.0         0.15        470.5 
      1517.0         0.20        469.1 
      1518.0         0.17        459.4 
      1519.0         0.17        451.6 
      1520.0         0.13        448.3 
      1521.0         0.17        443.5 
      1522.0         0.20        447.9 
      1523.0         0.13        452.0 
      1524.0         0.10        456.3 
      1525.0         0.17        457.0 
      1526.0         2.22       1401.4 
      1527.0         0.43       1400.4 
      1528.0         0.50       1255.8 
      1529.0         0.37        799.7 
      1530.0         0.30        686.8 
      1531.0         0.30        696.6 
      1532.0         0.20        694.5 
      1533.0         0.30        676.0 
      1534.0         0.40        647.0 
      1535.0         0.32        619.1 
      1536.0         0.17        590.1 
      1537.0         0.17        568.5 
      1538.0         0.33        552.7 
      1539.0         0.30        545.3 
      1540.0         0.13        531.1 
      1541.0         0.13        509.9 
      1542.0         0.17        487.3 
      1543.0         0.13        469.5 
      1544.0         0.13        458.0 
      1545.0         0.17        456.7 
      1546.0         0.13        456.0 
      1547.0         0.20        467.5 
      1548.0         0.20        482.3 
      1549.0         0.17        484.6 
      1550.0         0.20        515.0 
      1551.0         0.20        558.4 
      1552.0         0.20        596.2 
      1553.0         0.15        611.3 
      1554.0         0.20        627.5 
      1555.0         0.20        628.2 
      1556.0         2.63       1831.6 
      1557.0         0.32       1558.4 
      1558.0         0.30       1539.5 
      1559.0         0.33       1453.9 
      1560.0         0.27       1253.1 
      1561.0         0.27       1093.4 
      1562.0         0.20        964.1 
      1563.0         0.17        890.6 
      1564.0         0.17        845.1 
      1565.0         0.17        803.0 
      1566.0         0.13        776.4 
      1567.0         0.13        763.3 
      1568.0         0.13        750.8 
      1569.0         0.13        736.0 
      1570.0         0.13        714.8 
      1571.0         0.20        696.2 
      1572.0         0.37        706.3 
      1573.0         0.32        711.4 
      1574.0         0.17        703.6 
      1575.0         0.13        664.6 
      1576.0         0.13        611.3 
      1577.0         0.13        575.6 
      1578.0         0.13        562.5 
      1579.0         0.17        567.2 
      1580.0         0.17        589.1 
      1581.0         0.30        640.3 
      1582.0         0.23        663.9 
      1583.0         0.20        667.3 
      1584.0         0.17        666.2 
      1585.0         0.20        662.5 
      1586.0         2.35       1593.1 
      1587.0         0.30       1277.1 
      1588.0         0.53       1036.5 
      1589.0         0.47        830.0 
      1590.0         0.53        945.9 
      1591.0         0.32        947.9 
      1592.0         0.17        925.3 
      1593.0         0.13        926.7 
      1594.0         0.17        926.7 
      1595.0         0.10        915.9 
      1596.0         0.13        900.1 
      1597.0         0.17        869.4 
      1598.0         0.30        839.4 
      1599.0         0.20        811.1 
      1600.0         0.20        796.0 
      1601.0         0.13        781.5 
      1602.0         0.17        771.0 
      1603.0         0.17        754.5 
      1604.0         0.17        740.0 
      1605.0         0.13        726.5 
      1606.0         0.13        714.8 
      1607.0         0.13        702.6 
      1608.0         0.17        688.1 
      1609.0         0.13        672.6 
      1610.0         0.13        663.2 
      1611.0         0.22        656.8 
      1612.0         0.23        653.4 
      1613.0         0.17        651.1 
      1614.0         0.17        648.0 
      1615.0         0.20        645.4 
      1616.0         3.52       2581.9 
      1617.0         0.30       2389.9 
      1618.0         0.27       2057.7 
      1619.0         0.27       1714.4 
      1620.0         0.23       1456.3 
      1621.0         0.23       1269.3 
      1622.0         0.33       1123.8 
      1623.0         0.30        961.0 
      1624.0         0.23        822.2 
      1625.0         0.25        716.8 
      1626.0         0.23        667.6 
      1627.0         0.20        664.2 
      1628.0         0.20        662.5 
      1629.0         0.20        655.5 
      1630.0         0.20        662.9 
      1631.0         0.20        662.9 
      1632.0         0.20        651.4 
      1633.0         0.20        626.1 
      1634.0         0.17        611.0 
      1635.0         0.23        596.8 
      1636.0         0.20        593.5 
      1637.0         0.23        630.2 
      1638.0         0.27        670.3 
      1639.0         0.27        680.1 
      1640.0         0.27        679.4 
      1641.0         0.25        672.0 
      1642.0         0.30        667.9 
      1643.0         0.17        670.6 
      1644.0         0.23        699.3 
      1645.0         0.27        706.3 
      1646.0         2.58       2018.6 
      1647.0         0.37       1924.3 
      1648.0         0.23       1599.2 
      1649.0         0.23       1402.4 
      1650.0         0.23       1235.3 
      1651.0         0.20       1096.5 
      1652.0         0.23        996.4 
      1653.0         0.23        911.5 
      1654.0         0.20        854.9 
      1655.0         0.17        813.5 
      1656.0         0.17        789.6 
      1657.0         0.13        768.3 
      1658.0         0.17        745.4 
      1659.0         0.17        720.1 
      1660.0         0.18        709.4 
      1661.0         0.17        713.7 
      1662.0         0.17        718.8 
      1663.0         0.17        717.8 
      1664.0         0.17        710.4 
      1665.0         0.17        695.2 
      1666.0         0.17        682.4 
      1667.0         0.17        669.3 
      1668.0         0.20        656.8 
      1669.0         0.27        650.1 
      1670.0         0.23        653.4 
      1671.0         0.20        653.8 
      1672.0         0.23        652.8 
      1673.0         0.13        649.4 
      1674.0         0.17        645.7 
      1675.0         0.23        632.5 
      1676.0         2.02       1604.5 
      1677.0         0.30       1831.0 
      1678.0         0.33       1882.8 
      1679.0         0.27       1851.2 
      1680.0         0.23       1665.9 
      1681.0         0.17       1467.8 
      1682.0         0.23       1341.1 
      1683.0         0.28       1185.8 
      1684.0         0.30       1034.8 
      1685.0         0.23        902.1 
      1686.0         0.27        838.7 
      1687.0         0.17        790.6 
      1688.0         0.17        768.0 
      1689.0         0.27        753.5 
      1690.0         0.20        740.7 
      1691.0         0.20        734.6 
      1692.0         0.20        728.6 
      1693.0         0.17        717.5 
      1694.0         0.23        709.0 
