~Version Information
VERS.                      2.0: CWLS Log ASCII Standard - VERSION 2.0
WRAP.                       NO: One line per depth step
~Well Information Block
STRT.FT                -4.0000: 
STOP.FT              2464.0000: 
STEP.FT                 0.2500: 
NULL.                -999.2500: 
COMP.          Pioneer Natural Resources: COMPANY
WELL.            Rancher 12-35: WELL
FLD.           Purgatorie River: FIELD
LOC.           2131' FNL & 297' FWL--: LOCATION
PROV.                       CO: PROVINCE
CNTY.               Las Animas: COUNTRY
SRVC.                         : SERVICE COMPANY
DATE.          Wed Oct 20 13:17:53 2004: LOG DATE
UWI.                          : UNIQUE WELL ID
~Curve Information Block
DEPT.FT            0 000 00 00: Depth
GR.GAPI                       : Gamma Ray
CCL.                          : Casing Collar Locator
TT3.usec                      : CBL 3' Travel Time
AMP3.mV                       : CBL 3' Amplitude
~Parameter Information Block
~A  Depth        GR         CCL         TT3         AMP3    
# ...
   331.0000     94.2537      0.0000    648.8521      4.6159
   331.2500     94.9075      0.0000    658.1571      4.5191
   331.5000     94.2522      0.0000    672.4665      4.3889
   331.7500     94.3923      0.0000    690.1416      4.2347
   332.0000     96.2627      0.0000    706.5298      4.0862
   332.2500     99.1081      0.0000    718.0338      3.9719
   332.5000    101.7430      0.0000    724.1882      3.9005
   332.7500    103.6798      0.0000    726.6257      3.8654
   333.0000    105.0842      0.0000    727.1735      3.8585
   333.2500    105.9598      0.0000    726.9444      3.8745
   333.5000    105.6266      0.0000    726.3226      3.9072
   333.7500    103.5378      0.0000    725.1252      3.9503
   334.0000    100.6152      0.0000    722.5815      4.0003
   334.2500     98.9417      0.0000    717.5551      4.0557
   334.5000     99.7683      0.0000    709.4590      4.1166
   334.7500    102.3351      0.0000    698.9533      4.1879
   335.0000    104.8770      0.0000    686.5950      4.2813
   335.2500    106.2955      0.0000    670.2107      4.4061
   335.5000    106.5550      0.0000    645.2004      4.5552
   335.7500    105.9649      0.0000    609.3581      4.7060
   336.0000    104.6892      0.0000    567.3856      4.8334
   336.2500    102.9456      0.0000    529.7173      4.9230
   336.5000    101.1513      0.0000    505.7544      4.9760
   336.7500     99.3497      0.0000    496.8985      5.0014
   337.0000     96.7710      0.0000    495.5795      5.0023
   337.2500     92.6969      0.0000    491.3236      4.9767
   337.5000     87.6375      0.0000    477.9409      4.9316
   337.7500     83.0177      0.0000    456.0446      4.8840
   338.0000     79.8055      0.0000    431.2517      4.8447
   338.2500     77.9208      0.0000    410.9182      4.8096
   338.5000     76.8243      0.0000    400.6289      4.7670
   338.7500     76.1921      0.0000    401.7456      4.7073
   339.0000     75.9083      0.0000    411.5428      4.6268
   339.2500     75.7767      0.0000    425.2659      4.5291
   339.5000     75.6406      0.0000    438.2055      4.4214
   339.7500     75.8766      0.0000    446.8351      4.3113
   340.0000     77.4714      0.0000    449.1061      4.2075
   340.2500     81.2141      0.0000    444.4186      4.1206
   340.5000     86.6661      0.0000    433.9001      4.0585
   340.7500     92.0144      0.0000    420.9130      4.0184
   341.0000     95.0009      0.0000    410.3522      3.9834
   341.2500     94.1231      0.0000    406.2183      3.9319
   341.5000     89.2869      0.0000    409.4607      3.8562
   341.7500     81.5472      0.0000    418.1453      3.7683
   342.0000     72.2431      0.0000    429.3811      3.6861
   342.2500     62.5381      0.0000    441.0166      3.6200
   342.5000     53.8585      0.0000    452.6514      3.5684
   342.7500     48.2671      0.0000    465.8945      3.5215
   343.0000     47.6547      0.0000    482.9742      3.4734
   343.2500     52.3738      0.0000    504.8319      3.4369
   343.5000     61.0097      0.0000    532.0696      3.4379
   343.7500     71.5602      0.0000    567.4918      3.4905
   344.0000     82.2599      0.0000    613.4114      3.5811
   344.2500     91.2084      0.0000    664.6230      3.6840
   344.5000     96.4837      0.0000    708.2297      3.7911
   344.7500     97.6161      0.0000    733.2950      3.9131
   345.0000     96.2402      0.0000    738.9860      4.0387
   345.2500     94.3857      0.0000    733.7469      4.0975
   345.5000     92.6169      0.0000    729.8356      3.9950
   345.7500     90.3480      0.0000    738.0843      3.7152
   346.0000     87.2215      0.0000    763.0935      3.3679
   346.2500     83.4522      0.0000    799.8240      3.1006
   346.5000     79.1880      0.0000    834.7325      2.9645
   346.7500     74.2503      2.0000    851.5154      2.8844
   347.0000     68.6902      0.0000    837.9203      2.7420
   347.2500     63.2503      0.0000    791.1277      2.4677
   347.5000     59.0507      0.0000    721.1588      2.0698
   347.7500     57.1624      0.0000    648.6561      1.6097
   348.0000     58.4799      0.0000    593.3776      1.1588
   348.2500     63.2006      0.0000    560.7559      0.7729
   348.5000     70.0042      0.0000    540.8024      0.4883
   348.7500     76.3998      0.0000    521.0665      0.3229
   349.0000     80.5081      0.0000    498.3334      0.2787
   349.2500     82.3273      0.0000    477.4821      0.3491
   349.5000     83.1199      0.0000    463.2380      0.5227
   349.7500     83.9323      0.0000    455.9089      0.7762
   350.0000     84.8196      0.0000    453.0311      1.0710
   350.2500     85.2759      0.0000    452.1827      1.3680
   350.5000     85.1803      0.0000    452.0389      1.6528
   350.7500     85.0694      0.0000    452.0895      1.9406
   351.0000     85.6004      0.0000    452.1745      2.2615
   351.2500     87.2456      0.0000    452.2292      2.6445
   351.5000     90.4087      0.0000    452.2732      3.1050
   351.7500     95.0518      0.0000    452.4697      3.6287
   352.0000     99.9219      0.0000    453.1701      4.1664
   352.2500    102.8308      0.0000    454.7607      4.6630
   352.5000    102.4556      0.0000    457.2489      5.0916
   352.7500     99.9013      0.0000    459.9740      5.4537
   353.0000     98.0795      0.0000    462.1152      5.7588
   353.2500     99.3784      0.0000    463.7700      6.0221
   353.5000    103.9979      0.0000    466.1050      6.2697
   353.7500    110.2548      0.0000    469.8272      6.5236
   354.0000    115.8601      0.0000    473.7089      6.7817
   354.2500    118.8755      0.0000    475.3277      7.0217
   354.5000    118.4114      0.0000    473.4807      7.2171
   354.7500    115.2746      0.0000    469.4746      7.3406
   355.0000    111.7253      0.0000    465.7439      7.3696
   355.2500    110.0083      0.0000    463.4268      7.3063
   355.5000    110.9446      0.0000    461.7073      7.1893
   355.7500    113.7794      0.0000    459.3877      7.0689
   356.0000    116.8260      0.0000    456.4390      6.9709
   356.2500    118.1322      0.0000    453.7770      6.8913
   356.5000    116.4120      0.0000    452.1086      6.8211
   356.7500    112.2813      0.0000    451.4281      6.7611
   357.0000    108.3682      0.0000    451.3850      6.7123
   357.2500    107.2709      0.0000    451.7694      6.6681
   357.5000    109.0414      0.0000    452.7172      6.6282
   357.7500    111.1804      0.0000    454.5961      6.6115
   358.0000    111.4899      0.0000    457.6313      6.6373
   358.2500    110.3730      0.0000    461.4624      6.6921
   358.5000    109.8773      0.0000    465.1298      6.7302
   358.7500    111.1405      0.0000    467.6173      6.7129
   359.0000    113.4007      0.0000    468.3672      6.6372
   359.2500    114.8244      0.0000    467.2730      6.5257
   359.5000    113.6475      0.0000    464.5057      6.4000
   359.7500    109.2673      0.0000    460.6167      6.2724
   360.0000    103.0666      0.0000    456.5859      6.1522
   360.2500     97.8031      0.0000    453.3779      6.0485
   360.5000     95.4982      0.0000    451.3875      5.9639
   360.7500     95.8727      0.0000    450.3969      5.8927
   361.0000     97.0178      0.0000    449.9695      5.8265
   361.2500     97.5232      0.0000    449.7784      5.7635
   361.5000     97.7364      0.0000    449.6770      5.7091
   361.7500     98.9513      0.0000    449.6296      5.6620
   362.0000    101.7129      0.0000    449.6534      5.6032
   362.2500    105.2031      0.0000    449.7759      5.5117
   362.5000    108.0923      0.0000    450.0105      5.3906
   362.7500    109.5129      0.0000    450.3376      5.2695
   363.0000    109.3139      0.0000    450.7052      5.1807
   363.2500    107.9444      0.0000    451.0454      5.1356
   363.5000    106.3168      0.0000    451.2954      5.1228
   363.7500    105.4691      0.0000    451.4087      5.1263
   364.0000    106.1267      0.0000    451.3643      5.1378
   364.2500    108.3912      0.0000    451.1895      5.1481
