~Version Information
VERS.                      2.0: CWLS Log ASCII Standard - VERSION 2.0
WRAP.                       NO: One line per depth step
~Well Information Block
STRT.FT               360.0000: 
STOP.FT              1622.7000: 
STEP.FT                 0.1000: 
NULL.                -999.2500: 
COMP.          Pioneer Natural Resources: COMPANY
WELL.                Eric 42-9: WELL
FLD.           Purgatoire River: FIELD
LOC.           2050' FNL & 850' FEL: LOCATION
PROV.                 Colorado: PROVINCE
CNTY.               Las Animas: COUNTRY
SRVC.                Patterson: SERVICE COMPANY
DATE.          Mon Nov 01 08:19:51 2004: LOG DATE
UWI.           05 071 07999 00: UNIQUE WELL ID
~Curve Information Block
DEPT.FT            0 000 00 00: Depth
DCAL.in                       : CDL Caliper
RHOB.g/cc                     : CDL Bulk Density
RHOC.g/cc                     : CDL Density Correction
DPOR.pu                       : CDL Density Porosity
NPOR.pu                       : Neutron Porosity
GR.GAPI                       : Gamma Ray
~Parameter Information Block
~A  Depth       DCAL        RHOB        RHOC        DPOR        NPOR         GR     
# ...
  1012.8000      8.1936      2.5434      0.0751      6.4632     22.8191    113.3836
  1012.9000      8.1936      2.5470      0.0208      6.2444     23.4983    116.9801
  1013.0000      8.1934      2.5513      0.0070      5.9825     23.3079    124.1470
  1013.1000      8.1934      2.5560      0.0644      5.6958     22.6284    130.9576
  1013.2000      8.1934      2.5497      0.0337      6.0774     22.4811    132.7456
  1013.3000      8.1957      2.5342      0.0773      7.0183     23.2145    132.2587
  1013.4000      8.1957      2.5127      0.0144      8.3226     24.2195    135.2520
  1013.5000      8.1979      2.4890      0.0274      9.7556     24.3820    145.0759
  1013.6000      8.1979      2.4799      0.0052     10.3095     23.4446    158.7646
  1013.7000      8.1979      2.4986      0.0551      9.1778     22.2077    169.2830
  1013.8000      8.1982      2.5300      0.1271      7.2704     20.9302    174.1148
  1013.9000      8.1982      2.5526      0.0912      5.9028     19.6245    171.5076
  1014.0000      8.1873      2.5660      0.1004      5.0894     18.7665    159.1019
  1014.1000      8.1873      2.5766      0.0766      4.4500     18.2008    143.5488
  1014.2000      8.1873      2.5841      0.0924      3.9965     17.4100    131.6373
  1014.3000      8.1635      2.5879      0.0598      3.7666     16.9225    123.5081
  1014.4000      8.1635      2.5872      0.0926      3.8057     17.0003    120.2436
  1014.5000      8.1478      2.5781      0.0998      4.3571     16.8317    120.8401
  1014.6000      8.1478      2.5650      0.0679      5.1496     16.4547    119.9093
  1014.7000      8.1478      2.5560      0.0516      5.6979     16.7158    115.7208
  1014.8000      8.1437      2.5495      0.0298      6.0893     17.2781    112.1103
  1014.9000      8.1437      2.5453      0.0263      6.3473     17.5220    112.5660
  1015.0000      8.1418      2.5522      0.0280      5.9269     17.5703    114.1205
  1015.1000      8.1418      2.5771      0.0491      4.4192     17.4048    112.3432
  1015.2000      8.1418      2.6055      0.0958      2.6956     16.7740    109.3974
  1015.3000      8.1348      2.6175      0.0799      1.9686     15.6790    108.4686
  1015.4000      8.1348      2.6167      0.0719      2.0162     14.3835    108.2517
  1015.5000      8.1228      2.6245      0.0405      1.5463     13.4961    107.4518
  1015.6000      8.1228      2.6480      0.1072      0.1201     13.5749    104.4504
  1015.7000      8.1228      2.6643      0.1269     -0.8677     14.5492     98.5099
  1015.8000      8.1161      2.6562      0.0777     -0.3755     15.7889     95.9555
  1015.9000      8.1161      2.6344      0.0466      0.9435     16.7774     99.5276
  1016.0000      8.1199      2.6085      0.0422      2.5161     17.7152    102.9077
  1016.1000      8.1199      2.5821      0.0332      4.1159     18.9424    101.9388
  1016.2000      8.1199      2.5710      0.0116      4.7861     20.0879     98.8802
  1016.3000      8.1456      2.5794      0.0534      4.2783     20.8939     97.8554
  1016.4000      8.1456      2.5869      0.0661      3.8220     21.6155    101.5430
  1016.5000      8.1951      2.5801      0.0481      4.2355     22.4655    107.0618
  1016.6000      8.1951      2.5645      0.0193      5.1833     23.6114    114.8449
  1016.7000      8.1951      2.5486      0.0310      6.1446     24.7341    131.9479
  1016.8000      8.2346      2.5315      0.0351      7.1790     25.1125    153.8947
  1016.9000      8.2346      2.5127      0.0257      8.3208     25.0528    167.1377
  1017.0000      8.2485      2.5017      0.0031      8.9869     25.2637    167.9163
  1017.1000      8.2485      2.5000      0.0381      9.0905     25.3733    164.6039
  1017.2000      8.2485      2.4998      0.0253      9.1008     25.0213    163.6521
  1017.3000      8.2514      2.5089      0.0094      8.5534     24.3700    161.8916
  1017.4000      8.2514      2.5350      0.0344      6.9705     23.8853    158.6975
  1017.5000      8.2521      2.5647      0.0700      5.1674     23.7420    158.3024
  1017.6000      8.2521      2.5847      0.0491      3.9587     23.5988    159.8587
  1017.7000      8.2521      2.5932      0.0844      3.4420     23.4374    160.8560
  1017.8000      8.2521      2.5861      0.0757      3.8699     23.5478    162.2587
  1017.9000      8.2521      2.5704      0.0441      4.8220     24.0700    162.6606
  1018.0000      8.2520      2.5658      0.0791      5.1011     24.8913    159.1777
  1018.1000      8.2520      2.5698      0.1016      4.8586     25.7045    156.7811
  1018.2000      8.2520      2.5628      0.1040      5.2837     26.1489    158.0410
  1018.3000      8.2521      2.5477      0.0707      6.1982     25.7423    156.1796
  1018.4000      8.2521      2.5432      0.0814      6.4739     24.6293    150.8930
  1018.5000      8.2528      2.5487      0.0906      6.1364     23.6490    148.9401
  1018.6000      8.2528      2.5459      0.0654      6.3088     23.1805    152.7831
  1018.7000      8.2528      2.5226      0.0715      7.7206     23.1756    161.5008
  1018.8000      8.2528      2.4921     -0.0036      9.5714     23.6407    171.9667
  1018.9000      8.2528      2.4754      0.0262     10.5825     24.3174    175.9211
  1019.0000      8.2542      2.4680      0.0440     11.0306     24.8658    172.4453
  1019.1000      8.2542      2.4598      0.0291     11.5247     25.1941    171.4346
  1019.2000      8.2542      2.4574      0.0480     11.6725     25.4687    174.3123
  1019.3000      8.2594      2.4629      0.0865     11.3365     25.7318    174.7161
  1019.4000      8.2594      2.4633      0.1155     11.3152     25.5786    171.0846
  1019.5000      8.2713      2.4481      0.0986     12.2367     25.2422    168.0468
  1019.6000      8.2713      2.4250      0.0823     13.6385     25.4993    167.6244
  1019.7000      8.2713      2.4041      0.0949     14.9028     25.8942    164.9096
  1019.8000      8.2943      2.3844      0.1113     16.0958     25.6771    158.9784
  1019.9000      8.2943      2.3719      0.0535     16.8549     25.6414    152.6333
  1020.0000      8.3324      2.3796      0.0808     16.3853     26.0349    145.6604
  1020.1000      8.3324      2.3988      0.1115     15.2263     26.1183    137.0578
  1020.2000      8.3324      2.4117      0.0888     14.4445     26.4155    129.3815
  1020.3000      8.3808      2.4173      0.1208     14.1008     27.4414    125.5935
  1020.4000      8.3808      2.4263      0.1103     13.5556     28.4840    123.4149
  1020.5000      8.4328      2.4429      0.1631     12.5516     28.7967    122.8966
  1020.6000      8.4328      2.4400      0.2637     12.7260     28.3290    125.2260
  1020.7000      8.4328      2.3858      0.2473     16.0096     27.3701    128.8848
  1020.8000      8.5106      2.3044      0.1629     20.9469     26.1611    134.3794
  1020.9000      8.5106      2.2539      0.1241     24.0083     25.3425    141.2962
  1021.0000      8.6566      2.2522      0.1387     24.1117     25.5588    146.8535
  1021.1000      8.6566      2.2733      0.1138     22.8290     26.2381    150.2486
  1021.2000      8.6566      2.3026      0.0933     21.0543     26.6274    153.7329
  1021.3000      8.7765      2.3511      0.0898     18.1155     26.8532    158.0058
  1021.4000      8.7765      2.4254      0.2158     13.6103     27.0439    159.4480
  1021.5000      8.7013      2.5091      0.3174      8.5366     26.8614    156.9675
  1021.6000      8.7013      2.5761      0.3929      4.4779     26.2622    158.7647
  1021.7000      8.7013      2.6130      0.3924      2.2397     25.6443    167.9921
  1021.8000      8.5288      2.6325      0.2832      1.0595     24.9877    172.5369
  1021.9000      8.5288      2.6456      0.2829      0.2689     23.8402    165.1488
  1022.0000      8.3943      2.6402      0.1940      0.5944     22.3527    153.9716
  1022.1000      8.3943      2.6192      0.0908      1.8645     21.2464    143.2757
  1022.2000      8.3943      2.6024      0.1071      2.8870     20.5446    130.3278
  1022.3000      8.2646      2.5921      0.0884      3.5088     19.5767    120.4464
