~Version Information
VERS.                      2.0: CWLS Log ASCII Standard - VERSION 2.0
WRAP.                       NO: One line per depth step
~Well Information Block
STRT.FT                -8.2500: 
STOP.FT               871.5000: 
STEP.FT                 0.2500: 
NULL.                -999.2500: 
COMP.          Pioneer Natural Resources: COMPANY
WELL.             Tomcat 32-10: WELL
FLD.           Purgatorie River: FIELD
LOC.           2286' FNL & 2463' FEL------: LOCATION
PROV.                       CO: PROVINCE
CNTY.               Las Animas: COUNTRY
SRVC.          Patterson Wireline: SERVICE COMPANY
DATE.          Mon Mar 28 09:03:25 2005: LOG DATE
UWI.           05 071 08301 00: UNIQUE WELL ID
~Curve Information Block
DEPT.FT            0 000 00 00: Depth
CCL.                          : Casing Collar Locator
TT3.usec                      : CBL 3' Travel Time
AMP3.mV                       : CBL 3' Amplitude
GR.GAPI                       : Gamma Ray
~Parameter Information Block
~A  Depth       CCL         TT3         AMP3         GR     
# ...
   259.7500      0.0000    786.8178      6.9257     73.0090
   260.0000      0.0000    785.5663      6.8724     63.8005
   260.2500      0.0000    783.3613      6.8708     56.5757
   260.5000      0.0000    781.1584      6.8931     52.0085
   260.7500      0.0000    780.1830      6.9135     49.8201
   261.0000      0.0000    781.0438      6.9198     49.4615
   261.2500      0.0000    783.1671      6.9136     50.5860
   261.5000      0.0000    785.3543      6.9019     52.8688
   261.7500      0.0000    786.7168      6.8929     55.5621
   262.0000      0.0000    786.9019      6.8980     57.5933
   262.2500      0.0000    785.6805      6.9279     58.4011
   262.5000      0.0000    782.8058      6.9848     58.5938
   262.7500      0.0000    778.6227      7.0567     59.5037
   263.0000      0.0000    774.7279      7.1217     62.0169
   263.2500      0.0000    773.3391      7.1602     66.0330
   263.5000      0.0000    775.4197      7.1665     71.1148
   263.7500      0.0000    779.6912      7.1509     77.3039
   264.0000      0.0000    783.8947      7.1306     84.8747
   264.2500      0.0000    786.6817      7.1206     93.4392
   264.5000      0.0000    788.0663      7.1287    101.8111
   264.7500      0.0000    788.6323      7.1503    108.9145
   265.0000      0.0000    788.8718      7.1668    114.4257
   265.2500      0.0000    789.1589      7.1586    118.2444
   265.5000      0.0000    789.9700      7.1222    119.8524
   265.7500      0.0000    791.8248      7.0708    118.7857
   266.0000      0.0000    794.7632      7.0211    115.5361
   266.2500      0.0000    797.7745      6.9840    111.5878
   266.5000      0.0000    799.1242      6.9667    108.6728
   266.7500      0.0000    797.6519      6.9736    107.8293
   267.0000      0.0000    793.7442      7.0018    108.6314
   267.2500      0.0000    789.0439      7.0363    109.3804
   267.5000      0.0000    785.5740      7.0500    108.4918
   267.7500      0.0000    785.0278      7.0121    105.7165
   268.0000      0.0000    788.1208      6.9035    101.9463
   268.2500      0.0000    794.4450      6.7302     98.1417
   268.5000      0.0000    803.4719      6.5209     94.6911
   268.7500      0.0000    815.4543      6.3175     91.7341
   269.0000      0.0000    830.2609      6.1620     89.5816
   269.2500      0.0000    845.1107      6.0767     88.3738
   269.5000      0.0000    854.7150      6.0443     87.6388
   269.7500      0.0000    854.7695      6.0147     86.8087
   270.0000      0.0000    845.6080      5.9376     85.9598
   270.2500      0.0000    832.4287      5.7877     85.4051
   270.5000      0.0000    821.7692      5.5667     84.5697
   270.7500      0.0000    817.3174      5.2979     81.8648
   271.0000      0.0000    818.6228      5.0213     76.0925
   271.2500      0.0000    822.8615      4.7790     67.9292
   271.5000      0.0000    826.7922      4.5964     59.8109
   271.7500      0.0000    827.3864      4.4769     54.2349
   272.0000      0.0000    822.4578      4.4132     52.0788
   272.2500      0.0000    812.3752      4.3985     52.4388
   272.5000      0.0000    801.2514      4.4288     53.9937
   272.7500      0.0000    795.0739      4.5040     56.3775
   273.0000      0.0000    797.0595      4.6300     60.2062
   273.2500      0.0000    804.4848      4.8150     66.0984
   273.5000      0.0000    810.7289      5.0604     74.0044
   273.7500      0.0000    810.7204      5.3577     83.3131
   274.0000      0.0000    804.4414      5.6910     93.0861
   274.2500      0.0000    795.8181      6.0369    102.0088
   274.5000      0.0000    789.0281      6.3609    108.4704
   274.7500      0.0000    785.7009      6.6247    111.2415
   275.0000      0.0000    784.7350      6.8014    110.3108
   275.2500      0.0000    784.0895      6.8867    107.0649
   275.5000      0.0000    782.7054      6.8941    103.6120
   275.7500      0.0000    781.1556      6.8454    101.6818
   276.0000      0.0000    780.8022      6.7651    101.7015
   276.2500      0.0000    782.3748      6.6735    102.6609
   276.5000      0.0000    785.3818      6.5800    102.8928
   276.7500      0.0000    788.8936      6.4860    101.0033
   277.0000      0.0000    792.5029      6.3929     96.4307
   277.2500      0.0000    796.1648      6.3023     89.9045
   277.5000      0.0000    799.3182      6.2079     83.6166
   277.7500      0.0000    800.7985      6.0986     80.1201
   278.0000      0.0000    799.9189      5.9730     80.2771
   278.2500      0.0000    797.3062      5.8452     82.2563
   278.5000      0.0000    794.3548      5.7353     82.9351
   278.7500      0.0000    792.0936      5.6589     80.5682
   279.0000      0.0000    790.7658      5.6257     76.0432
   279.2500      0.0000    790.1636      5.6397     71.6822
   279.5000      0.0000    790.0064      5.6945     69.3907
   279.7500      0.0000    790.0360      5.7740     69.9658
   280.0000      0.0000    789.9473      5.8598     73.2040
   280.2500      0.0000    789.2938      5.9393     78.1359
   280.5000      0.0000    787.5245      6.0088     83.4618
   280.7500      0.0000    784.2902      6.0725     88.0864
   281.0000      0.0000    779.8442      6.1395     91.4946
   281.2500      0.0000    775.1111      6.2174     93.9976
   281.5000      0.0000    771.2775      6.3037     96.4790
   281.7500      0.0000    769.1819      6.3832     99.3531
   282.0000      0.0000    768.7328      6.4398    101.8376
   282.2500      0.0000    768.7824      6.4723    102.6881
   282.5000      0.0000    768.0226      6.4925    101.6482
   282.7500      0.0000    766.2087      6.5037    100.0497
   283.0000      0.0000    764.1332      6.4898    100.0815
   283.2500      0.0000    762.6199      6.4320    103.2382
   283.5000      0.0000    762.3425      6.3343    108.9020
   283.7500      0.0000    764.9691      6.2282    114.3804
   284.0000      0.0000    774.2109      6.1477    116.7944
   284.2500      0.0000    794.5121      6.0948    115.1670
   284.5000      0.0000    826.5413      6.0378    110.7323
   284.7500      0.0000    863.4501      5.9550    105.6109
   285.0000      0.0000    893.9861      5.8682    101.3764
   285.2500      0.0000    910.5881      5.8195     98.3701
   285.5000      0.0000    913.2145      5.8235     95.8594
   285.7500      2.0000    906.4270      5.8578     93.1608
   286.0000      2.0000    895.9504      5.8972     90.9725
   286.2500      0.0000    886.8549      5.9568     91.1767
   286.5000      0.0000    880.2567      6.1012     94.8454
   286.7500      0.0000    871.2876      6.3893    100.8285
   287.0000      0.0000    854.0226      6.7901    106.7086
   287.2500      0.0000    828.9990      7.1700    110.7049
   287.5000      0.0000    803.6053      7.3955    112.3743
   287.7500      0.0000    785.5430      7.4377    112.1534
   288.0000      0.0000    777.5339      7.3624    110.8443
   288.2500      0.0000    777.2719      7.2481    109.3198
   288.5000      0.0000    780.4911      7.1392    108.2388
   288.7500      0.0000    783.8957      7.0491    107.8844
   289.0000      0.0000    786.2452      6.9756    108.2989
   289.2500      0.0000    787.6726      6.9129    109.4343
   289.5000      0.0000    788.5436      6.8622    111.0027
   289.7500      0.0000    788.9847      6.8357    112.4751
   290.0000      0.0000    789.0158      6.8487    113.5695
   290.2500      0.0000    788.7519      6.9103    114.5366
   290.5000      0.0000    788.3807      7.0200    115.7553
   290.7500      0.0000    788.0461      7.1703    117.2788
   291.0000      0.0000    787.8133      7.3501    118.7623
   291.2500      0.0000    787.6979      7.5478    119.5215
   291.5000      0.0000    787.7399      7.7548    118.8997
   291.7500      0.0000    788.1685      7.9677    117.0333
   292.0000      0.0000    789.6022      8.1811    114.9497
   292.2500      0.0000    792.8230      8.3771    113.4146
   292.5000      0.0000    797.8055      8.5263    111.9857
   292.7500      0.0000    802.7809      8.6068    109.6342
   293.0000      0.0000    805.0744      8.6225    106.0234
